     3.04           OBSERVATION DATA    G                   RINEX VERSION / TYPE
sbf2rin-13.8.0                          20220215 104928 UTC PGM / RUN BY / DATE 
SEPT                                                        MARKER NAME         
Unknown                                                     MARKER NUMBER       
Unknown             Unknown                                 OBSERVER / AGENCY   
3058160             SEPT ALTUS NR3      1.3.1-r72611        REC # / TYPE / VERS 
Altus NR3           SEPALTUS_NR3    NONE                    ANT # / TYPE        
  3509446.3453   779081.1531  5250981.4165                  APPROX POSITION XYZ 
        0.0000        0.0000        0.0000                  ANTENNA: DELTA H/E/N
G   12 C1C L1C D1C S1C C2W L2W D2W S2W C2L L2L D2L S2L      SYS / # / OBS TYPES 
SEPTENTRIO RECEIVERS OUTPUT ALIGNED CARRIER PHASES.         COMMENT             
NO FURTHER PHASE SHIFT APPLIED IN THE RINEX ENCODER.        COMMENT             
G L1C                                                       SYS / PHASE SHIFT   
G L2W                                                       SYS / PHASE SHIFT   
G L2L  0.00000                                              SYS / PHASE SHIFT   
     1.000                                                  INTERVAL            
  2022     2    14    14    37   51.0000000     GPS         TIME OF FIRST OBS   
  2022     2    14    14    50   38.0000000     GPS         TIME OF LAST OBS    
    47                                                      # OF SATELLITES     
DBHZ                                                        SIGNAL STRENGTH UNIT
                                                            END OF HEADER       
> 2022 02 14 14 37 51.0000000  0 10
G02  22473667.751 7 118099923.39807      1111.602 7        45.219    22473665.369 5  92025903.19805       866.182 5        35.688
G06  23992891.505 6 126083489.24206     -1161.620 6        38.500    23992893.064 6  98246883.43906      -905.160 6        38.594    23992894.776 6  98246887.43106      -905.120 6        40.625
G12  21699814.096 7 114033291.73007     -1197.903 7        46.031    21699812.748 7  88857106.35207      -933.432 7        47.906    21699813.720 7  88857091.35107      -933.433 7        43.000
G20  25482450.614 6 133911180.43206      4430.611 6        38.500    25482452.567 2 104346382.88102      3452.433 2        15.219
G22  23136785.384 7 121584625.72507      -140.571 7        42.875    23136784.195 4  94741262.14304      -109.536 4        26.750
G24  25698075.805 6 135044294.67406     -2399.646 6        38.406    25698080.180 4 105229341.18804     -1869.848 4        29.344    25698080.182 5 105229347.18105     -1869.650 5        34.125
G25  19974900.360 8 104968808.39808      1042.885 8        48.781    19974901.751 8  81793880.98508       812.637 8        53.906    19974902.451 7  81793883.98907       812.625 7        47.938
G29  21276698.787 7 111809807.92707      3745.104 7        46.656    21276698.307 8  87124524.95408      2918.261 8        49.688    21276699.044 7  87124525.96307      2918.259 7        44.750
G31  21806269.359 7 114592717.97707      3376.808 7        46.844    21806267.592 6  89293022.60306      2631.272 6        38.563    21806268.283 7  89293022.60607      2631.313 7        44.031
G32  23901777.852 7 125604684.88907     -1324.042 7        43.219    23901780.567 4  97873792.94604     -1031.731 4        26.938    23901781.903 6  97873789.94306     -1031.615 6        38.031
> 2022 02 14 14 37 52.0000000  0 10
G02  22473456.333 7 118098812.57007      1110.892 7        45.344    22473453.991 5  92025037.61605       865.627 5        35.500
G06  23993112.473 6 126084651.40406     -1162.102 6        38.563    23993114.243 6  98247789.01806      -905.537 6        38.438    23993115.994 6  98247793.01606      -905.444 6        40.375
G12  21700042.144 7 114034490.27307     -1198.403 7        46.156    21700040.800 7  88858040.28107      -933.823 7        47.750    21700041.683 7  88858025.28407      -933.817 7        43.031
G20  25481607.531 6 133906750.39406      4430.298 6        38.594    25481609.568 2 104342930.90502      3452.189 2        15.469
G22  23136812.379 7 121584767.09407      -141.339 7        42.719    23136811.155 4  94741372.29604      -110.142 4        26.688
G24  25698532.302 6 135046694.52706     -2399.556 6        38.500    25698536.885 4 105231211.20104     -1869.779 4        29.344    25698537.264 5 105231217.19205     -1869.778 5        33.969
G25  19974702.075 8 104967766.26908      1042.216 8        48.906    19974703.439 8  81793068.93808       812.113 8        53.781    19974704.133 7  81793071.93907       812.120 7        47.844
G29  21275986.327 7 111806063.49307      3744.508 7        46.594    21275985.750 8  87121607.21208      2917.795 8        49.563    21275986.567 7  87121608.22207      2917.734 7        44.781
G31  21805627.106 7 114589341.91307      3376.108 7        46.938    21805625.140 6  89290391.90506      2630.729 6        38.438    21805625.772 7  89290391.90507      2630.782 7        44.031
G32  23902030.039 7 125606009.61207     -1324.509 7        43.313    23902032.663 4  97874825.20004     -1032.077 4        26.781    23902034.236 6  97874822.23006     -1032.273 6        38.156
> 2022 02 14 14 37 53.0000000  0 10
G02  22473245.047 7 118097702.13807      1109.715 7        45.563    22473242.680 5  92024172.34405       864.712 5        35.563
G06  23993333.416 6 126085813.84406     -1163.142 6        39.563    23993335.477 6  98248694.82206      -906.350 6        38.375    23993337.004 6  98248698.82506      -906.202 6        40.094
G12  21700270.267 7 114035688.94507     -1199.200 7        46.250    21700268.880 7  88858974.30907      -934.441 7        47.750    21700269.660 7  88858959.30507      -934.502 7        43.313
G20  25480764.242 6 133902320.30906      4429.625 6        38.813    25480766.520 2 104339478.89102      3451.640 2        15.469
G22  23136839.328 7 121584908.79207      -142.474 7        42.625    23136838.137 4  94741482.71504      -111.024 4        26.750
G24  25698988.700 6 135049094.12606     -2399.952 6        38.438    25698993.500 4 105233081.01504     -1870.097 4        29.438    25698994.384 5 105233087.04205     -1870.166 5        33.688
G25  19974503.800 8 104966724.47208      1041.172 8        49.125    19974505.189 8  81792257.14808       811.302 8        53.781    19974505.861 8  81792260.15208       811.270 8        48.000
G29  21275273.916 7 111802319.34807      3743.563 7        46.719    21275273.259 8  87118689.69808      2917.061 8        49.563    21275274.097 7  87118690.70407      2917.052 7        44.969
G31  21804984.727 7 114585966.19307      3375.067 7        47.219    21804982.769 6  89287761.47406      2629.919 6        38.469    21804983.343 7  89287761.48107      2629.907 7        44.063
G32  23902282.117 7 125607334.48207     -1325.440 7        43.625    23902284.796 4  97875857.56304     -1032.808 4        26.844    23902286.336 6  97875854.56706     -1032.844 6        38.688
> 2022 02 14 14 37 54.0000000  0 10
G02  22473033.932 7 118096592.29807      1109.076 7        45.281    22473031.480 5  92023307.53705       864.213 5        35.594
G06  23993554.451 6 126086976.73706     -1163.489 6        38.844    23993556.742 6  98249600.97206      -906.613 6        38.344    23993558.337 6  98249604.96406      -906.710 6        40.594
G12  21700498.467 7 114036887.93507     -1199.581 7        46.125    21700497.027 7  88859908.58407      -934.740 7        47.781    21700497.710 7  88859893.59007      -934.808 7        43.281
G20  25479921.122 6 133897890.36606      4429.360 6        38.844    25479923.516 2 104336027.00902      3451.443 2        15.281
G22  23136866.354 7 121585051.00607      -142.916 7        42.563    23136865.203 4  94741593.53204      -111.354 4        26.688
G24  25699445.293 6 135051493.68206     -2400.103 6        38.344    25699450.111 4 105234950.80004     -1870.212 4        29.375    25699450.624 5 105234956.82905     -1870.124 5        34.313
G25  19974305.748 8 104965683.20008      1040.533 8        49.094    19974307.038 8  81791445.76608       810.804 8        53.813    19974307.745 8  81791448.76808       810.845 8        48.031
G29  21274561.495 7 111798575.68707      3742.898 7        46.813    21274560.858 8  87115772.56008      2916.542 8        49.594    21274561.702 7  87115773.56607      2916.526 7        44.906
G31  21804342.628 7 114582591.01407      3374.411 7        47.281    21804340.488 6  89285131.46506      2629.406 6        38.500    21804341.086 7  89285131.46707      2629.392 7        44.094
G32  23902534.362 7 125608659.66607     -1325.785 7        43.500    23902536.946 4  97876890.17104     -1033.080 4        26.719    23902538.725 6  97876887.18906     -1033.119 6        38.375
> 2022 02 14 14 37 55.0000000  0 10
G02  22472822.814 7 118095483.06307      1108.462 7        45.563    22472820.393 5  92022443.19905       863.735 5        35.719
G06  23993776.121 6 126088140.10706     -1164.119 6        39.156    23993778.118 6  98250507.49406      -907.109 6        38.406    23993779.704 6  98250511.48206      -907.095 6        40.375
G12  21700726.697 7 114038087.27307     -1199.963 7        46.188    21700725.240 7  88860843.13307      -935.035 7        47.875    21700725.993 7  88860828.13207      -935.084 7        43.313
G20  25479078.340 6 133893460.58106      4429.141 6        38.344    25479080.588 2 104332575.22602      3451.269 2        15.281
G22  23136893.424 7 121585193.74207      -143.467 7        42.625    23136892.351 4  94741704.75004      -111.786 4        26.813
G24  25699901.970 6 135053893.21106     -2400.065 6        38.313    25699906.704 4 105236820.56404     -1870.180 4        29.531    25699907.593 5 105236826.55705     -1870.123 5        33.813
G25  19974107.773 8 104964642.47508      1039.893 8        49.125    19974108.999 8  81790634.81308       810.308 8        53.938    19974109.676 8  81790637.81308       810.335 8        48.000
G29  21273849.145 7 111794832.51707      3742.368 7        46.750    21273848.546 8  87112855.80408      2916.131 8        49.719    21273849.455 7  87112856.80507      2916.286 7        45.031
G31  21803700.556 7 114579216.40107      3373.902 7        47.094    21803698.318 6  89282501.89906      2629.015 6        38.625    21803699.008 7  89282501.89707      2629.016 7        44.094
G32  23902786.602 7 125609985.19207     -1326.285 7        43.250    23902789.159 4  97877923.05104     -1033.471 4        26.938    23902791.041 6  97877920.05106     -1033.519 6        38.594
> 2022 02 14 14 37 56.0000000  0 10
G02  22472611.876 7 118094374.34207      1108.820 7        45.406    22472609.408 5  92021579.25905       864.014 5        35.719
G06  23993997.605 6 126089303.83806     -1163.603 6        38.594    23993999.576 6  98251414.30006      -906.698 6        38.406    23994000.920 6  98251418.28106      -906.685 6        40.875
G12  21700954.915 7 114039286.83507     -1199.403 7        46.156    21700953.499 7  88861777.85807      -934.602 7        47.813    21700954.229 7  88861762.85207      -934.530 7        43.500
G20  25478235.421 6 133889030.83506      4430.081 6        38.188    25478237.567 2 104329123.45602      3452.040 2        15.219
G22  23136920.728 7 121585336.93207      -143.045 7        42.563    23136919.583 4  94741816.32404      -111.466 4        26.813
G24  25700358.627 6 135056292.57806     -2398.945 6        37.875    25700363.256 4 105238690.20004     -1869.306 4        29.469    25700364.321 5 105238696.22205     -1869.471 5        33.594
G25  19973909.754 8 104963602.18008      1040.377 8        49.063    19973911.045 8  81789824.19508       810.681 8        53.875    19973911.731 7  81789827.20007       810.695 7        47.906
G29  21273136.942 7 111791089.72207      3742.995 7        46.813    21273136.311 8  87109939.34208      2916.619 8        49.688    21273137.183 7  87109940.35207      2916.539 7        45.031
G31  21803058.532 7 114575842.22807      3374.292 7        47.219    21803056.238 6  89279872.67306      2629.316 6        38.563    21803057.008 7  89279872.68007      2629.344 7        44.094
G32  23903038.876 7 125611310.93707     -1325.558 7        43.313    23903041.363 4  97878956.09604     -1032.904 4        26.813    23903043.433 6  97878953.08906     -1032.842 6        38.750
> 2022 02 14 14 37 57.0000000  0 10
G02  22472400.979 7 118093266.59707      1107.375 7        45.563    22472398.612 5  92020716.08205       862.887 5        35.750
G06  23994218.913 6 126090468.41706     -1164.856 6        38.719    23994221.198 6  98252321.75906      -907.673 6        38.344    23994222.546 6  98252325.75406      -907.760 6        40.781
G12  21701183.183 7 114040487.10807     -1200.500 7        46.344    21701181.887 7  88862713.13407      -935.456 7        47.844    21701182.759 7  88862698.13007      -935.477 7        43.563
G20  25477392.647 6 133884601.65106      4429.062 6        38.219    25477394.751 2 104325672.14202      3451.222 2        14.938
G22  23136947.989 7 121585481.03407      -144.500 7        42.500    23136946.967 4  94741928.60604      -112.589 4        26.781
G24  25700815.252 6 135058692.31606     -2399.759 6        38.313    25700819.872 4 105240560.12604     -1869.942 4        29.438    25700820.697 5 105240566.13505     -1869.917 5        34.188
G25  19973711.987 8 104962562.81008      1038.987 8        48.906    19973713.256 8  81789014.29408       809.600 8        53.906    19973713.928 7  81789017.30207       809.601 7        47.906
G29  21272424.885 7 111787347.81507      3741.599 7        46.719    21272424.250 8  87107023.57008      2915.527 8        49.719    21272425.206 7  87107024.58307      2915.512 7        45.031
G31  21802416.600 7 114572469.00007      3372.898 7        47.313    21802414.337 6  89277244.18306      2628.230 6        38.625    21802415.081 7  89277244.19207      2628.296 7        44.188
G32  23903291.283 7 125612637.40807     -1326.684 7        43.313    23903293.741 4  97879989.70504     -1033.776 4        26.844    23903295.581 6  97879986.70806     -1033.781 6        38.969
> 2022 02 14 14 37 58.0000000  0 10
G02  22472190.292 7 118092159.41107      1106.604 7        45.531    22472187.913 5  92019853.33905       862.284 5        35.781
G06  23994440.519 6 126091633.39906     -1165.388 6        38.844    23994442.901 6  98253229.53406      -908.092 6        38.313    23994444.206 6  98253233.52606      -908.143 6        40.969
G12  21701411.567 7 114041687.66307     -1200.987 7        46.313    21701410.324 7  88863648.62907      -935.835 7        47.844    21701411.376 7  88863633.63507      -935.728 7        43.656
G20  25476549.833 6 133880172.54706      4428.893 6        37.813    25476551.953 2 104322220.90902      3451.056 2        15.406
G22  23136975.542 7 121585625.58907      -145.070 7        42.094    23136974.450 4  94742041.24204      -113.051 4        26.750
G24  25701271.458 6 135061091.95606     -2399.968 6        38.094    25701276.460 4 105242429.97104     -1870.102 4        29.469    25701277.278 5 105242435.98605     -1869.879 5        34.094
G25  19973514.258 8 104961523.91908      1038.417 8        48.875    19973515.566 8  81788204.76908       809.155 8        53.938    19973516.168 7  81788207.77507       809.123 7        47.781
G29  21271712.962 7 111783606.34907      3740.910 7        46.781    21271712.265 8  87104108.14208      2914.993 8        49.719    21271713.198 7  87104109.14007      2915.092 7        44.906
G31  21801774.695 7 114569096.27107      3372.144 7        47.188    21801772.529 6  89274616.08406      2627.644 6        38.656    21801773.270 7  89274616.08807      2627.706 7        43.969
G32  23903543.696 7 125613964.14907     -1327.130 7        43.188    23903546.187 4  97881023.52504     -1034.125 4        26.875    23903547.977 6  97881020.52506     -1034.139 6        38.594
> 2022 02 14 14 37 59.0000000  0 10
G02  22471979.567 7 118091052.63107      1107.049 7        45.719    22471977.313 5  92018990.91305       862.633 5        35.875
G06  23994662.260 6 126092798.67906     -1164.975 6        38.594    23994664.658 6  98254137.54506      -907.764 6        38.344    23994665.870 6  98254141.53606      -907.828 6        41.000
G12  21701640.046 7 114042888.36407     -1200.273 7        46.531    21701638.811 7  88864584.24207      -935.284 7        47.875    21701639.863 7  88864569.24707      -935.282 7        43.656
G20  25475706.815 6 133875743.42506      4429.516 6        38.219    25475709.164 2 104318769.63802      3451.588 2        15.375
G22  23137002.914 7 121585770.51907      -144.563 7        42.031    23137002.017 4  94742154.18104      -112.653 4        26.781
G24  25701728.067 6 135063491.36306     -2398.892 6        37.875    25701733.031 4 105244299.63604     -1869.268 4        29.594    25701733.706 5 105244305.64105     -1869.208 5        34.438
G25  19973316.611 8 104960485.40608      1038.741 8        48.750    19973317.947 8  81787395.53908       809.406 8        53.969    19973318.502 7  81787398.54207       809.429 7        47.719
G29  21271001.111 7 111779865.17507      3741.506 7        46.625    21271000.338 8  87101192.94208      2915.458 8        49.750    21271001.162 7  87101193.95507      2915.402 7        44.906
G31  21801132.869 7 114565723.90707      3372.630 7        47.375    21801130.789 6  89271988.26806      2628.023 6        38.656    21801131.566 7  89271988.26907      2628.091 7        43.875
G32  23903796.149 7 125615291.03307     -1326.464 7        42.969    23903798.646 4  97882057.45604     -1033.609 4        26.906    23903800.319 6  97882054.44506     -1033.393 6        38.219
> 2022 02 14 14 38  0.0000000  0 10
G02  22471769.140 7 118089946.34307      1106.080 7        45.563    22471766.794 5  92018128.87105       861.881 5        35.813
G06  23994883.835 6 126093964.28406     -1165.708 6        38.500    23994886.491 6  98255045.80806      -908.345 6        38.250    23994887.764 6  98255049.80106      -908.411 6        40.500
G12  21701868.567 7 114044089.29007     -1200.995 7        46.313    21701867.333 7  88865520.02707      -935.842 7        47.844    21701868.467 7  88865505.02907      -935.860 7        43.625
G20  25474863.940 6 133871314.33606      4429.177 6        38.250    25474866.316 2 104315318.41402      3451.269 2        15.656
G22  23137030.441 7 121585915.86307      -145.514 7        42.438    23137029.674 4  94742267.43804      -113.391 4        26.688
G24  25702184.735 6 135065890.62606     -2399.098 6        38.188    25702189.592 4 105246169.18904     -1869.428 4        29.563    25702190.269 5 105246175.17005     -1869.033 5        34.406
G25  19973118.976 8 104959447.29308      1037.970 8        48.844    19973120.399 8  81786586.61908       808.808 8        53.906    19973120.989 7  81786589.61907       808.830 7        47.719
G29  21270289.254 7 111776124.39407      3740.574 7        47.031    21270288.491 8  87098278.04908      2914.730 8        49.719    21270289.452 7  87098279.04907      2914.813 7        44.938
G31  21800491.162 7 114562351.97807      3371.718 7        47.563    21800489.124 6  89269360.79306      2627.311 6        38.625    21800489.826 7  89269360.80107      2627.265 7        43.906
G32  23904048.628 7 125616618.14507     -1327.184 7        43.094    23904051.163 4  97883091.57004     -1034.171 4        26.844    23904052.556 6  97883088.56006     -1034.015 6        38.281
> 2022 02 14 14 38  1.0000000  0 10
G02  22471558.751 7 118088840.69907      1106.384 7        45.625    22471556.422 5  92017267.33305       862.108 5        35.750
G06  23995105.759 6 126095130.41306     -1165.419 6        37.656    23995108.422 6  98255954.47706      -908.115 6        38.156    23995109.714 6  98255958.47806      -908.049 6        40.563
G12  21702097.136 7 114045290.59707     -1200.439 7        46.344    21702095.931 7  88866456.11107      -935.409 7        47.813    21702097.106 7  88866441.10207      -935.343 7        43.344
G20  25474020.938 6 133866885.46106      4429.743 6        38.625    25474023.523 2 104311867.34402      3451.724 2        15.844
G22  23137058.082 7 121586061.76507      -145.044 7        42.406    23137057.483 4  94742381.12904      -113.020 4        26.750
G24  25702641.600 6 135068289.86506     -2398.270 6        38.031    25702646.145 4 105248038.72804     -1868.788 4        29.469    25702646.599 5 105248044.74205     -1868.943 5        34.125
G25  19972921.482 8 104958409.77208      1038.240 8        48.906    19972922.968 8  81785778.16208       809.015 8        53.906    19972923.664 7  81785781.16507       809.029 7        47.688
G29  21269577.510 7 111772384.13707      3741.050 7        46.938    21269576.747 8  87095363.56408      2915.101 8        49.719    21269577.582 7  87095364.56507      2915.134 7        44.719
G31  21799849.533 7 114558980.65307      3372.070 7        47.563    21799847.581 6  89266733.78906      2627.583 6        38.625    21799848.055 7  89266733.78407      2627.673 7        43.688
G32  23904301.194 7 125617945.62307     -1326.725 7        43.188    23904303.751 4  97884125.96904     -1033.815 4        26.719    23904305.077 6  97884122.96606     -1033.819 6        38.094
> 2022 02 14 14 38  2.0000000  0 10
G02  22471348.543 7 118087736.20307      1104.026 7        45.688    22471346.247 5  92016406.68605       860.281 5        35.750
G06  23995327.768 6 126096297.52506     -1167.430 6        37.844    23995330.536 6  98256863.91406      -909.686 6        38.031    23995331.796 6  98256867.92306      -909.637 6        40.563
G12  21702325.867 7 114046492.75907     -1202.407 7        46.281    21702324.691 7  88867392.85807      -936.935 7        47.813    21702325.979 7  88867377.85407      -936.984 7        43.438
G20  25473178.127 6 133862457.24706      4428.015 6        38.813    25473180.837 2 104308416.77802      3450.417 2        15.750
G22  23137086.086 7 121586208.75007      -147.274 7        42.406    23137085.480 4  94742495.65704      -114.757 4        26.750
G24  25703098.041 6 135070689.59906     -2399.729 6        38.031    25703102.783 4 105249908.65004     -1869.918 4        29.563    25703103.094 5 105249914.66405     -1869.807 5        33.938
G25  19972724.210 8 104957373.32008      1036.120 8        48.781    19972725.738 8  81784970.53608       807.368 8        53.875    19972726.467 7  81784973.54507       807.370 7        47.625
G29  21268865.991 7 111768644.90407      3738.815 7        46.875    21268865.187 8  87092449.87708      2913.367 8        49.719    21268865.945 7  87092450.88007      2913.429 7        44.813
G31  21799208.120 7 114555610.39707      3369.871 7        47.594    21799206.234 6  89264107.61606      2625.878 6        38.625    21799206.498 7  89264107.61207      2625.918 7        43.688
G32  23904553.751 7 125619273.97907     -1328.709 7        43.188    23904556.519 4  97885161.04404     -1035.359 4        26.750    23904557.702 6  97885158.05306     -1035.471 6        38.094
> 2022 02 14 14 38  3.0000000  0 10
G02  22471138.449 7 118086632.64207      1103.566 7        45.781    22471136.246 5  92015546.76805       859.919 5        35.688
G06  23995550.226 6 126097465.47506     -1167.850 6        37.688    23995552.798 6  98257774.00206      -910.011 6        37.906    23995554.175 6  98257778.01006      -910.143 6        40.406
G12  21702554.665 7 114047695.61107     -1202.742 7        46.594    21702553.593 7  88868330.14207      -937.201 7        47.750    21702555.017 7  88868315.13707      -937.161 7        43.500
G20  25472335.608 6 133858029.54206      4427.916 6        38.813    25472338.200 2 104304966.63102      3450.307 2        15.938
G22  23137114.173 7 121586356.61707      -147.915 7        42.438    23137113.674 4  94742610.88204      -115.261 4        26.813
G24  25703554.758 6 135073089.63906     -2399.594 6        37.969    25703559.443 4 105251778.81004     -1869.813 4        29.531    25703559.631 5 105251784.83605     -1869.968 5        34.188
G25  19972527.160 8 104956337.75408      1035.528 8        49.000    19972528.683 8  81784163.60208       806.904 8        53.813    19972529.392 7  81784166.60207       806.945 7        47.719
G29  21268154.496 7 111764906.50107      3738.408 7        47.219    21268153.792 8  87089536.83508      2913.047 8        49.656    21268154.551 7  87089537.84107      2913.093 7        44.969
G31  21798566.903 7 114552241.04807      3369.374 7        47.688    21798565.061 6  89261482.14806      2625.485 6        38.563    21798565.219 7  89261482.15107      2625.500 7        43.719
G32  23904806.747 7 125620602.98907     -1328.884 7        43.000    23904809.451 4  97886196.63404     -1035.496 4        26.594    23904810.712 6  97886193.62906     -1035.525 6        38.094
> 2022 02 14 14 38  4.0000000  0 10
G02  22470928.393 7 118085529.16607      1103.290 7        45.750    22470926.267 5  92014686.91805       859.704 5        35.688
G06  23995772.645 6 126098633.30306     -1167.894 6        37.063    23995775.038 6  98258683.99806      -910.041 6        37.750    23995776.479 6  98258688.00706      -909.882 6        40.500
G12  21702783.626 7 114048898.26207     -1202.628 7        46.531    21702782.455 7  88869267.27407      -937.115 7        47.781    21702783.786 7  88869252.26807      -937.098 7        43.406
G20  25471492.963 6 133853601.48206      4428.074 6        38.969    25471495.621 2 104301516.20302      3450.435 2        15.938
G22  23137142.313 7 121586504.47107      -148.069 7        42.406    23137141.836 4  94742726.09504      -115.373 4        26.906
G24  25704011.508 6 135075489.11906     -2399.384 6        37.688    25704016.018 4 105253648.53104     -1869.647 4        29.469    25704015.947 5 105253654.54705     -1869.771 5        34.000
G25  19972330.067 8 104955302.19508      1035.399 8        48.969    19972331.627 8  81783356.67208       806.802 8        53.844    19972332.393 7  81783359.67407       806.868 7        47.625
G29  21267443.111 7 111761168.07107      3738.307 7        47.063    21267442.397 8  87086623.77308      2912.962 8        49.719    21267443.191 7  87086624.78507      2912.968 7        44.906
G31  21797925.726 7 114548871.72207      3369.184 7        47.844    21797923.897 6  89258856.70006      2625.335 6        38.563    21797924.116 7  89258856.71307      2625.327 7        43.625
G32  23905059.780 7 125621931.80907     -1328.868 7        42.719    23905062.322 4  97887232.07504     -1035.475 4        26.625    23905063.408 6  97887229.08506     -1035.518 6        38.000
> 2022 02 14 14 38  5.0000000  0 10
G02  22470718.449 7 118084426.35907      1102.151 7        46.000    22470716.401 5  92013827.58805       858.820 5        35.750
G06  23995995.002 6 126099801.71606     -1169.024 6        38.000    23995997.394 6  98259594.44606      -910.933 6        37.719    23995998.632 6  98259598.44206      -910.748 6        40.688
G12  21703012.648 7 114050101.31607     -1203.587 7        46.438    21703011.389 7  88870204.71807      -937.862 7        47.813    21703012.636 7  88870189.72207      -937.847 7        43.375
G20  25470650.467 6 133849173.60806      4427.609 6        38.719    25470652.988 2 104298065.89602      3450.102 2        15.500
G22  23137170.680 7 121586652.91707      -149.138 7        42.656    23137170.088 4  94742841.75904      -116.205 4        26.969
G24  25704468.080 6 135077888.62906     -2399.859 6        37.688    25704472.610 4 105255518.28104     -1870.017 4        29.344    25704472.779 5 105255524.29405     -1870.227 5        33.656
G25  19972133.135 8 104954267.24308      1034.343 8        49.063    19972134.688 8  81782550.21808       805.977 8        53.875    19972135.488 7  81782553.22307       805.964 7        47.500
G29  21266731.792 7 111757430.20007      3737.257 7        47.063    21266731.114 8  87083711.14808      2912.149 8        49.781    21266731.756 7  87083712.15607      2912.147 7        44.875
G31  21797284.729 7 114545503.01607      3368.082 7        47.531    21797282.850 6  89256231.73806      2624.474 6        38.594    21797283.062 7  89256231.75207      2624.492 7        43.531
G32  23905312.702 7 125623261.03607     -1329.733 7        42.781    23905315.246 4  97888267.83204     -1036.165 4        26.656    23905316.322 6  97888264.84106     -1036.226 6        38.250
> 2022 02 14 14 38  6.0000000  0 10
G02  22470508.810 7 118083324.43907      1101.410 7        46.000    22470506.726 5  92012968.95305       858.241 5        35.750
G06  23996217.416 6 126100970.86306     -1169.656 6        37.938    23996219.902 6  98260505.47506      -911.416 6        37.688    23996220.938 6  98260509.46306      -911.363 6        40.844
G12  21703241.714 7 114051305.00507     -1204.059 7        46.625    21703240.452 7  88871142.65707      -938.230 7        47.781    21703241.417 7  88871127.65307      -938.121 7        43.219
G20  25469808.058 6 133844746.19506      4427.166 6        38.656    25469810.485 2 104294615.95302      3449.733 2        15.219
G22  23137199.175 7 121586802.20007      -149.778 7        42.625    23137198.505 4  94742958.08004      -116.710 4        26.844
G24  25704924.644 6 135080288.36306     -2399.961 6        37.563    25704929.226 4 105257388.20704     -1870.100 4        29.156    25704929.537 5 105257394.19005     -1869.953 5        33.719
G25  19971936.350 8 104953233.12508      1033.626 8        49.000    19971937.901 8  81781744.41208       805.419 8        53.844    19971938.672 7  81781747.42107       805.401 7        47.500
G29  21266020.621 7 111753693.10107      3736.657 7        47.000    21266019.970 8  87080799.12408      2911.678 8        49.750    21266020.557 7  87080800.13607      2911.665 7        44.844
G31  21796643.858 7 114542135.16507      3367.346 7        47.313    21796641.959 6  89253607.43706      2623.904 6        38.500    21796642.184 7  89253607.44007      2623.977 7        43.563
G32  23905565.778 7 125624590.87607     -1330.281 7        42.938    23905568.299 4  97889304.07204     -1036.589 4        26.594    23905569.333 6  97889301.08006     -1036.565 6        38.000
> 2022 02 14 14 38  7.0000000  0 10
G02  22470299.248 7 118082223.17207      1099.931 7        46.000    22470297.182 5  92012110.81905       857.090 5        35.750
G06  23996440.146 6 126102140.49706     -1170.925 6        38.031    23996442.486 6  98261416.87606      -912.403 6        37.750    23996443.470 6  98261420.87206      -912.334 6        40.906
G12  21703470.949 7 114052509.05607     -1205.266 7        46.281    21703469.591 7  88872080.87707      -939.165 7        47.719    21703470.443 7  88872065.86807      -939.083 7        43.375
G20  25468965.952 6 133840318.99306      4426.029 6        38.063    25468968.009 2 104291166.19102      3448.855 2        15.313
G22  23137227.738 7 121586952.02007      -151.064 7        42.844    23137227.034 4  94743074.82104      -117.707 4        26.906
G24  25705381.137 6 135082688.08706     -2400.588 6        37.219    25705385.845 4 105259258.11604     -1870.572 4        29.219    25705386.165 5 105259264.13405     -1870.615 5        34.531
G25  19971739.718 8 104952199.56808      1032.275 8        48.969    19971741.221 8  81780939.04208       804.371 8        53.813    19971742.057 7  81780942.05207       804.342 7        47.563
G29  21265309.530 7 111749956.54807      3735.298 7        46.875    21265308.937 8  87077887.52308      2910.622 8        49.719    21265309.536 7  87077888.53107      2910.565 7        44.875
G31  21796003.133 7 114538767.90407      3365.979 7        47.375    21796001.189 6  89250983.59706      2622.841 6        38.469    21796001.538 7  89250983.60507      2622.812 7        43.563
G32  23905819.101 7 125625921.08407     -1331.424 7        42.031    23905821.451 4  97890340.60404     -1037.466 4        26.438    23905822.643 6  97890337.60106     -1037.491 6        38.000
> 2022 02 14 14 38  8.0000000  0 10
G02  22470089.828 7 118081122.36907      1101.069 7        45.875    22470087.704 5  92011253.05305       857.980 5        35.813
G06  23996662.489 6 126103310.47506     -1169.552 6        37.906    23996665.137 6  98262328.54106      -911.343 6        37.813    23996666.222 6  98262332.53806      -911.443 6        40.656
G12  21703700.122 7 114053713.29707     -1203.798 7        46.563    21703698.762 7  88873019.24807      -938.022 7        47.719    21703699.518 7  88873004.24607      -938.024 7        43.563
G20  25468123.426 6 133835891.78706      4427.901 6        38.406    25468125.502 2 104287716.41802      3450.309 2        15.313
G22  23137256.493 7 121587102.24707      -149.904 7        42.969    23137255.616 4  94743191.88204      -116.808 4        26.781
G24  25705837.741 6 135085087.65506     -2398.866 6        37.500    25705842.470 4 105261127.90604     -1869.239 4        29.156    25705842.700 5 105261133.92605     -1869.364 5        34.031
G25  19971543.188 8 104951166.43008      1033.496 8        48.938    19971544.622 8  81780134.00108       805.325 8        53.781    19971545.474 7  81780137.00507       805.329 7        47.563
G29  21264598.501 7 111746220.33407      3736.577 7        46.813    21264597.962 8  87074976.18808      2911.620 8        49.719    21264598.698 7  87074977.19707      2911.641 7        44.844
G31  21795362.460 7 114535401.04807      3367.152 7        47.344    21795360.504 6  89248360.07506      2623.750 6        38.469    21795360.938 7  89248360.07707      2623.801 7        43.531
G32  23906072.312 7 125627251.49607     -1329.881 7        42.313    23906074.630 4  97891377.28404     -1036.269 4        26.406    23906075.825 6  97891374.26606     -1036.204 6        38.188
> 2022 02 14 14 38  9.0000000  0 10
G02  22469880.393 7 118080022.18007      1100.039 7        45.906    22469878.356 5  92010395.76305       857.178 5        35.906
G06  23996884.986 6 126104480.91806     -1170.511 6        38.094    23996887.886 6  98263240.57606      -912.085 6        37.844    23996889.062 6  98263244.58506      -912.111 6        40.844
G12  21703929.304 7 114054917.89807     -1204.598 7        46.531    21703927.995 7  88873957.89607      -938.647 7        47.750    21703928.774 7  88873942.89707      -938.601 7        43.531
G20  25467280.900 6 133831464.75306      4427.125 6        38.625    25467283.066 2 104284266.79702      3449.730 2        15.281
G22  23137285.201 7 121587252.98107      -150.761 7        43.344    23137284.293 4  94743309.33504      -117.475 4        26.750
G24  25706294.326 6 135087487.18206     -2399.346 6        38.219    25706299.076 4 105262997.66104     -1869.607 4        29.125    25706299.446 5 105263003.69905     -1869.860 5        33.938
G25  19971346.766 8 104950133.83708      1032.494 8        49.188    19971348.125 8  81779329.38208       804.542 8        53.844    19971348.969 7  81779332.38507       804.545 7        47.594
G29  21263887.587 7 111742484.62207      3735.626 7        46.813    21263887.082 8  87072065.24508      2910.883 8        49.750    21263887.885 7  87072066.24507      2910.992 7        44.875
G31  21794721.875 7 114532034.77207      3366.157 7        47.438    21794719.922 6  89245737.00406      2622.984 6        38.563    21794720.368 7  89245737.00807      2622.996 7        43.594
G32  23906325.441 6 125628582.23906     -1330.760 6        41.844    23906327.871 4  97892414.22704     -1036.947 4        26.438    23906329.129 6  97892411.22606     -1036.946 6        37.969
> 2022 02 14 14 38 10.0000000  0 10
G02  22469671.196 7 118078922.93207      1099.315 7        45.688    22469669.173 5  92009539.20705       856.611 5        35.938
G06  23997107.957 6 126105652.16806     -1171.172 6        38.344    23997110.788 6  98264153.23806      -912.601 6        37.875    23997111.779 6  98264157.22706      -912.482 6        40.813
G12  21704158.618 7 114056123.15607     -1205.128 7        46.750    21704157.354 7  88874897.05607      -939.058 7        47.813    21704157.998 7  88874882.05507      -939.009 7        43.625
G20  25466438.269 6 133827038.20106      4426.816 6        38.281    25466440.747 2 104280817.52902      3449.479 2        15.031
G22  23137314.249 7 121587404.60407      -151.612 7        43.313    23137313.139 4  94743427.48404      -118.134 4        26.813
G24  25706751.178 6 135089887.00806     -2399.393 6        38.000    25706755.732 4 105264867.65204     -1869.656 4        29.250    25706755.940 5 105264873.69705     -1869.549 5        33.781
G25  19971150.524 8 104949102.12708      1031.721 8        49.094    19971151.799 8  81778525.44908       803.939 8        53.906    19971152.599 7  81778528.45507       803.980 7        47.750
G29  21263176.786 7 111738749.73607      3735.000 7        46.844    21263176.357 8  87069154.94608      2910.392 8        49.719    21263177.027 7  87069155.95407      2910.393 7        44.781
G31  21794081.493 7 114528669.37807      3365.483 7        47.375    21794079.514 6  89243114.62006      2622.452 6        38.563    21794080.134 7  89243114.62207      2622.429 7        43.500
G32  23906578.589 7 125629913.65307     -1331.178 7        42.031    23906581.233 4  97893451.68504     -1037.278 4        26.344    23906582.505 6  97893448.69406     -1037.469 6        37.625
> 2022 02 14 14 38 11.0000000  0 10
G02  22469462.150 7 118077824.16207      1099.203 7        45.750    22469460.085 5  92008683.02305       856.524 5        35.906
G06  23997331.085 6 126106823.78306     -1171.209 6        38.156    23997333.747 6  98265066.18206      -912.614 6        37.938    23997334.755 6  98265070.15206      -912.506 6        41.000
G12  21704388.099 7 114057328.62507     -1204.844 7        46.750    21704386.761 7  88875836.38507      -938.840 7        47.844    21704387.451 7  88875821.38007      -938.872 7        43.500
G20  25465595.988 6 133822611.69806      4427.014 6        38.344    25465598.449 2 104277368.30902      3449.628 2        14.781
G22  23137343.157 7 121587556.62907      -151.539 7        43.344    23137342.075 4  94743545.94204      -118.076 4        27.031
G24  25707208.230 6 135092286.69906     -2398.865 6        37.531    25707212.347 4 105266737.54004     -1869.238 4        29.313    25707212.788 5 105266743.56005     -1869.417 5        34.156
G25  19970954.329 8 104948070.82808      1031.802 8        49.094    19970955.557 8  81777721.84008       804.002 8        53.938    19970956.265 7  81777724.84407       804.054 7        47.688
G29  21262466.059 7 111735015.22507      3735.049 7        46.781    21262465.709 8  87066244.93708      2910.427 8        49.719    21262466.353 7  87066245.94407      2910.411 7        44.813
G31  21793441.088 7 114525304.42807      3365.416 7        47.344    21793439.173 6  89240492.58206      2622.403 6        38.531    21793439.882 7  89240492.58407      2622.417 7        43.563
G32  23906831.744 7 125631245.28507     -1331.021 7        42.281    23906834.649 4  97894489.31804     -1037.148 4        26.406    23906835.767 6  97894486.30206     -1037.078 6        37.844
> 2022 02 14 14 38 12.0000000  0 10
G02  22469252.995 7 118076725.57507      1098.800 7        45.875    22469251.023 6  92007826.97906       856.208 6        36.000
G06  23997554.039 6 126107995.41606     -1171.376 6        38.625    23997556.711 6  98265979.13306      -912.763 6        38.094    23997557.775 6  98265983.12106      -912.834 6        41.219
G12  21704617.391 7 114058534.01407     -1205.084 7        46.906    21704616.142 7  88876775.64707      -939.026 7        47.906    21704616.978 7  88876760.65207      -939.001 7        43.531
G20  25464753.737 6 133818184.91906      4427.166 6        38.313    25464756.067 2 104273918.87002      3449.747 2        14.750
G22  23137372.122 7 121587708.77807      -152.023 7        43.250    23137371.038 4  94743664.50004      -118.455 4        27.031
G24  25707665.050 6 135094685.90806     -2398.703 6        38.000    25707668.873 4 105268607.05104     -1869.116 4        29.313    25707669.363 5 105268613.07705     -1869.187 5        33.938
G25  19970758.174 8 104947039.66008      1031.414 8        48.969    19970759.338 8  81776918.33208       803.695 8        53.969    19970760.061 7  81776921.33807       803.703 7        47.563
G29  21261755.497 7 111731280.78507      3734.654 7        46.906    21261755.075 8  87063334.98608      2910.117 8        49.781    21261755.681 7  87063335.99207      2910.154 7        44.844
G31  21792800.569 7 114521939.60307      3365.012 7        47.594    21792798.864 6  89237870.64206      2622.086 6        38.594    21792799.526 7  89237870.64007      2622.083 7        43.500
G32  23907085.164 6 125632576.82506     -1331.333 6        41.969    23907087.976 4  97895526.87404     -1037.401 4        26.438    23907089.108 6  97895523.88306     -1037.485 6        37.313
> 2022 02 14 14 38 13.0000000  0 10
G02  22469043.882 7 118075627.66907      1096.914 7        46.125    22469042.113 6  92006971.46906       854.734 6        36.156
G06  23997777.075 6 126109167.59606     -1173.117 6        38.531    23997779.796 6  98266892.51906      -914.117 6        38.313    23997780.886 6  98266896.49706      -914.061 6        41.031
G12  21704846.960 7 114059739.81207     -1206.658 7        47.063    21704845.604 8  88877715.22908      -940.254 8        48.031    21704846.515 7  88877700.22407      -940.170 7        43.375
G20  25463911.437 6 133813758.37406      4425.815 6        38.813    25463913.748 2 104270469.60602      3448.690 2        14.750
G22  23137401.223 7 121587861.51307      -153.684 7        43.219    23137400.108 4  94743783.50904      -119.755 4        27.156
G24  25708121.716 6 135097085.13106     -2399.838 6        37.969    25708125.398 4 105270476.57404     -1870.004 4        29.438    25708126.256 5 105270482.59605     -1869.988 5        34.250
G25  19970562.043 8 104946009.08908      1029.573 8        49.219    19970563.235 9  81776115.29309       802.263 9        54.063    19970563.902 7  81776118.30307       802.262 7        47.500
G29  21261044.982 7 111727546.90207      3733.000 7        46.969    21261044.556 8  87060425.46808      2908.827 8        49.875    21261045.128 7  87060426.47707      2908.777 7        44.688
G31  21792160.413 7 114518575.39807      3363.319 7        47.531    21792158.684 6  89235249.18406      2620.769 6        38.656    21792159.294 7  89235249.19107      2620.719 7        43.531
G32  23907338.696 7 125633908.76507     -1332.855 7        42.063    23907341.414 4  97896564.75604     -1038.591 4        26.344    23907342.456 6  97896561.74306     -1038.568 6        37.188
> 2022 02 14 14 38 14.0000000  0 10
G02  22468835.010 7 118074529.92907      1097.875 7        45.906    22468833.222 6  92006116.08606       855.484 6        36.188
G06  23998000.484 6 126110339.78106     -1171.805 6        38.719    23998002.876 6  98267805.90506      -913.098 6        38.375    23998003.867 6  98267809.91406      -913.138 6        41.000
G12  21705076.433 7 114060945.51407     -1205.408 7        47.063    21705075.047 8  88878654.73708      -939.283 8        48.094    21705075.961 7  88878639.72907      -939.246 7        43.250
G20  25463069.174 6 133809331.56406      4427.221 6        39.125    25463071.298 2 104267020.13902      3449.772 2        15.125
G22  23137430.195 7 121588014.36307      -152.648 7        42.938    23137429.196 4  94743902.61304      -118.946 4        27.125
G24  25708577.926 6 135099483.90206     -2398.281 6        37.781    25708581.880 4 105272345.75104     -1868.796 4        29.438    25708582.050 5 105272351.77705     -1868.961 5        34.188
G25  19970366.012 8 104944978.64208      1030.685 8        49.063    19970367.150 9  81775312.34709       803.127 9        54.063    19970367.785 7  81775315.34807       803.159 7        47.500
G29  21260334.373 7 111723813.08207      3734.069 7        47.000    21260334.038 8  87057515.99708      2909.662 8        49.906    21260334.559 7  87057517.00907      2909.618 7        44.563
G31  21791520.206 7 114515211.32807      3364.297 7        47.313    21791518.522 6  89232627.83306      2621.530 6        38.656    21791519.355 7  89232627.84307      2621.461 7        43.406
G32  23907592.238 7 125635240.60507     -1331.473 7        42.031    23907594.807 4  97897602.54804     -1037.508 4        26.250    23907596.115 6  97897599.54606     -1037.601 6        37.125
> 2022 02 14 14 38 15.0000000  0 10
G02  22468626.294 7 118073432.74107      1097.203 7        46.094    22468624.433 6  92005261.13706       854.962 6        36.094
G06  23998223.649 6 126111512.40606     -1172.597 6        38.219    23998226.024 6  98268719.63906      -913.715 6        38.375    23998227.225 6  98268723.64406      -913.664 6        41.125
G12  21705305.948 7 114062151.49607     -1205.905 7        47.063    21705304.535 8  88879594.46308      -939.669 8        48.063    21705305.458 7  88879579.45707      -939.526 7        43.219
G20  25462226.832 6 133804904.85106      4426.877 6        39.125    25462228.925 2 104263570.74702      3449.543 2        15.125
G22  23137459.163 7 121588167.68507      -153.301 7        43.125    23137458.324 4  94744022.08704      -119.459 4        26.969
G24  25709034.562 6 135101882.58206     -2398.404 6        37.281    25709038.307 4 105274214.85204     -1868.883 4        29.281    25709038.649 5 105274220.87005     -1868.673 5        34.281
G25  19970169.993 8 104943948.68108      1029.970 8        49.219    19970171.163 9  81774509.78109       802.574 9        54.031    19970171.784 7  81774512.78307       802.580 7        47.531
G29  21259623.992 7 111720079.70607      3733.341 7        47.031    21259623.604 8  87054606.87508      2909.096 8        49.844    21259624.170 7  87054607.87807      2909.100 7        44.781
G31  21790880.051 7 114511847.76107      3363.517 7        47.344    21790878.449 6  89230006.87306      2620.924 6        38.656    21790879.264 7  89230006.87507      2620.934 7        43.531
G32  23907845.829 7 125636572.73807     -1332.096 7        42.094    23907848.290 4  97898640.57304     -1037.991 4        26.063    23907849.836 6  97898637.55306     -1037.833 6        37.344
> 2022 02 14 14 38 16.0000000  0 10
G02  22468417.786 7 118072336.16607      1096.412 7        46.063    22468415.760 6  92004406.66006       854.349 6        36.125
G06  23998446.804 6 126112685.48206     -1173.328 6        38.938    23998449.260 6  98269633.72806      -914.283 6        38.438    23998450.452 6  98269637.73406      -914.109 6        40.688
G12  21705535.500 7 114063357.81807     -1206.407 7        47.094    21705534.099 8  88880534.45308      -940.056 8        48.094    21705535.036 7  88880519.45607      -940.062 7        43.156
G20  25461384.271 6 133800478.31806      4426.413 6        39.281    25461386.610 2 104260121.49902      3449.157 2        15.125
G22  23137488.245 7 121588321.55307      -153.975 7        43.156    23137487.604 4  94744141.98304      -119.989 4        27.000
G24  25709490.964 6 135104281.21706     -2398.451 6        37.719    25709494.752 4 105276083.91204     -1868.924 4        29.344    25709495.519 5 105276089.92505     -1868.811 5        34.188
G25  19969974.024 8 104942919.26508      1029.197 8        49.188    19969975.275 9  81773707.63809       801.969 9        54.063    19969975.863 7  81773710.64607       801.950 7        47.594
G29  21258913.719 7 111716346.82407      3732.734 7        47.000    21258913.269 8  87051698.13408      2908.623 8        49.875    21258913.829 7  87051699.13607      2908.705 7        44.594
G31  21790240.112 7 114508484.75707      3362.815 7        47.469    21790238.488 6  89227386.35006      2620.375 6        38.656    21790239.268 7  89227386.35307      2620.363 7        43.438
G32  23908099.474 6 125637905.18806     -1332.600 6        41.719    23908101.809 4  97899678.84204     -1038.382 4        26.000    23908103.253 6  97899675.84806     -1038.481 6        37.313
> 2022 02 14 14 38 17.0000000  0 10
G02  22468209.435 7 118071240.65507      1094.764 7        46.094    22468207.293 6  92003553.01506       853.061 6        36.188
G06  23998670.514 6 126113859.51206     -1174.693 6        38.438    23998672.681 6  98270548.55206      -915.347 6        38.500    23998673.804 6  98270552.55306      -915.303 6        40.813
G12  21705765.155 7 114064564.93607     -1207.716 7        46.969    21705763.811 8  88881475.06608      -941.079 8        48.094    21705764.838 7  88881460.06007      -941.080 7        43.125
G20  25460541.978 6 133796052.37506      4425.445 6        39.125    25460544.344 2 104256672.72502      3448.396 2        15.375
G22  23137517.621 7 121588476.41907      -155.556 7        43.031    23137517.054 4  94744262.65804      -121.217 4        26.969
G24  25709947.415 6 135106680.29206     -2399.498 6        37.563    25709951.278 4 105277953.31904     -1869.734 4        29.375    25709952.240 5 105277959.34005     -1869.820 5        34.594
G25  19969778.376 8 104941890.84208      1027.814 8        49.188    19969779.570 9  81772906.26809       800.895 9        54.063    19969780.186 7  81772909.27807       800.853 7        47.594
G29  21258203.559 7 111712614.89407      3731.203 7        46.781    21258203.108 8  87048790.13808      2907.430 8        49.875    21258203.738 7  87048791.14007      2907.444 7        44.594
G31  21789600.254 7 114505122.76107      3361.267 7        47.281    21789598.725 6  89224766.61206      2619.172 6        38.625    21789599.520 7  89224766.61207      2619.204 7        43.500
G32  23908352.969 7 125639238.43007     -1333.832 7        42.125    23908355.515 4  97900717.73004     -1039.346 4        25.875    23908357.071 6  97900714.74906     -1039.473 6        37.844
> 2022 02 14 14 38 18.0000000  0 10
G02  22468001.197 7 118070145.81507      1094.333 7        45.938    22467998.933 6  92002699.89506       852.729 6        36.188
G06  23998893.786 6 126115034.05406     -1174.939 6        38.750    23998896.186 6  98271463.77906      -915.540 6        38.625    23998897.347 6  98271467.78106      -915.587 6        41.094
G12  21705994.940 7 114065772.44607     -1207.869 7        47.156    21705993.603 8  88882415.98308      -941.197 8        48.094    21705994.628 7  88882400.97807      -941.176 7        43.156
G20  25459699.890 6 133791626.69106      4425.196 6        38.969    25459702.163 2 104253224.15402      3448.162 2        15.031
G22  23137547.153 7 121588631.87907      -155.897 7        42.844    23137546.647 4  94744383.79404      -121.474 4        27.000
G24  25710404.204 6 135109079.37006     -2399.073 6        37.625    25710407.795 4 105279822.72504     -1869.400 4        29.344    25710408.854 5 105279828.73905     -1869.585 5        34.719
G25  19969582.767 8 104940863.04008      1027.284 8        49.156    19969583.990 9  81772105.38309       800.478 9        54.063    19969584.622 7  81772108.39107       800.467 7        47.688
G29  21257493.502 7 111708883.52207      3730.925 7        46.969    21257493.059 8  87045882.57508      2907.210 8        49.906    21257493.720 7  87045883.58707      2907.267 7        44.688
G31  21788960.588 7 114501761.39907      3360.858 7        47.375    21788959.077 6  89222147.36906      2618.851 6        38.625    21788959.920 7  89222147.37407      2618.932 7        43.531
G32  23908606.628 7 125640572.08307     -1334.084 7        42.125    23908609.374 4  97901756.93804     -1039.542 4        25.875    23908610.898 6  97901753.94406     -1039.465 6        37.719
> 2022 02 14 14 38 19.0000000  0 10
G02  22467792.891 7 118069051.11407      1094.750 7        46.063    22467790.609 6  92001846.88006       853.049 6        36.156
G06  23999117.360 6 126116208.57306     -1174.318 6        39.156    23999119.700 6  98272378.98706      -915.048 6        38.656    23999120.867 6  98272383.00306      -915.199 6        41.063
G12  21706224.728 7 114066979.82707     -1207.190 7        47.188    21706223.364 8  88883356.80008      -940.671 8        48.094    21706224.329 7  88883341.78707      -940.586 7        43.125
G20  25458857.843 6 133787200.66506      4426.337 6        39.000    25458859.920 2 104249775.29502      3449.100 2        15.125
G22  23137576.440 7 121588787.39607      -155.338 7        42.969    23137576.223 4  94744504.97404      -121.046 4        27.000
G24  25710860.413 6 135111477.93206     -2398.084 6        37.625    25710864.218 4 105281691.73004     -1868.642 4        29.438    25710865.012 5 105281697.75605     -1868.787 5        34.438
G25  19969387.234 8 104939835.30008      1027.770 8        49.156    19969388.419 9  81771304.54809       800.854 9        54.063    19969389.042 7  81771307.55307       800.895 7        47.625
G29  21256783.524 7 111705152.17007      3731.450 7        46.688    21256783.019 8  87042975.03208      2907.616 8        49.906    21256783.680 7  87042976.03607      2907.720 7        44.750
G31  21788320.982 7 114498400.11107      3361.363 7        47.469    21788319.429 6  89219528.18506      2619.238 6        38.594    21788320.243 7  89219528.18007      2619.320 7        43.625
G32  23908860.395 7 125641905.58507     -1333.277 7        42.344    23908863.183 4  97902796.02504     -1038.915 4        25.938    23908864.981 6  97902793.02906     -1038.895 6        37.156
> 2022 02 14 14 38 20.0000000  0 10
G02  22467584.699 7 118067957.00807      1093.491 7        46.000    22467582.392 6  92000994.32506       852.074 6        36.188
G06  23999340.787 6 126117383.59506     -1175.604 6        38.938    23999343.303 6  98273294.58306      -916.049 6        38.688    23999344.313 6  98273298.58606      -916.049 6        41.188
G12  21706454.498 7 114068187.53207     -1208.168 7        47.281    21706453.188 8  88884297.86508      -941.431 8        48.125    21706454.157 7  88884282.86907      -941.379 7        43.063
G20  25458015.660 6 133782774.79306      4425.594 6        38.813    25458017.694 2 104246326.56802      3448.488 2        14.938
G22  23137606.091 7 121588943.45407      -156.531 7        42.938    23137605.919 4  94744626.58004      -121.976 4        26.969
G24  25711316.549 6 135113876.46206     -2398.792 6        38.125    25711320.646 4 105283560.71404     -1869.189 4        29.531    25711321.141 5 105283566.70505     -1869.188 5        34.344
G25  19969191.838 8 104938808.10408      1026.628 8        49.156    19969192.951 9  81770504.13409       799.969 9        54.063    19969193.516 7  81770507.13807       799.975 7        47.875
G29  21256073.603 7 111701421.31807      3730.319 7        46.844    21256073.073 8  87040067.87308      2906.739 8        49.938    21256073.744 7  87040068.88307      2906.755 7        44.719
G31  21787681.499 7 114495039.37907      3360.125 7        47.563    21787679.902 6  89216909.43306      2618.278 6        38.625    21787680.684 7  89216909.43207      2618.324 7        43.719
G32  23909114.202 7 125643239.42807     -1334.210 7        42.531    23909116.992 4  97903835.38204     -1039.643 4        25.813    23909118.956 6  97903832.37906     -1039.619 6        37.375
> 2022 02 14 14 38 21.0000000  0 10
G02  22467376.627 7 118066863.44707      1093.047 7        46.031    22467374.288 6  92000142.20006       851.723 6        36.156
G06  23999564.444 6 126118558.99106     -1175.989 6        38.688    23999566.974 6  98274210.47406      -916.356 6        38.781    23999568.020 6  98274214.46706      -916.240 6        41.250
G12  21706684.289 7 114069395.51907     -1208.389 7        47.250    21706683.065 8  88885239.15308      -941.603 8        48.094    21706683.999 7  88885224.15207      -941.617 7        42.875
G20  25457173.196 6 133778349.04006      4425.477 6        38.844    25457175.486 2 104242877.92802      3448.406 2        15.094
G22  23137635.918 7 121589099.96807      -156.944 7        43.250    23137635.704 4  94744748.53604      -122.293 4        27.063
G24  25711773.263 6 135116274.87706     -2398.768 6        37.781    25711777.055 4 105285429.61004     -1869.162 4        29.469    25711777.291 5 105285435.62705     -1868.885 5        33.656
G25  19968996.383 8 104937781.38108      1026.228 8        49.000    19968997.572 9  81769704.09109       799.658 9        54.063    19968998.123 7  81769707.09407       799.690 7        47.781
G29  21255363.622 7 111697690.89807      3729.895 7        46.906    21255363.217 8  87037161.05308      2906.410 8        49.938    21255363.772 7  87037162.06607      2906.427 7        44.750
G31  21787042.162 7 114491679.14407      3359.686 7        47.500    21787040.469 6  89214291.06906      2617.937 6        38.594    21787041.057 7  89214291.07007      2618.017 7        43.594
G32  23909367.987 7 125644573.53807     -1334.629 7        42.625    23909370.851 4  97904874.94604     -1039.967 4        25.875    23909372.959 6  97904871.95906     -1040.063 6        37.406
> 2022 02 14 14 38 22.0000000  0 10
G02  22467168.524 7 118065770.74607      1092.351 7        46.219    22467166.335 6  91999290.74606       851.184 6        36.156
G06  23999788.405 6 126119735.12306     -1176.501 6        39.031    23999790.778 6  98275126.94006      -916.753 6        38.844    23999791.767 6  98275130.94506      -916.706 6        41.125
G12  21706914.301 7 114070604.09707     -1208.823 7        47.188    21706913.054 8  88886180.90308      -941.943 8        48.094    21706913.952 7  88886165.89407      -941.782 7        42.844
G20  25456330.965 6 133773923.68506      4425.111 6        39.000    25456333.359 2 104239429.58902      3448.135 2        15.125
G22  23137665.977 7 121589257.27607      -157.548 7        43.406    23137665.615 4  94744871.11404      -122.766 4        27.063
G24  25712229.539 6 135118673.52506     -2398.780 6        37.688    25712233.505 4 105287298.68704     -1869.186 4        29.344    25712233.859 5 105287304.69905     -1869.040 5        33.750
G25  19968801.106 8 104936755.45908      1025.662 8        49.094    19968802.355 9  81768904.67209       799.216 9        54.094    19968802.914 7  81768907.67607       799.195 7        47.844
G29  21254653.982 7 111693961.22407      3729.390 7        46.938    21254653.494 8  87034254.81508      2906.016 8        49.969    21254654.110 7  87034255.82007      2905.999 7        44.688
G31  21786402.971 7 114488319.71407      3359.117 7        47.625    21786401.188 6  89211673.33206      2617.495 6        38.625    21786401.685 7  89211673.33707      2617.504 7        43.563
G32  23909621.958 7 125645908.22707     -1334.860 7        42.719    23909624.808 4  97905914.95804     -1040.142 4        25.813    23909626.851 6  97905911.97706     -1040.304 6        37.344
> 2022 02 14 14 38 23.0000000  0 10
G02  22466960.695 7 118064678.82307      1091.332 7        46.406    22466958.534 6  91998439.89706       850.385 6        36.094
G06  24000012.408 6 126120911.87406     -1177.410 6        39.031    24000014.708 6  98276043.88806      -917.463 6        38.844    24000015.780 6  98276047.88006      -917.329 6        41.281
G12  21707144.359 7 114071813.17107     -1209.509 7        47.250    21707143.141 8  88887123.03808      -942.475 8        48.063    21707144.093 7  88887108.04007      -942.486 7        42.781
G20  25455488.905 6 133769498.65406      4424.672 6        39.188    25455491.245 2 104235981.51502      3447.810 2        15.000
G22  23137695.985 7 121589415.29607      -158.580 7        43.688    23137695.664 4  94744994.24204      -123.569 4        27.000
G24  25712685.820 6 135121072.30206     -2399.043 6        37.188    25712689.968 4 105289167.86004     -1869.385 4        29.219    25712690.387 5 105289173.88005     -1869.494 5        33.531
G25  19968606.014 8 104935730.24808      1024.616 8        49.125    19968607.262 9  81768105.80609       798.401 9        54.031    19968607.908 7  81768108.81007       798.404 7        47.688
G29  21253944.342 7 111690232.21307      3728.478 7        47.031    21253943.892 8  87031349.09308      2905.307 8        49.906    21253944.458 7  87031350.10207      2905.253 7        44.563
G31  21785763.805 7 114484961.01507      3358.178 7        47.875    21785762.050 6  89209056.16506      2616.762 6        38.594    21785762.675 7  89209056.16307      2616.812 7        43.469
G32  23909876.129 7 125647243.41407     -1335.689 7        42.969    23909878.894 4  97906955.35904     -1040.793 4        25.656    23909880.853 6  97906952.37306     -1040.766 6        37.469
> 2022 02 14 14 38 24.0000000  0 10
G02  22466753.051 7 118063587.46107      1090.563 7        46.406    22466750.827 6  91997589.48706       849.787 6        36.094
G06  24000236.130 6 126122089.04906     -1177.887 6        39.125    24000238.714 6  98276961.16406      -917.836 6        38.906    24000239.815 6  98276965.16006      -917.841 6        41.281
G12  21707374.497 7 114073022.54507     -1209.923 7        47.188    21707373.278 8  88888065.40608      -942.799 8        48.063    21707374.310 7  88888050.40407      -942.782 7        42.938
G20  25454646.810 6 133765073.75506      4424.424 6        39.250    25454649.167 2 104232533.53802      3447.614 2        15.219
G22  23137726.284 7 121589573.79007      -159.198 7        43.625    23137725.798 4  94745117.74304      -124.056 4        26.938
G24  25713142.123 6 135123470.97906     -2399.222 6        37.531    25713146.391 4 105291036.96204     -1869.525 4        29.094    25713146.902 5 105291042.97105     -1869.289 5        33.719
G25  19968410.923 8 104934705.53008      1023.981 8        49.063    19968412.273 9  81767307.32509       797.907 9        54.031    19968412.943 7  81767310.32907       797.932 7        47.750
G29  21253234.878 7 111686503.65507      3727.845 7        47.094    21253234.380 8  87028443.72408      2904.811 8        49.938    21253235.079 7  87028444.72907      2904.837 7        44.563
G31  21785124.751 7 114481602.82307      3357.473 7        47.781    21785123.001 6  89206439.39106      2616.208 6        38.563    21785123.622 7  89206439.39907      2616.172 7        43.438
G32  23910130.336 7 125648578.90107     -1336.133 7        43.156    23910133.088 4  97907995.99904     -1041.145 4        25.594    23910134.792 6  97907992.99306     -1040.942 6        37.063
> 2022 02 14 14 38 25.0000000  0 10
G02  22466545.331 7 118062496.67307      1090.431 7        46.656    22466543.237 6  91996739.52406       849.686 6        36.031
G06  24000459.921 6 126123266.66306     -1177.852 6        39.594    24000462.801 6  98277878.78406      -917.807 6        38.906    24000464.004 6  98277882.77406      -917.756 6        41.375
G12  21707604.693 7 114074232.22407     -1209.834 7        47.281    21707603.477 8  88889008.01408      -942.728 8        48.031    21707604.682 7  88888993.01507      -942.767 7        42.938
G20  25453804.932 6 133760648.97306      4424.664 6        39.344    25453807.103 2 104229085.66802      3447.777 2        15.500
G22  23137756.644 7 121589732.79507      -159.329 7        43.344    23137756.031 4  94745241.64404      -124.157 4        27.063
G24  25713598.550 6 135125869.60806     -2398.687 6        37.781    25713602.796 4 105292906.01704     -1869.106 4        29.063    25713603.273 5 105292912.00705     -1868.969 5        33.813
G25  19968216.014 8 104933681.32908      1023.909 8        49.031    19968217.377 9  81766509.24609       797.850 9        54.000    19968218.100 7  81766512.25107       797.806 7        47.813
G29  21252525.417 7 111682775.55807      3727.892 7        47.188    21252524.957 8  87025538.71508      2904.846 8        49.906    21252525.738 7  87025539.72607      2904.805 7        44.656
G31  21784485.851 7 114478245.19507      3357.382 7        47.844    21784484.060 6  89203823.05806      2616.141 6        38.531    21784484.795 7  89203823.06207      2616.077 7        43.594
G32  23910384.448 7 125649914.68507     -1335.915 7        43.313    23910387.318 4  97909036.86704     -1040.977 4        25.594    23910388.821 6  97909033.88306     -1041.093 6        37.313
> 2022 02 14 14 38 26.0000000  0 10
G02  22466337.944 7 118061406.64007      1089.801 7        46.594    22466335.789 5  91995890.14605       849.192 5        35.969
G06  24000684.371 6 126124444.87306     -1178.481 6        39.406    24000687.003 6  98278796.87006      -918.297 6        38.906    24000688.153 6  98278800.86206      -918.189 6        41.188
G12  21707834.977 7 114075442.38207     -1210.254 7        47.125    21707833.770 7  88889950.99307      -943.054 7        47.969    21707834.828 7  88889935.98707      -943.013 7        43.031
G20  25452963.016 6 133756224.49906      4424.318 6        39.406    25452965.141 2 104225638.01202      3447.534 2        15.406
G22  23137787.131 7 121589892.47607      -159.902 7        43.375    23137786.358 4  94745366.07404      -124.599 4        26.906
G24  25714054.804 6 135128268.31506     -2398.504 6        37.875    25714059.251 4 105294775.14004     -1868.955 4        28.938    25714059.998 5 105294781.14305     -1869.077 5        34.031
G25  19968021.307 8 104932657.81308      1023.257 8        48.969    19968022.611 8  81765711.70208       797.343 8        53.906    19968023.289 7  81765714.70207       797.361 7        47.906
G29  21251816.005 7 111679048.10307      3727.330 7        47.125    21251815.655 8  87022634.20608      2904.410 8        49.813    21251816.482 7  87022635.21107      2904.433 7        44.656
G31  21783847.187 7 114474888.25607      3356.719 7        47.719    21783845.244 6  89201207.26306      2615.623 6        38.500    21783845.898 7  89201207.27007      2615.605 7        43.438
G32  23910638.755 7 125651250.93207     -1336.300 7        43.344    23910641.623 4  97910078.09904     -1041.274 4        25.531    23910642.867 6  97910075.12406     -1041.312 6        37.219
> 2022 02 14 14 38 27.0000000  0 10
G02  22466130.575 7 118060317.34607      1088.868 7        46.594    22466128.471 6  91995041.34506       848.470 6        36.000
G06  24000908.771 6 126125623.68306     -1179.221 6        39.406    24000911.322 6  98279715.42306      -918.876 6        38.969    24000912.448 6  98279719.42906      -918.845 6        41.375
G12  21708065.252 7 114076653.00607     -1210.942 7        47.250    21708064.148 8  88890894.33508      -943.589 8        48.000    21708065.287 7  88890879.33207      -943.511 7        42.906
G20  25452121.046 6 133751800.30706      4423.900 6        39.094    25452123.268 2 104222190.59102      3447.190 2        15.563
G22  23137817.553 7 121590052.80807      -160.676 7        43.313    23137816.836 4  94745491.00604      -125.204 4        26.969
G24  25714511.410 6 135130667.11506     -2398.778 6        38.156    25714515.718 4 105296644.32904     -1869.168 4        29.031    25714516.794 5 105296650.32705     -1869.186 5        34.094
G25  19967826.704 8 104931634.97408      1022.441 8        49.031    19967827.975 8  81764914.68608       796.707 8        53.938    19967828.590 7  81764917.69007       796.705 7        47.969
G29  21251106.715 7 111675321.27707      3726.467 7        47.156    21251106.469 8  87019730.18508      2903.740 8        49.813    21251107.253 7  87019731.18007      2903.747 7        44.656
G31  21783208.538 7 114471532.01107      3355.887 7        47.750    21783206.558 6  89198592.00606      2614.977 6        38.469    21783207.322 7  89198592.01507      2614.921 7        43.625
G32  23910893.224 7 125652587.66007     -1337.061 7        43.094    23910896.018 4  97911119.70504     -1041.863 4        25.469    23910897.222 6  97911116.72406     -1041.822 6        37.281
> 2022 02 14 14 38 28.0000000  0 10
G02  22465923.281 7 118059228.38307      1088.651 7        46.656    22465921.238 6  91994192.80206       848.296 6        36.031
G06  24001133.160 6 126126802.68206     -1179.052 6        39.094    24001135.673 6  98280634.12306      -918.739 6        38.938    24001136.979 6  98280638.14106      -918.978 6        41.156
G12  21708295.561 7 114077863.69307     -1210.820 7        47.094    21708294.539 7  88891837.72707      -943.496 7        47.969    21708295.604 7  88891822.73807      -943.643 7        42.875
G20  25451279.196 6 133747376.00906      4424.216 6        39.063    25451281.320 2 104218743.08402      3447.417 2        15.281
G22  23137848.195 7 121590213.41507      -160.793 7        43.656    23137847.418 4  94745616.15004      -125.291 4        26.969
G24  25714967.614 6 135133065.62106     -2398.551 6        38.406    25714972.155 4 105298513.28904     -1868.995 4        29.219    25714972.999 5 105298519.30005     -1868.954 5        34.625
G25  19967632.096 8 104930612.40308      1022.359 8        48.906    19967633.388 8  81764117.87708       796.642 8        53.844    19967633.981 7  81764120.88307       796.615 7        47.938
G29  21250397.555 7 111671594.67007      3726.386 7        47.125    21250397.319 8  87016826.33408      2903.678 8        49.781    21250398.130 7  87016827.33207      2903.762 7        44.656
G31  21782569.981 7 114468176.05707      3355.689 7        47.625    21782567.934 6  89195976.97706      2614.822 6        38.438    21782568.596 7  89195976.97707      2614.838 7        43.656
G32  23911147.624 7 125653924.44607     -1336.953 7        43.313    23911150.418 4  97912161.35204     -1041.775 4        25.406    23911151.535 6  97912158.36506     -1041.770 6        37.500
> 2022 02 14 14 38 29.0000000  0 10
G02  22465716.127 7 118058139.98607      1088.038 7        46.750    22465714.113 6  91993344.70106       847.821 6        36.063
G06  24001357.716 6 126127982.12406     -1179.654 6        39.656    24001360.103 6  98281553.17006      -919.212 6        38.969    24001361.417 6  98281557.17806      -919.249 6        41.375
G12  21708525.989 7 114079074.67507     -1211.154 7        47.063    21708524.984 8  88892781.34708      -943.757 8        48.000    21708525.983 7  88892766.35607      -943.792 7        43.063
G20  25450437.189 6 133742951.83406      4424.138 6        39.156    25450439.439 2 104215295.67102      3447.394 2        15.188
G22  23137878.954 7 121590374.51207      -161.412 7        43.688    23137878.089 4  94745741.67704      -125.777 4        27.031
G24  25715424.227 6 135135464.01706     -2398.379 6        38.625    25715428.573 4 105300382.15804     -1868.865 4        29.500    25715429.090 5 105300388.18705     -1868.998 5        34.875
G25  19967437.577 8 104929590.33008      1021.830 8        48.938    19967438.894 8  81763321.45608       796.232 8        53.875    19967439.431 8  81763324.45308       796.207 8        48.125
G29  21249688.418 7 111667868.51007      3725.856 7        47.406    21249688.254 8  87013922.83308      2903.266 8        49.813    21249689.054 7  87013923.83207      2903.296 7        44.719
G31  21781931.374 7 114464820.61307      3355.181 7        47.656    21781929.404 6  89193362.34506      2614.427 6        38.469    21781930.054 7  89193362.34907      2614.391 7        43.719
G32  23911402.064 7 125655261.50907     -1337.219 7        43.000    23911404.867 4  97913203.21704     -1042.004 4        25.531    23911406.092 6  97913200.22106     -1041.961 6        37.156
> 2022 02 14 14 38 30.0000000  0 10
G02  22465509.109 7 118057052.33307      1087.543 7        46.719    22465507.126 6  91992497.18106       847.430 6        36.188
G06  24001582.264 6 126129162.15206     -1180.103 6        39.594    24001584.650 6  98282472.67306      -919.560 6        39.063    24001585.847 6  98282476.67906      -919.507 6        41.406
G12  21708756.385 7 114080286.13807     -1211.485 7        47.000    21708755.523 8  88893725.34508      -944.016 8        48.063    21708756.607 7  88893710.34607      -943.976 7        43.031
G20  25449595.324 6 133738527.95506      4423.985 6        39.063    25449597.580 2 104211848.49302      3447.279 2        15.281
G22  23137909.915 7 121590536.27607      -161.797 7        43.688    23137908.853 4  94745867.72504      -126.073 4        27.156
G24  25715880.587 6 135137862.52106     -2398.318 6        38.531    25715885.010 4 105302251.12704     -1868.822 4        29.750    25715885.270 5 105302257.17405     -1869.083 5        34.438
G25  19967243.141 8 104928568.94108      1021.251 8        48.844    19967244.535 8  81762525.56908       795.777 8        53.969    19967245.122 8  81762528.57208       795.808 8        48.156
G29  21248979.471 7 111664142.98107      3725.456 7        47.344    21248979.305 8  87011019.82608      2902.952 8        49.906    21248980.209 7  87011020.82807      2902.962 7        44.781
G31  21781292.968 7 114461465.86607      3354.669 7        47.531    21781291.004 6  89190748.25706      2614.029 6        38.563    21781291.617 7  89190748.26007      2613.958 7        43.625
G32  23911656.750 7 125656599.05707     -1337.433 7        42.969    23911659.391 4  97914245.46204     -1042.153 4        25.594    23911660.791 6  97914242.47606     -1042.379 6        37.094
> 2022 02 14 14 38 31.0000000  0 10
G02  22465302.164 7 118055964.88207      1086.642 7        46.750    22465300.188 6  91991649.81706       846.734 6        36.188
G06  24001806.811 6 126130342.24006     -1180.831 6        39.750    24001809.202 6  98283392.22406      -920.131 6        39.094    24001810.196 6  98283396.22506      -920.030 6        41.344
G12  21708986.900 7 114081497.52907     -1212.072 7        46.938    21708986.044 8  88894669.28608      -944.473 8        48.063    21708987.146 7  88894654.29307      -944.504 7        42.969
G20  25448753.551 6 133734103.83906      4423.602 6        39.000    25448755.654 2 104208401.12102      3446.968 2        15.406
G22  23137940.716 7 121590698.16507      -162.633 7        43.781    23137939.649 4  94745993.87904      -126.731 4        27.063
G24  25716337.166 6 135140260.59506     -2398.453 6        38.719    25716341.343 4 105304119.75604     -1868.926 4        29.875    25716341.873 5 105304125.79605     -1869.244 5        34.469
G25  19967048.706 8 104927547.68908      1020.424 8        48.719    19967050.199 8  81761729.78708       795.136 8        53.938    19967050.805 8  81761732.79208       795.134 8        48.156
G29  21248270.596 7 111660417.55307      3724.614 7        47.313    21248270.378 8  87008116.89608      2902.296 8        49.875    21248271.198 7  87008117.89307      2902.375 7        44.750
G31  21780654.577 7 114458111.27307      3353.767 7        47.500    21780652.644 6  89188134.28706      2613.323 6        38.531    21780653.240 7  89188134.28307      2613.352 7        43.563
G32  23911911.398 7 125657936.53507     -1338.078 7        42.688    23911913.836 4  97915287.64904     -1042.649 4        25.469    23911915.785 6  97915284.66006     -1042.760 6        36.938
> 2022 02 14 14 38 32.0000000  0 10
G02  22465095.250 7 118054878.09607      1086.031 7        46.906    22465093.376 6  91990802.97006       846.260 6        36.219
G06  24002031.368 6 126131522.84106     -1181.240 6        39.531    24002033.847 6  98284312.17406      -920.448 6        39.188    24002034.840 6  98284316.19306      -920.475 6        41.375
G12  21709217.538 7 114082709.31707     -1212.410 7        46.875    21709216.642 8  88895613.53508      -944.738 8        48.125    21709217.716 7  88895598.53207      -944.726 7        43.094
G20  25447911.512 6 133729679.94806      4423.292 6        39.438    25447913.822 2 104204953.92802      3446.723 2        15.500
G22  23137971.698 7 121590860.66207      -163.251 7        43.781    23137970.548 4  94746120.49904      -127.200 4        27.156
G24  25716793.484 6 135142658.67706     -2398.540 6        38.375    25716797.699 5 105305988.39205     -1868.994 5        30.031    25716798.288 5 105305994.41205     -1868.964 5        34.250
G25  19966854.477 8 104926527.03508      1019.952 8        48.750    19966855.983 9  81760934.47309       794.767 9        54.031    19966856.655 8  81760937.47808       794.798 8        48.250
G29  21247561.906 7 111656692.66907      3724.137 7        47.188    21247561.559 8  87005214.39008      2901.926 8        49.969    21247562.410 7  87005215.39607      2901.945 7        44.813
G31  21780016.151 7 114454757.28407      3353.255 7        47.594    21780014.392 6  89185520.79006      2612.925 6        38.594    21780014.958 7  89185520.79107      2612.924 7        43.531
G32  23912165.970 7 125659274.40107     -1338.491 7        42.594    23912168.405 4  97916330.13604     -1042.974 4        25.438    23912170.328 6  97916327.13406     -1042.917 6        37.031
> 2022 02 14 14 38 33.0000000  0 10
G02  22464888.600 7 118053792.44807      1085.669 7        46.750    22464886.769 6  91989957.01106       845.977 6        36.156
G06  24002256.195 6 126132704.47506     -1181.467 6        39.781    24002258.698 6  98285232.92406      -920.625 6        39.000    24002259.777 6  98285236.92406      -920.636 6        41.375
G12  21709448.190 7 114083921.96207     -1212.448 7        47.031    21709447.404 8  88896558.45108      -944.765 8        48.031    21709448.476 7  88896543.44907      -944.769 7        43.063
G20  25447069.894 6 133725256.73606      4423.465 6        39.344    25447072.124 2 104201507.27002      3446.830 2        15.594
G22  23138002.756 7 121591024.20407      -163.480 7        43.813    23138001.657 4  94746247.93204      -127.388 4        27.063
G24  25717250.104 6 135145057.25906     -2398.283 6        38.313    25717254.153 4 105307857.41104     -1868.795 4        29.938    25717254.805 5 105307863.45605     -1868.969 5        34.438
G25  19966660.466 8 104925507.47108      1019.623 8        48.719    19966661.968 8  81760140.00608       794.515 8        53.906    19966662.661 8  81760143.01008       794.503 8        48.281
G29  21246853.281 7 111652968.81307      3723.968 7        47.281    21246852.927 8  87002312.68408      2901.793 8        49.844    21246853.687 7  87002313.69007      2901.758 7        44.625
G31  21779378.014 7 114451404.38207      3352.987 7        47.750    21779376.349 6  89182908.14106      2612.719 6        38.438    21779376.838 7  89182908.13607      2612.772 7        43.531
G32  23912420.527 7 125660613.12807     -1338.552 7        42.406    23912423.162 4  97917373.29504     -1043.012 4        25.188    23912424.821 6  97917370.31306     -1043.142 6        37.156
> 2022 02 14 14 38 34.0000000  0 10
G02  22464682.043 7 118052707.23507      1085.002 7        46.938    22464680.242 6  91989111.39106       845.457 6        36.188
G06  24002480.614 6 126133886.37406     -1181.984 6        39.938    24002483.599 6  98286153.88306      -921.029 6        38.969    24002484.662 6  98286157.88606      -920.958 6        41.438
G12  21709679.091 7 114085134.78707     -1212.906 7        47.000    21709678.207 8  88897503.51008      -945.123 8        48.063    21709679.322 7  88897488.51007      -945.135 7        43.156
G20  25446228.230 6 133720833.52206      4423.303 6        39.469    25446230.506 2 104198060.61702      3446.710 2        15.594
G22  23138033.830 7 121591188.12807      -164.093 7        43.656    23138032.869 4  94746375.66304      -127.864 4        27.031
G24  25717706.525 6 135147455.63506     -2398.154 6        38.344    25717710.554 4 105309726.27904     -1868.690 4        29.906    25717710.930 5 105309732.29305     -1868.853 5        34.250
G25  19966466.580 8 104924488.27108      1018.910 8        48.750    19966468.025 8  81759345.82508       793.955 8        53.938    19966468.695 8  81759348.82808       793.948 8        48.344
G29  21246144.658 7 111649245.29207      3723.415 7        47.188    21246144.363 8  86999411.24008      2901.360 8        49.844    21246144.920 7  86999412.24507      2901.379 7        44.719
G31  21778740.087 7 114448051.87607      3352.313 7        47.844    21778738.388 6  89180295.79906      2612.191 6        38.469    21778738.986 7  89180295.79907      2612.237 7        43.594
G32  23912675.243 7 125661952.00807     -1338.836 7        42.250    23912677.973 4  97918416.57204     -1043.245 4        25.375    23912679.589 6  97918413.56806     -1043.179 6        37.219
> 2022 02 14 14 38 35.0000000  0 10
G02  22464475.675 7 118051622.86007      1084.256 7        46.875    22464473.877 6  91988266.42206       844.876 6        36.344
G06  24002705.712 6 126135068.97706     -1182.550 6        40.094    24002708.615 6  98287075.39106      -921.466 6        39.031    24002709.593 6  98287079.40006      -921.529 6        41.469
G12  21709910.021 7 114086348.16407     -1213.328 7        47.000    21709909.113 8  88898448.99608      -945.448 8        48.156    21709910.300 7  88898434.00007      -945.535 7        43.156
G20  25445386.848 6 133716410.70806      4423.004 6        39.406    25445388.830 2 104194614.26802      3446.482 2        15.656
G22  23138065.228 7 121591352.79807      -164.664 7        43.719    23138064.197 4  94746503.97504      -128.313 4        26.969
G24  25718163.042 6 135149854.18806     -2398.330 6        38.313    25718166.981 5 105311595.27705     -1868.820 5        30.031    25718167.540 5 105311601.31105     -1868.790 5        34.344
G25  19966272.890 8 104923469.83608      1018.351 8        48.688    19966274.229 9  81758552.24109       793.522 9        54.031    19966274.871 8  81758555.24808       793.529 8        48.438
G29  21245436.242 7 111645522.50007      3722.814 7        47.313    21245435.937 8  86996510.36308      2900.894 8        49.906    21245436.455 7  86996511.36907      2900.858 7        44.781
G31  21778102.285 8 114444700.16108      3351.667 8        48.000    21778100.573 6  89177684.07306      2611.688 6        38.531    21778101.162 7  89177684.07407      2611.668 7        43.469
G32  23912930.057 7 125663291.44907     -1339.186 7        42.063    23912932.883 4  97919460.29004     -1043.516 4        25.344    23912934.336 6  97919457.29806     -1043.631 6        36.906
> 2022 02 14 14 38 36.0000000  0 10
G02  22464269.394 7 118050538.86007      1084.228 7        46.875    22464267.583 6  91987421.74806       844.855 6        36.281
G06  24002930.817 6 126136251.82006     -1182.691 6        40.031    24002933.690 6  98287997.08106      -921.575 6        39.000    24002934.611 6  98288001.09406      -921.466 6        41.188
G12  21710140.901 7 114087561.66007     -1213.178 7        47.031    21710140.041 8  88899394.57908      -945.332 8        48.125    21710141.233 7  88899379.57807      -945.407 7        43.031
G20  25444545.500 6 133711987.81206      4423.162 6        39.688    25444547.164 2 104191167.85002      3446.613 2        15.656
G22  23138096.679 7 121591517.77607      -164.747 7        43.563    23138095.579 4  94746632.53304      -128.368 4        26.969
G24  25718619.363 6 135152252.49406     -2397.722 6        38.406    25718623.391 5 105313464.08505     -1868.353 5        30.031    25718624.034 5 105313470.11505     -1868.255 5        34.469
G25  19966079.166 8 104922451.71508      1018.423 8        48.625    19966080.487 9  81757758.90009       793.578 9        54.000    19966081.109 8  81757761.90508       793.550 8        48.344
G29  21244727.897 7 111641799.97707      3722.762 7        47.125    21244727.561 8  86993609.69608      2900.855 8        49.906    21244728.032 7  86993610.70507      2900.843 7        44.688
G31  21777464.663 7 114441348.77407      3351.630 7        47.875    21777462.821 6  89175072.60106      2611.657 6        38.531    21777463.399 7  89175072.60607      2611.659 7        43.438
G32  23913184.792 7 125664631.00907     -1339.218 7        42.063    23913187.774 4  97920504.10004     -1043.549 4        25.094    23913188.977 6  97920501.12606     -1043.576 6        36.844
> 2022 02 14 14 38 37.0000000  0 10
G02  22464063.199 7 118049454.76907      1084.153 7        47.031    22464061.267 6  91986577.00206       844.792 6        36.281
G06  24003155.960 6 126137434.43206     -1182.570 6        40.313    24003158.724 6  98288918.59906      -921.484 6        38.969    24003159.745 6  98288922.60006      -921.416 6        41.156
G12  21710371.820 7 114088774.77507     -1212.907 7        47.219    21710370.893 8  88900339.86308      -945.125 8        48.156    21710372.059 7  88900324.86507      -945.063 7        43.031
G20  25443703.974 6 133707564.37506      4423.738 6        40.063    25443705.381 2 104187721.02202      3447.083 2        15.750
G22  23138127.982 7 121591682.58007      -164.735 7        43.719    23138126.952 4  94746760.94804      -128.361 4        26.969
G24  25719075.739 6 135154650.05006     -2397.155 6        38.594    25719079.671 5 105315332.31705     -1867.920 5        30.094    25719080.609 5 105315338.34605     -1868.127 5        34.969
G25  19965885.378 8 104921433.43908      1018.294 8        48.750    19965886.723 9  81756965.43809       793.474 9        54.000    19965887.358 8  81756968.44008       793.509 8        48.594
G29  21244019.426 7 111638077.24907      3722.846 7        47.281    21244019.144 8  86990708.87008      2900.919 8        49.906    21244019.716 7  86990709.87807      2900.890 7        44.781
G31  21776827.010 7 114437997.24407      3351.609 7        47.969    21776825.029 6  89172461.02206      2611.644 6        38.594    21776825.677 7  89172461.02707      2611.629 7        43.625
G32  23913439.651 6 125665970.18506     -1339.053 6        41.938    23913442.590 4  97921547.61504     -1043.417 4        24.969    23913443.656 6  97921544.61806     -1043.349 6        37.063
> 2022 02 14 14 38 38.0000000  0 10
G02  22463857.199 7 118048371.47507      1083.298 7        46.844    22463855.103 6  91985732.87606       844.124 6        36.219
G06  24003381.078 6 126138617.68106     -1183.116 6        40.344    24003383.870 6  98289840.60906      -921.913 6        38.938    24003384.893 6  98289844.63006      -922.096 6        41.156
G12  21710602.818 7 114089988.42907     -1213.532 7        47.219    21710601.852 8  88901285.56508      -945.611 8        48.156    21710602.998 7  88901270.56807      -945.553 7        43.063
G20  25442862.210 6 133703141.29106      4423.394 6        39.594    25442863.638 2 104184274.45402      3446.801 2        15.688
G22  23138159.379 7 121591848.09907      -165.342 7        43.656    23138158.508 4  94746889.92904      -128.855 4        26.969
G24  25719532.111 6 135157047.74906     -2397.240 6        38.219    25719535.964 5 105317200.64905     -1867.978 5        30.156    25719537.408 5 105317206.67105     -1868.138 5        34.656
G25  19965691.741 8 104920415.90608      1017.608 8        48.719    19965693.097 9  81756172.55509       792.938 9        54.031    19965693.756 8  81756175.55808       792.941 8        48.500
G29  21243311.120 7 111634355.19707      3722.181 7        47.156    21243310.857 8  86987808.57008      2900.399 8        49.906    21243311.519 7  86987809.57707      2900.355 7        44.688
G31  21776189.384 8 114434646.45808      3350.865 8        48.000    21776187.389 6  89169850.01906      2611.059 6        38.625    21776188.008 7  89169850.02807      2611.095 7        43.594
G32  23913694.535 6 125667309.89306     -1339.464 6        41.813    23913697.517 4  97922591.54304     -1043.739 4        24.938    23913698.671 6  97922588.55306     -1043.760 6        37.000
> 2022 02 14 14 38 39.0000000  0 10
G02  22463651.153 7 118047288.75907      1081.771 7        46.781    22463649.046 6  91984889.20206       842.935 6        36.125
G06  24003606.366 6 126139801.39406     -1184.621 6        40.375    24003609.106 6  98290762.98306      -923.081 6        38.781    24003610.052 6  98290766.97506      -923.115 6        41.125
G12  21710833.849 7 114091202.39507     -1214.728 7        47.063    21710832.869 8  88902231.51108      -946.542 8        48.063    21710833.993 7  88902216.51707      -946.556 7        43.156
G20  25442020.508 6 133698718.34506      4422.349 6        39.688    25442021.971 2 104180828.01102      3446.042 2        15.688
G22  23138190.872 7 121592014.14307      -166.964 7        43.531    23138190.141 4  94747019.31404      -130.103 4        26.875
G24  25719988.330 6 135159445.38506     -2398.312 6        38.438    25719992.235 5 105319068.93105     -1868.809 5        30.000    25719993.617 5 105319074.94605     -1868.596 5        34.625
G25  19965498.160 8 104919398.88708      1016.053 8        48.688    19965499.570 8  81755380.07508       791.729 8        53.938    19965500.258 8  81755383.07508       791.757 8        48.563
G29  21242602.872 7 111630633.63307      3720.688 7        47.125    21242602.664 8  86984908.65108      2899.236 8        49.813    21242603.404 7  86984909.65607      2899.246 7        44.719
G31  21775551.924 7 114431296.21207      3349.377 7        47.969    21775549.857 6  89167239.43906      2609.906 6        38.531    21775550.523 7  89167239.44807      2609.816 7        43.656
G32  23913949.630 6 125668649.89406     -1340.770 6        41.906    23913952.529 4  97923635.70004     -1044.756 4        24.938    23913953.531 6  97923632.70406     -1044.598 6        36.813
> 2022 02 14 14 38 40.0000000  0 10
G02  22463445.377 7 118046206.97507      1081.198 7        46.688    22463443.168 6  91984046.25606       842.485 6        36.125
G06  24003831.676 6 126140985.86506     -1184.928 6        40.375    24003834.476 6  98291685.94906      -923.323 6        38.813    24003835.584 6  98291689.94406      -923.266 6        41.438
G12  21711065.105 7 114092417.01807     -1215.106 7        47.063    21711064.012 8  88903177.97108      -946.837 8        48.094    21711065.135 7  88903162.97307      -946.870 7        43.156
G20  25441179.018 6 133694295.88606      4422.151 6        39.094    25441180.434 2 104177381.92702      3445.831 2        15.781
G22  23138222.548 7 121592181.03007      -167.428 7        43.656    23138221.916 4  94747149.35404      -130.464 4        26.844
G24  25720444.521 6 135161843.30206     -2398.399 6        38.406    25720448.546 4 105320937.44104     -1868.884 4        29.969    25720449.889 5 105320943.45105     -1868.801 5        34.406
G25  19965304.731 8 104918382.71808      1015.643 8        48.844    19965306.199 8  81754588.25508       791.407 8        53.969    19965306.872 8  81754591.25808       791.407 8        48.656
G29  21241894.748 7 111626912.87807      3720.209 7        47.063    21241894.622 8  86982009.36008      2898.861 8        49.813    21241895.432 7  86982010.36807      2898.844 7        44.781
G31  21774914.574 8 114427946.84908      3348.789 8        48.031    21774912.490 6  89164629.54506      2609.440 6        38.531    21774913.436 7  89164629.55307      2609.507 7        43.625
G32  23914204.555 6 125669990.54906     -1341.005 6        41.625    23914207.671 4  97924680.36804     -1044.941 4        24.875    23914208.449 6  97924677.38506     -1045.057 6        37.031
> 2022 02 14 14 38 41.0000000  0 10
G02  22463239.523 7 118045125.83207      1081.429 7        46.531    22463237.420 6  91983203.80506       842.671 6        36.063
G06  24004056.929 6 126142170.85106     -1184.677 6        40.219    24004059.962 6  98292609.31506      -923.122 6        38.750    24004061.159 6  98292613.30806      -923.119 6        41.344
G12  21711296.361 7 114093632.01507     -1214.637 7        46.969    21711295.231 8  88904124.72008      -946.470 8        48.063    21711296.226 7  88904109.71707      -946.300 7        43.125
G20  25440337.739 6 133689873.63106      4422.820 6        39.313    25440338.929 2 104173936.00502      3446.378 2        16.031
G22  23138254.559 7 121592348.49007      -167.140 7        43.500    23138253.781 4  94747279.84504      -130.233 4        26.906
G24  25720900.584 6 135164241.18706     -2397.269 6        38.406    25720904.849 4 105322805.92104     -1868.004 4        29.875    25720905.937 5 105322811.93605     -1867.860 5        34.063
G25  19965111.401 8 104917367.15108      1015.906 8        48.813    19965112.953 8  81753796.90608       791.616 8        53.969    19965113.519 8  81753799.90208       791.622 8        48.625
G29  21241186.881 7 111623192.65707      3720.565 7        46.875    21241186.689 8  86979110.48808      2899.141 8        49.781    21241187.567 7  86979111.49307      2899.186 7        44.688
G31  21774277.437 7 114424598.08407      3349.120 7        47.938    21774275.239 6  89162020.12106      2609.700 6        38.531    21774276.221 7  89162020.12707      2609.651 7        43.563
G32  23914460.080 6 125671331.58406     -1340.635 6        41.406    23914462.871 4  97925725.33104     -1044.644 4        24.719    23914463.726 6  97925722.33606     -1044.596 6        36.719
> 2022 02 14 14 38 42.0000000  0 10
G02  22463033.908 7 118044045.25407      1080.475 7        46.594    22463031.783 6  91982361.79506       841.930 6        36.063
G06  24004282.725 6 126143356.22306     -1185.232 6        40.281    24004285.502 6  98293532.98206      -923.553 6        38.781    24004286.689 6  98293536.98106      -923.416 6        41.406
G12  21711527.685 7 114094847.29607     -1215.215 7        46.750    21711526.507 8  88905071.69008      -946.920 8        48.063    21711527.350 7  88905056.69307      -946.858 7        43.094
G20  25439496.378 6 133685451.50606      4422.298 6        39.188    25439497.383 2 104170490.19102      3445.943 2        16.000
G22  23138286.482 7 121592516.43207      -168.021 7        43.500    23138285.753 4  94747410.70404      -130.912 4        26.906
G24  25721356.871 6 135166639.01806     -2397.604 6        38.469    25721361.142 4 105324674.35804     -1868.262 4        29.969    25721362.080 5 105324680.37505     -1868.130 5        34.250
G25  19964918.299 8 104916352.06708      1014.981 8        48.688    19964919.797 9  81753005.93109       790.895 9        54.000    19964920.313 8  81753008.93108       790.883 8        48.625
G29  21240478.939 7 111619472.88207      3719.724 7        46.875    21240478.840 8  86976211.96208      2898.489 8        49.813    21240479.588 7  86976212.96407      2898.551 7        44.813
G31  21773640.375 8 114421249.84008      3348.139 8        48.000    21773638.100 6  89159411.09806      2608.940 6        38.563    21773638.918 7  89159411.09507      2609.005 7        43.594
G32  23914715.165 6 125672672.90806     -1341.327 6        41.406    23914718.133 4  97926770.52004     -1045.188 4        24.688    23914719.048 6  97926767.51306     -1045.111 6        36.906
> 2022 02 14 14 38 43.0000000  0 10
G02  22462828.340 7 118042965.05807      1079.950 7        46.469    22462826.236 6  91981520.08306       841.516 6        36.094
G06  24004508.192 6 126144541.88206     -1185.856 6        40.250    24004511.104 6  98294456.87306      -924.042 6        38.781    24004512.384 6  98294460.87606      -924.074 6        41.719
G12  21711758.948 7 114096062.69107     -1215.488 7        46.844    21711757.807 8  88906018.75408      -947.133 8        48.031    21711758.686 7  88906003.75907      -947.108 7        42.969
G20  25438655.028 6 133681029.30206      4422.103 6        39.063    25438655.864 2 104167044.31202      3445.783 2        15.875
G22  23138318.606 7 121592684.68607      -168.504 7        43.375    23138317.761 4  94747541.80904      -131.299 4        26.938
G24  25721813.055 6 135169036.57506     -2397.522 6        38.250    25721817.399 4 105326542.58104     -1868.195 4        29.875    25721818.248 5 105326548.61405     -1868.192 5        34.094
G25  19964725.181 8 104915337.30808      1014.491 8        48.719    19964726.699 9  81752215.21009       790.512 9        54.000    19964727.138 8  81752218.20908       790.527 8        48.625
G29  21239771.193 7 111615753.37807      3719.340 7        46.688    21239771.040 8  86973313.64808      2898.186 8        49.781    21239771.774 7  86973314.65707      2898.052 7        44.688
G31  21773003.278 7 114417901.92407      3347.662 7        47.875    21773001.019 6  89156802.33306      2608.566 6        38.531    21773001.773 7  89156802.33807      2608.509 7        43.688
G32  23914970.404 6 125674014.32106     -1341.490 6        40.969    23914973.391 4  97927815.77204     -1045.309 4        24.469    23914974.455 6  97927812.76606     -1045.295 6        36.969
> 2022 02 14 14 38 44.0000000  0 10
G02  22462622.894 7 118041885.12107      1079.868 7        46.344    22462620.734 6  91980678.57606       841.446 6        36.125
G06  24004733.734 6 126145727.64406     -1185.818 6        40.438    24004736.728 6  98295380.84606      -924.018 6        38.750    24004737.972 6  98295384.83806      -923.992 6        41.594
G12  21711990.168 7 114097278.07707     -1215.242 7        46.813    21711989.097 8  88906965.80608      -946.947 8        48.031    21711989.978 7  88906950.81507      -947.051 7        43.031
G20  25437813.270 6 133676606.91806      4422.504 6        39.031    25437814.362 2 104163598.30502      3446.090 2        15.781
G22  23138350.509 7 121592853.11707      -168.432 7        43.500    23138349.827 4  94747673.05404      -131.249 4        26.906
G24  25722268.963 6 135171433.76006     -2396.801 6        38.188    25722273.563 4 105328410.51304     -1867.636 4        29.844    25722274.208 5 105328416.54305     -1867.788 5        34.281
G25  19964532.278 8 104914322.74408      1014.622 8        48.719    19964533.637 9  81751424.63809       790.611 9        54.000    19964533.996 8  81751427.64308       790.605 8        48.688
G29  21239063.500 7 111612034.03707      3719.416 7        46.563    21239063.267 8  86970415.45908      2898.242 8        49.813    21239063.867 7  86970416.45607      2898.262 7        44.906
G31  21772366.200 7 114414554.21907      3347.748 7        47.781    21772363.969 6  89154193.73206      2608.628 6        38.563    21772364.688 7  89154193.73707      2608.510 7        43.781
G32  23915225.666 6 125675355.73806     -1341.373 6        40.938    23915228.596 4  97928861.02404     -1045.222 4        24.438    23915230.075 6  97928858.01506     -1044.973 6        36.844
> 2022 02 14 14 38 45.0000000  0 10
G02  22462417.549 7 118040805.90507      1079.328 7        46.219    22462415.357 6  91979837.62906       841.036 6        36.125
G06  24004959.358 6 126146913.97906     -1186.207 6        40.219    24004962.469 6  98296305.26206      -924.315 6        38.688    24004963.778 6  98296309.25706      -924.236 6        41.813
G12  21712221.552 7 114098493.92407     -1215.587 7        46.656    21712220.481 8  88907913.21608      -947.208 8        48.000    21712221.364 7  88907898.21907      -947.241 7        42.938
G20  25436971.660 6 133672184.81306      4422.338 6        39.188    25436972.799 2 104160152.52102      3445.963 2        15.844
G22  23138382.670 7 121593022.19207      -168.830 7        43.500    23138381.978 4  94747804.80104      -131.549 4        26.906
G24  25722725.044 6 135173831.02406     -2396.967 6        38.188    25722729.762 4 105330278.51004     -1867.765 4        29.750    25722730.961 5 105330284.49705     -1867.380 5        34.031
G25  19964339.508 8 104913308.84708      1014.030 8        48.719    19964340.704 8  81750634.59108       790.154 8        53.969    19964341.002 8  81750637.58908       790.160 8        48.594
G29  21238355.926 7 111608315.29907      3718.942 7        46.531    21238355.619 8  86967517.74208      2897.878 8        49.750    21238356.168 7  86967518.74707      2897.849 7        44.875
G31  21771729.219 7 114411207.19807      3347.198 7        47.719    21771727.053 6  89151585.66306      2608.207 6        38.500    21771727.799 7  89151585.66507      2608.204 7        43.750
G32  23915481.112 6 125676697.60006     -1341.688 6        41.031    23915483.908 4  97929906.63704     -1045.478 4        24.344    23915485.523 6  97929903.61506     -1045.311 6        36.750
> 2022 02 14 14 38 46.0000000  0 10
G02  22462212.291 7 118039727.37407      1077.366 7        46.156    22462210.114 6  91978997.21406       839.509 6        36.094
G06  24005185.284 6 126148100.85706     -1187.951 6        40.219    24005188.318 6  98297230.10106      -925.673 6        38.656    24005189.510 6  98297234.10406      -925.626 6        41.750
G12  21712452.915 7 114099710.17207     -1217.304 7        46.844    21712451.941 8  88908860.94308      -948.545 8        48.000    21712452.570 7  88908845.94507      -948.537 7        42.906
G20  25436129.900 6 133667762.92106      4421.084 6        39.531    25436131.329 2 104156706.89802      3445.012 2        16.188
G22  23138414.992 7 121593191.88407      -170.817 7        43.531    23138414.250 4  94747937.02604      -133.103 4        26.844
G24  25723181.223 6 135176228.30606     -2398.168 6        38.406    25723185.971 4 105332146.51904     -1868.701 4        29.688    25723187.114 5 105332152.54405     -1868.789 5        34.156
G25  19964146.663 8 104912295.55508      1012.188 8        48.781    19964147.883 8  81749845.01408       788.720 8        53.969    19964148.165 8  81749848.01508       788.692 8        48.500
G29  21237648.464 7 111604597.14007      3717.050 7        46.438    21237648.079 8  86964620.47708      2896.406 8        49.750    21237648.566 7  86964621.48007      2896.375 7        44.781
G31  21771092.352 7 114407860.80207      3345.239 7        47.813    21771090.250 6  89148978.08306      2606.682 6        38.469    21771091.144 7  89148978.08607      2606.703 7        43.656
G32  23915736.606 6 125678039.85706     -1343.388 6        41.031    23915739.331 4  97930952.54304     -1046.791 4        24.281    23915740.958 6  97930949.54206     -1046.640 6        36.813
> 2022 02 14 14 38 47.0000000  0 10
G02  22462007.279 7 118038649.73507      1076.598 7        46.188    22462005.032 6  91978157.49406       838.906 6        36.094
G06  24005411.090 6 126149288.48806     -1188.621 6        40.625    24005414.305 6  98298155.52806      -926.198 6        38.625    24005415.298 6  98298159.53106      -926.136 6        41.750
G12  21712684.499 7 114100927.04307     -1217.839 7        46.750    21712683.517 8  88909809.15308      -948.967 8        48.000    21712684.109 7  88909794.16107      -948.892 7        42.938
G20  25435288.580 6 133663341.52306      4420.549 6        39.594    25435289.957 2 104153261.66602      3444.594 2        16.188
G22  23138447.452 7 121593362.41607      -171.648 7        43.563    23138446.682 4  94748069.91004      -133.753 4        26.813
G24  25723637.435 6 135178625.83106     -2398.161 6        38.219    25723642.219 4 105334014.71804     -1868.689 4        29.750    25723643.535 5 105334020.75305     -1868.610 5        34.313
G25  19963953.967 8 104911283.10808      1011.480 8        48.844    19963955.223 8  81749056.09508       788.167 8        53.969    19963955.394 8  81749059.10108       788.081 8        48.500
G29  21236941.120 7 111600879.76907      3716.364 7        46.406    21236940.691 8  86961723.82208      2895.866 8        49.719    21236941.154 7  86961724.81907      2895.940 7        44.750
G31  21770455.727 7 114404515.26407      3344.485 7        47.938    21770453.607 6  89146371.17206      2606.090 6        38.500    21770454.465 7  89146371.17407      2606.168 7        43.656
G32  23915992.513 6 125679382.72206     -1343.844 6        40.781    23915994.867 4  97931998.93104     -1047.142 4        24.250    23915996.198 6  97931995.93106     -1047.110 6        36.656
> 2022 02 14 14 38 48.0000000  0 10
G02  22461802.230 7 118037572.31607      1077.285 7        46.125    22461800.017 6  91977317.94606       839.440 6        36.156
G06  24005637.277 6 126150476.20506     -1187.941 6        40.563    24005640.309 6  98299081.02306      -925.667 6        38.688    24005641.424 6  98299085.02306      -925.561 6        41.656
G12  21712916.084 7 114102143.86807     -1216.808 7        46.844    21712915.085 8  88910757.32608      -948.166 8        48.094    21712915.793 7  88910742.33207      -948.223 7        43.063
G20  25434446.976 6 133658919.85906      4421.923 6        39.406    25434448.532 2 104149816.19802      3445.657 2        16.594
G22  23138479.817 7 121593533.07407      -170.832 7        43.688    23138479.133 4  94748202.88904      -133.119 4        27.000
G24  25724093.737 6 135181022.94706     -2396.946 6        38.125    25724098.383 4 105335882.60104     -1867.748 4        29.781    25724099.479 5 105335888.61305     -1867.597 5        33.844
G25  19963761.266 8 104910270.80508      1012.128 8        49.000    19963762.590 9  81748267.28509       788.666 9        54.063    19963762.781 8  81748270.28708       788.693 8        48.469
G29  21236233.854 7 111597162.49307      3717.139 7        46.406    21236233.316 8  86958827.24508      2896.465 8        49.813    21236233.757 7  86958828.25507      2896.390 7        44.688
G31  21769819.222 7 114401169.89107      3345.230 7        47.781    21769817.022 6  89143764.38906      2606.667 6        38.594    21769817.854 7  89143764.38607      2606.703 7        43.625
G32  23916248.125 6 125680725.55506     -1342.862 6        40.813    23916250.397 4  97933045.29104     -1046.389 4        24.438    23916251.715 6  97933042.28906     -1046.530 6        36.688
> 2022 02 14 14 38 49.0000000  0 10
G02  22461597.299 7 118036495.50307      1076.256 7        46.031    22461595.100 6  91976478.87106       838.640 6        36.188
G06  24005863.385 6 126151664.36906     -1188.453 6        40.844    24005866.412 6  98300006.86406      -926.060 6        38.750    24005867.431 6  98300010.84706      -926.089 6        41.656
G12  21713147.645 7 114103361.01407     -1217.575 7        46.719    21713146.715 8  88911705.75008      -948.761 8        48.094    21713147.392 7  88911690.74807      -948.687 7        43.094
G20  25433605.540 6 133654498.36106      4421.266 6        39.594    25433607.151 2 104146370.88102      3445.146 2        16.844
G22  23138512.482 7 121593704.25707      -171.708 7        43.781    23138511.749 4  94748336.27904      -133.799 4        27.063
G24  25724549.917 6 135183419.99806     -2397.403 6        38.313    25724554.533 4 105337750.43404     -1868.108 4        29.656    25724555.426 5 105337756.47005     -1868.145 5        33.375
G25  19963568.677 8 104909259.03308      1011.355 8        49.094    19963570.056 9  81747478.89109       788.069 9        54.063    19963570.283 8  81747481.90008       788.026 8        48.438
G29  21235526.510 7 111593445.71107      3716.287 7        46.406    21235526.039 8  86955931.05308      2895.805 8        49.781    21235526.330 7  86955932.05607      2895.896 7        44.594
G31  21769182.645 7 114397825.07007      3344.368 7        47.844    21769180.527 6  89141158.03706      2605.996 6        38.625    21769181.399 7  89141158.03507      2605.937 7        43.781
G32  23916503.880 6 125682068.69606     -1343.614 6        40.719    23916505.977 4  97934091.89404     -1046.974 4        24.156    23916507.159 6  97934088.89006     -1046.863 6        36.531
> 2022 02 14 14 38 50.0000000  0 10
G02  22461392.500 7 118035419.31607      1076.187 7        46.094    22461390.322 6  91975640.28506       838.590 6        36.156
G06  24006089.370 6 126152852.99506     -1188.575 6        40.344    24006092.596 6  98300933.06406      -926.159 6        38.750    24006093.416 6  98300937.05906      -926.127 6        41.875
G12  21713379.383 7 114104578.51907     -1217.303 7        46.594    21713378.412 8  88912654.45508      -948.541 8        48.094    21713379.119 7  88912639.46107      -948.527 7        43.156
G20  25432764.393 6 133650077.05706      4421.672 6        39.719    25432765.847 2 104142925.69802      3445.476 2        16.781
G22  23138544.875 7 121593875.98607      -171.585 7        43.969    23138544.436 4  94748470.09204      -133.706 4        27.125
G24  25725006.095 6 135185817.02406     -2396.540 6        38.250    25725010.666 4 105339618.25004     -1867.431 4        29.563    25725010.774 5 105339624.30105     -1867.876 5        33.719
G25  19963376.201 8 104908247.83008      1011.283 8        49.156    19963377.637 9  81746690.94109       788.019 9        54.063    19963377.858 8  81746693.94808       787.967 8        48.469
G29  21234819.280 7 111589729.44307      3716.454 7        46.438    21234818.857 8  86953035.26108      2895.942 8        49.750    21234819.125 7  86953036.27607      2895.823 7        44.719
G31  21768546.285 7 114394480.82607      3344.437 7        47.688    21768544.152 6  89138552.13406      2606.059 6        38.656    21768545.001 7  89138552.13807      2605.921 7        43.844
G32  23916759.679 6 125683412.16906     -1343.194 6        40.531    23916761.634 4  97935138.75304     -1046.636 4        24.125    23916763.051 6  97935135.78306     -1046.743 6        36.313
> 2022 02 14 14 38 51.0000000  0 10
G02  22461187.886 7 118034344.01707      1076.459 7        45.844    22461185.714 6  91974802.39206       838.800 6        36.125
G06  24006315.619 6 126154042.41506     -1188.251 6        40.688    24006318.927 6  98301859.88206      -925.907 6        38.781    24006319.796 7  98301863.86507      -925.888 7        42.000
G12  21713611.248 7 114105796.64207     -1216.863 7        46.563    21713610.225 8  88913603.64008      -948.202 8        48.094    21713611.142 7  88913588.64007      -948.108 7        43.406
G20  25431923.352 6 133645656.19906      4422.146 6        39.563    25431924.569 2 104139480.84902      3445.838 2        16.625
G22  23138577.804 7 121594048.52907      -171.403 7        43.844    23138577.258 4  94748604.54304      -133.556 4        26.969
G24  25725462.483 6 135188214.32306     -2395.789 6        38.188    25725466.843 4 105341486.27104     -1866.847 4        29.594    25725467.219 5 105341492.28205     -1866.822 5        33.969
G25  19963183.909 8 104907237.45908      1011.569 8        49.094    19963185.375 9  81745903.63909       788.236 9        54.063    19963185.613 8  81745906.64308       788.148 8        48.469
G29  21234112.294 7 111586013.98307      3716.483 7        46.125    21234111.826 8  86950140.09808      2895.963 8        49.719    21234112.182 7  86950141.09707      2896.092 7        44.656
G31  21767910.093 7 114391137.43707      3344.488 7        47.156    21767907.939 6  89135946.89706      2606.098 6        38.625    21767908.661 7  89135946.90607      2606.033 7        43.656
G32  23917015.378 6 125684756.29206     -1342.963 6        40.781    23917017.397 4  97936186.11304     -1046.461 4        24.156    23917018.480 6  97936183.12806     -1046.447 6        36.625
> 2022 02 14 14 38 52.0000000  0 10
G02  22460983.322 7 118033269.29107      1074.559 7        45.750    22460981.204 6  91973964.94306       837.323 6        36.094
G06  24006541.952 6 126155232.22406     -1189.951 6        40.531    24006545.339 6  98302787.00606      -927.231 6        38.813    24006546.374 6  98302791.00506      -927.219 6        41.875
G12  21713843.130 7 114107015.07307     -1218.480 7        46.313    21713842.097 8  88914553.06808      -949.465 8        48.156    21713843.041 7  88914538.08407      -949.531 7        43.469
G20  25431082.198 6 133641235.45806      4420.761 6        39.719    25431083.292 2 104136036.11602      3444.739 2        16.594
G22  23138610.658 7 121594221.58507      -173.133 7        43.688    23138610.156 4  94748739.39004      -134.906 4        26.844
G24  25725918.887 6 135190611.52206     -2397.021 6        38.281    25725923.020 4 105343354.21904     -1867.804 4        29.719    25725923.448 5 105343360.25705     -1867.794 5        33.781
G25  19962991.711 8 104906227.59308      1009.761 8        49.125    19962993.207 9  81745116.73009       786.827 9        54.063    19962993.427 8  81745119.73208       786.815 8        48.438
G29  21233405.195 7 111582298.95807      3714.920 7        46.406    21233404.885 8  86947245.27308      2894.742 8        49.719    21233405.345 7  86947246.27507      2894.775 7        44.844
G31  21767273.796 7 114387794.56907      3342.762 7        46.969    21767271.837 6  89133342.06506      2604.747 6        38.469    21767272.409 7  89133342.08107      2604.630 7        43.438
G32  23917271.180 6 125686100.69006     -1344.417 6        39.875    23917273.236 4  97937233.69904     -1047.596 4        24.156    23917274.198 6  97937230.72706     -1047.747 6        36.031
> 2022 02 14 14 38 53.0000000  0 10
G02  22460779.012 7 118032195.44707      1073.798 7        45.875    22460776.847 6  91973128.18106       836.721 6        36.094
G06  24006768.390 6 126156422.79206     -1190.509 6        40.594    24006771.903 6  98303714.71806      -927.667 6        38.813    24006773.111 6  98303718.72306      -927.725 6        41.813
G12  21714075.254 7 114108234.12207     -1218.907 7        46.094    21714074.094 8  88915502.97608      -949.801 8        48.125    21714074.876 7  88915487.97207      -949.677 7        43.406
G20  25430241.134 6 133636815.17106      4420.514 6        39.469    25430242.211 2 104132591.74802      3444.540 2        16.250
G22  23138643.774 7 121594395.45607      -173.840 7        43.938    23138643.232 4  94748874.87004      -135.456 4        26.906
G24  25726374.922 6 135193008.96906     -2397.168 6        38.781    25726379.232 4 105345222.35704     -1867.924 4        29.813    25726379.355 5 105345228.40705     -1868.140 5        33.719
G25  19962799.724 8 104905218.55508      1009.099 8        49.188    19962801.196 9  81744330.46609       786.309 9        54.063    19962801.462 8  81744333.46508       786.336 8        48.500
G29  21232698.418 7 111578584.71907      3714.288 7        46.406    21232698.091 8  86944351.06308      2894.246 8        49.719    21232698.531 7  86944352.06707      2894.235 7        44.813
G31  21766637.695 7 114384452.55607      3341.986 7        47.000    21766635.883 6  89130737.90206      2604.139 6        38.375    21766636.435 7  89130737.89907      2604.194 7        43.406
G32  23917527.254 6 125687445.70406     -1344.885 6        40.031    23917529.152 4  97938281.76104     -1047.955 4        24.000    23917530.014 6  97938278.78506     -1047.944 6        36.125
> 2022 02 14 14 38 54.0000000  0 10
G02  22460574.871 7 118031122.47607      1073.258 7        45.438    22460572.655 6  91972292.10006       836.307 6        36.125
G06  24006995.138 6 126157614.07406     -1190.896 6        40.594    24006998.583 6  98304642.98406      -927.970 6        38.844    24006999.754 6  98304646.98606      -927.954 6        41.875
G12  21714307.309 7 114109453.75107     -1219.265 7        46.000    21714306.193 8  88916453.33308      -950.076 8        48.063    21714306.855 7  88916438.33507      -950.034 7        43.375
G20  25429400.021 6 133632395.28906      4420.309 6        39.125    25429401.197 2 104129147.70502      3444.377 2        15.875
G22  23138677.228 7 121594570.10107      -174.387 7        43.656    23138676.452 4  94749010.95704      -135.882 4        26.875
G24  25726831.214 6 135195406.62006     -2397.041 6        38.688    25726835.472 4 105347090.65104     -1867.822 4        29.844    25726835.709 5 105347096.70405     -1868.126 5        34.063
G25  19962607.860 8 104904210.31008      1008.617 8        49.031    19962609.336 9  81743544.81909       785.938 9        54.063    19962609.691 8  81743547.81708       785.919 8        48.438
G29  21231991.781 7 111574871.23007      3713.823 7        46.375    21231991.436 8  86941457.43608      2893.886 8        49.750    21231991.955 7  86941458.44607      2893.904 7        44.781
G31  21766001.753 7 114381111.34207      3341.544 7        47.250    21766000.085 6  89128134.36106      2603.809 6        38.313    21766000.590 7  89128134.35307      2603.703 7        43.438
G32  23917783.021 6 125688791.29206     -1345.152 6        40.344    23917785.233 3  97939330.27003     -1048.167 3        23.750    23917786.464 6  97939327.28606     -1048.095 6        36.000
> 2022 02 14 14 38 55.0000000  0 10
G02  22460370.736 7 118030049.87707      1072.970 7        45.250    22460368.534 6  91971456.30706       836.085 6        36.125
G06  24007221.992 6 126158805.58706     -1191.083 6        40.313    24007225.303 6  98305571.43506      -928.116 6        38.906    24007226.353 6  98305575.43506      -928.057 6        41.563
G12  21714539.435 7 114110673.49007     -1219.144 7        45.969    21714538.315 8  88917403.78008      -949.976 8        48.125    21714539.045 7  88917388.78307      -949.910 7        43.469
G20  25428558.807 6 133627975.33106      4420.683 6        39.125    25428560.080 2 104125703.57302      3444.693 2        15.938
G22  23138710.476 7 121594745.04007      -174.402 7        43.656    23138709.743 4  94749147.27504      -135.899 4        26.906
G24  25727287.282 6 135197804.01306     -2396.688 6        38.719    25727291.694 5 105348958.75605     -1867.543 5        30.031    25727292.384 5 105348964.78905     -1867.687 5        33.563
G25  19962415.957 8 104903202.37808      1008.399 8        49.094    19962417.535 9  81742759.41609       785.770 9        54.125    19962417.882 8  81742762.41808       785.751 8        48.406
G29  21231285.126 7 111571158.00407      3713.771 7        46.469    21231284.835 8  86938564.01408      2893.845 8        49.781    21231285.360 7  86938565.03307      2893.780 7        44.875
G31  21765366.003 7 114377770.45407      3341.362 7        47.156    21765364.341 6  89125531.07006      2603.663 6        38.375    21765364.881 7  89125531.07007      2603.663 7        43.594
G32  23918039.221 6 125690136.99906     -1345.159 6        40.438    23918041.314 3  97940378.87403     -1048.170 3        23.719    23918042.480 5  97940375.87605     -1048.013 5        35.969
> 2022 02 14 14 38 56.0000000  0 10
G02  22460166.734 7 118028977.47107      1072.460 7        45.313    22460164.445 6  91970620.66706       835.691 6        36.125
G06  24007448.696 6 126159997.15606     -1191.577 6        40.281    24007452.041 6  98306499.93406      -928.503 6        38.875    24007453.097 6  98306503.92706      -928.425 6        41.688
G12  21714771.493 7 114111893.14707     -1219.463 7        45.906    21714770.424 8  88918354.16008      -950.225 8        48.219    21714771.071 7  88918339.17507      -950.291 7        43.594
G20  25427718.002 6 133623555.14406      4420.541 6        38.656    25427718.838 2 104122259.26402      3444.598 2        15.844
G22  23138743.740 7 121594920.10907      -175.034 7        43.500    23138743.048 4  94749283.69104      -136.395 4        26.969
G24  25727743.400 6 135200200.93006     -2396.529 6        38.656    25727747.822 5 105350826.48105     -1867.419 5        30.125    25727748.731 5 105350832.51305     -1867.480 5        33.688
G25  19962224.146 8 104902194.57508      1007.878 8        49.219    19962225.756 9  81741974.11609       785.362 9        54.188    19962226.088 8  81741977.12008       785.409 8        48.438
G29  21230578.688 7 111567444.87407      3713.278 7        46.469    21230578.256 8  86935670.66708      2893.467 8        49.813    21230578.846 7  86935671.67807      2893.443 7        44.906
G31  21764730.279 7 114374429.71707      3340.833 7        47.156    21764728.624 6  89122927.89606      2603.249 6        38.438    21764729.085 7  89122927.89707      2603.204 7        43.625
G32  23918294.978 6 125691482.60506     -1345.434 6        40.781    23918297.350 3  97941427.39503     -1048.388 3        23.844    23918298.386 6  97941424.39406     -1048.403 6        36.344
> 2022 02 14 14 38 57.0000000  0 10
G02  22459962.845 7 118027905.60307      1071.203 7        45.344    22459960.476 6  91969785.44506       834.703 6        36.094
G06  24007675.472 6 126161189.11206     -1192.718 6        40.375    24007678.859 6  98307428.73006      -929.388 6        38.844    24007679.950 6  98307432.73706      -929.336 6        41.500
G12  21715003.605 7 114113113.08807     -1220.487 7        45.938    21715002.586 8  88919304.76108      -951.026 8        48.219    21715003.126 7  88919289.76307      -951.104 7        43.656
G20  25426876.694 6 133619135.04606      4419.562 6        38.719    25426877.681 2 104118815.03702      3443.818 2        15.781
G22  23138777.217 7 121595095.63207      -176.255 7        43.875    23138776.469 4  94749420.46204      -137.340 4        27.094
G24  25728199.600 6 135202597.76206     -2397.113 6        38.500    25728203.914 5 105352694.14005     -1867.880 5        30.094    25728204.983 5 105352700.15105     -1867.958 5        34.031
G25  19962032.428 8 104901187.25508      1006.636 8        49.375    19962034.076 9  81741189.19309       784.392 9        54.219    19962034.352 8  81741192.19008       784.384 8        48.250
G29  21229872.267 7 111563732.16907      3712.053 7        46.375    21229871.757 8  86932777.65308      2892.510 8        49.781    21229872.480 7  86932778.66907      2892.385 7        44.906
G31  21764094.613 7 114371089.47607      3339.467 7        47.281    21764093.001 6  89120325.11206      2602.183 6        38.406    21764093.509 7  89120325.12407      2602.224 7        43.750
G32  23918551.197 6 125692828.48506     -1346.412 6        40.875    23918553.448 3  97942476.12203     -1049.143 3        23.781    23918554.312 6  97942473.13906     -1049.355 6        36.875
> 2022 02 14 14 38 58.0000000  0 10
G02  22459759.222 7 118026834.68207      1070.483 7        45.188    22459756.700 6  91968950.96506       834.143 6        36.063
G06  24007902.601 6 126162381.90106     -1193.197 6        40.281    24007905.843 6  98308358.17406      -929.769 6        38.781    24007907.001 6  98308362.17106      -929.791 6        41.563
G12  21715235.853 7 114114333.70007     -1221.079 7        45.406    21715234.878 8  88920255.88808      -951.489 8        48.219    21715235.409 7  88920240.88607      -951.406 7        43.938
G20  25426035.377 6 133614715.46206      4419.421 6        38.469    25426036.654 2 104115371.20302      3443.704 2        15.750
G22  23138810.829 7 121595272.03207      -176.744 7        43.906    23138810.073 4  94749557.91704      -137.723 4        27.219
G24  25728655.959 6 135204994.89306     -2397.306 6        38.313    25728660.069 5 105354562.03405     -1868.030 5        30.031    25728661.305 5 105354568.07105     -1868.035 5        33.875
G25  19961840.809 8 104900180.82008      1006.045 8        49.500    19961842.556 9  81740404.96009       783.927 9        54.250    19961842.778 8  81740407.95908       783.901 8        48.313
G29  21229166.049 7 111560020.31407      3711.342 7        46.563    21229165.416 8  86929885.29908      2891.950 8        49.813    21229166.117 7  86929886.30107      2892.052 7        44.938
G31  21763459.111 7 114367750.16407      3338.816 7        47.688    21763457.552 6  89117723.05306      2601.670 6        38.531    21763458.125 7  89117723.05407      2601.711 7        44.031
G32  23918807.387 6 125694175.05506     -1346.921 6        40.938    23918809.695 3  97943525.39803     -1049.554 3        23.781    23918810.307 6  97943522.38906     -1049.594 6        36.719
> 2022 02 14 14 38 59.0000000  0 10
G02  22459555.683 7 118025764.39107      1069.778 7        45.125    22459553.035 6  91968116.97006       833.594 6        36.094
G06  24008129.713 6 126163575.14306     -1193.537 6        40.500    24008132.912 6  98309287.97206      -930.028 6        38.813    24008133.915 6  98309291.97606      -930.133 6        41.469
G12  21715468.345 7 114115554.66207     -1221.286 7        45.281    21715467.232 8  88921207.28408      -951.654 8        48.250    21715467.712 7  88921192.29507      -951.653 7        44.031
G20  25425194.364 6 133610296.05806      4419.189 6        38.156    25425195.703 2 104111927.51402      3443.501 2        15.750
G22  23138844.593 7 121595449.00007      -177.350 7        43.781    23138843.789 4  94749695.81104      -138.195 4        27.344
G24  25729112.168 6 135207392.00806     -2397.401 6        38.281    25729116.232 5 105356429.91005     -1868.098 5        30.000    25729117.706 5 105356435.93905     -1867.921 5        33.469
G25  19961649.411 8 104899174.95208      1005.404 8        49.469    19961651.148 9  81739621.16709       783.432 9        54.281    19961651.411 8  81739624.16508       783.451 8        48.344
G29  21228459.937 7 111556308.97807      3710.916 7        46.469    21228459.167 8  86926993.35008      2891.623 8        49.844    21228459.747 7  86926994.35907      2891.532 7        45.125
G31  21762823.869 7 114364411.40707      3338.375 7        47.781    21762822.219 6  89115121.42506      2601.325 6        38.688    21762822.875 7  89115121.43207      2601.332 7        44.188
G32  23919063.851 6 125695521.93306     -1347.168 6        40.625    23919066.053 3  97944574.92103     -1049.755 3        23.750    23919066.841 6  97944571.90906     -1049.770 6        36.938
> 2022 02 14 14 39  0.0000000  0 10
G02  22459352.130 7 118024694.67607      1069.105 7        44.875    22459349.460 6  91967283.42806       833.071 6        36.094
G06  24008356.840 6 126164768.84606     -1194.166 6        40.406    24008360.066 6  98310218.13306      -930.520 6        38.750    24008360.999 6  98310222.13106      -930.635 6        41.719
G12  21715700.810 7 114116775.94907     -1221.721 7        45.250    21715699.654 8  88922158.93708      -951.989 8        48.219    21715700.178 7  88922143.94107      -952.026 7        44.094
G20  25424353.406 6 133605876.80606      4418.859 6        38.375    25424354.685 2 104108483.94602      3443.251 2        15.500
G22  23138878.277 7 121595626.47207      -178.047 7        43.781    23138877.599 4  94749834.09504      -138.742 4        27.375
G24  25729568.241 6 135209789.04006     -2397.226 6        38.188    25729572.382 4 105358297.73004     -1867.969 4        29.938    25729573.300 5 105358303.77805     -1867.953 5        33.500
G25  19961458.131 8 104898169.60108      1004.813 8        49.563    19961459.839 9  81738837.77609       782.972 9        54.281    19961460.151 8  81738840.78108       782.952 8        48.406
G29  21227753.865 7 111552598.10607      3710.384 7        46.500    21227753.009 8  86924101.76208      2891.208 8        49.844    21227753.678 7  86924102.77007      2891.230 7        45.156
G31  21762188.716 7 114361073.19807      3337.634 7        47.844    21762186.999 6  89112520.22206      2600.753 6        38.781    21762187.683 7  89112520.22707      2600.802 7        44.156
G32  23919320.047 6 125696869.15806     -1347.775 6        41.063    23919322.407 3  97945624.70903     -1050.215 3        23.750    23919323.505 6  97945621.69906     -1050.095 6        37.125
> 2022 02 14 14 39  1.0000000  0 10
G02  22459148.804 7 118023625.56507      1068.885 7        45.063    22459146.006 6  91966450.35406       832.895 6        36.094
G06  24008584.200 6 126165962.98606     -1194.318 6        40.281    24008587.310 6  98311148.63006      -930.633 6        38.688    24008588.294 6  98311152.63406      -930.750 6        41.531
G12  21715933.290 7 114117997.55907     -1221.701 7        45.156    21715932.142 8  88923110.84408      -951.977 8        48.219    21715932.585 7  88923095.84107      -951.940 7        44.156
G20  25423512.704 6 133601457.72706      4419.039 6        38.219    25423513.809 2 104105040.51602      3443.378 2        15.844
G22  23138912.118 7 121595804.46307      -178.210 7        43.531    23138911.481 4  94749972.78804      -138.864 4        27.406
G24  25730024.290 6 135212186.04606     -2396.915 6        38.031    25730028.506 4 105360165.52504     -1867.728 4        29.656    25730029.255 5 105360171.55405     -1867.906 5        33.281
G25  19961266.952 8 104897164.77508      1004.642 8        49.656    19961268.628 9  81738054.79509       782.835 9        54.250    19961268.994 8  81738057.79608       782.902 8        48.281
G29  21227047.830 7 111548887.72507      3710.197 7        46.531    21227046.944 8  86921210.55708      2891.058 8        49.813    21227047.626 7  86921211.56607      2891.051 7        45.125
G31  21761553.756 7 114357735.54107      3337.488 7        47.969    21761551.881 6  89109919.44906      2600.640 6        38.844    21761552.474 7  89109919.45907      2600.622 7        44.188
G32  23919576.437 6 125698216.67906     -1347.516 6        41.094    23919578.823 4  97946674.72904     -1050.013 4        24.031    23919580.124 6  97946671.72806     -1050.188 6        37.219
> 2022 02 14 14 39  2.0000000  0 10
G02  22458945.320 7 118022556.76707      1068.232 7        45.094    22458942.632 6  91965617.52406       832.389 6        36.063
G06  24008811.251 6 126167157.31906     -1194.871 6        40.406    24008814.598 6  98312079.27706      -931.065 6        38.594    24008815.561 6  98312083.26606      -930.939 6        41.406
G12  21716165.870 7 114119219.21307     -1222.154 7        44.969    21716164.631 8  88924062.78208      -952.330 8        48.188    21716165.093 7  88924047.77907      -952.277 7        44.125
G20  25422671.920 6 133597038.48806      4418.985 6        38.344    25422672.840 2 104101596.95502      3443.352 2        15.500
G22  23138945.989 7 121595982.69607      -178.770 7        43.313    23138945.407 4  94750111.67304      -139.295 4        27.188
G24  25730480.185 6 135214582.70806     -2396.842 6        38.281    25730484.558 4 105362033.05404     -1867.671 4        29.469    25730485.297 5 105362039.07205     -1867.603 5        32.906
G25  19961075.877 8 104896160.22508      1003.978 8        49.688    19961077.466 9  81737272.03009       782.318 9        54.219    19961077.875 8  81737275.03108       782.306 8        48.344
G29  21226341.834 7 111545177.56207      3709.616 7        46.438    21226340.929 8  86918319.52308      2890.609 8        49.750    21226341.578 7  86918320.52307      2890.609 7        45.156
G31  21760918.706 8 114354398.15608      3336.812 8        48.063    21760916.812 6  89107318.89106      2600.110 6        38.844    21760917.439 7  89107318.89307      2600.077 7        44.125
G32  23919832.842 6 125699564.26106     -1348.027 6        41.250    23919835.364 3  97947724.79203     -1050.418 3        23.813    23919836.925 6  97947721.77706     -1050.205 6        36.875
> 2022 02 14 14 39  3.0000000  0 10
G02  22458741.956 7 118021488.58407      1068.050 7        45.094    22458739.379 5  91964785.17505       832.247 5        35.969
G06  24009038.780 6 126168352.09406     -1194.661 6        40.563    24009041.966 6  98313010.26506      -930.901 6        38.594    24009042.893 6  98313014.26706      -930.979 6        41.625
G12  21716398.410 7 114120441.20907     -1222.041 7        44.938    21716397.195 8  88925014.98608      -952.239 8        48.156    21716397.682 7  88924999.98307      -952.221 7        44.281
G20  25421830.965 6 133592619.43406      4419.166 6        38.375    25421831.929 2 104098153.53502      3443.500 2        15.281
G22  23138980.012 7 121596161.47107      -178.955 7        43.000    23138979.449 4  94750250.97504      -139.444 4        27.094
G24  25730936.238 6 135216979.33606     -2396.473 6        38.563    25730940.614 4 105363900.55304     -1867.385 4        29.281    25730941.433 5 105363906.58305     -1867.127 5        33.125
G25  19960884.843 8 104895156.21308      1003.910 8        49.656    19960886.416 9  81736489.68209       782.268 9        54.156    19960886.813 8  81736492.68708       782.247 8        48.281
G29  21225635.927 7 111541467.89607      3709.499 7        46.438    21225635.002 8  86915428.87508      2890.515 8        49.688    21225635.603 7  86915429.87607      2890.590 7        45.250
G31  21760283.742 8 114351061.34008      3336.669 8        48.094    21760281.855 6  89104718.77706      2600.000 6        38.875    21760282.417 7  89104718.77607      2600.018 7        44.125
G32  23920089.370 6 125700912.15906     -1347.937 6        41.313    23920091.937 3  97948775.10203     -1050.326 3        23.750    23920093.099 6  97948772.10406     -1050.331 6        36.813
> 2022 02 14 14 39  4.0000000  0 10
G02  22458538.925 7 118020420.86707      1067.678 7        45.250    22458536.202 6  91963953.18506       831.960 6        36.000
G06  24009266.217 6 126169547.21606     -1195.156 6        40.531    24009269.389 6  98313941.52706      -931.290 6        38.625    24009270.179 6  98313945.51706      -931.315 6        41.719
G12  21716631.173 7 114121663.40907     -1222.108 7        44.844    21716629.791 8  88925967.34408      -952.292 8        48.125    21716630.229 7  88925952.34707      -952.306 7        44.219
G20  25420989.883 6 133588200.42906      4419.081 6        38.469    25420991.059 2 104094710.16702      3443.427 2        15.031
G22  23139014.078 7 121596340.62707      -179.240 7        42.969    23139013.554 4  94750390.57904      -139.674 4        27.063
G24  25731392.008 6 135219375.77906     -2396.213 6        38.563    25731396.621 4 105365767.91204     -1867.176 4        29.188    25731397.191 5 105365773.93605     -1867.260 5        32.906
G25  19960694.003 8 104894152.60808      1003.601 8        49.719    19960695.437 9  81735707.65109       782.024 9        54.188    19960695.737 8  81735710.65208       782.019 8        48.281
G29  21224929.993 7 111537758.59007      3709.293 7        46.656    21224929.152 8  86912538.50708      2890.358 8        49.688    21224929.641 7  86912539.50707      2890.339 7        45.188
G31  21759648.946 8 114347724.93608      3336.361 8        48.094    21759646.978 6  89102118.98006      2599.760 6        38.875    21759647.483 7  89102118.98307      2599.788 7        44.156
G32  23920345.945 6 125702260.27006     -1348.080 6        41.156    23920348.519 3  97949825.57003     -1050.449 3        23.688    23920349.649 6  97949822.56706     -1050.463 6        37.031
> 2022 02 14 14 39  5.0000000  0 10
G02  22458336.031 7 118019354.08407      1066.114 7        45.500    22458333.212 6  91963121.92506       830.739 6        36.031
G06  24009493.939 6 126170743.13006     -1196.616 6        40.625    24009496.959 6  98314873.40506      -932.425 6        38.656    24009497.700 6  98314877.41106      -932.399 6        41.594
G12  21716863.878 7 114122886.27107     -1223.295 7        44.938    21716862.517 8  88926920.22308      -953.212 8        48.125    21716862.939 7  88926905.21907      -953.171 7        44.156
G20  25420148.939 6 133583781.88306      4418.207 6        38.438    25420150.242 2 104091267.14702      3442.763 2        15.031
G22  23139048.193 7 121596520.65507      -180.648 7        42.813    23139047.816 4  94750530.86004      -140.755 4        27.000
G24  25731848.348 6 135221772.54106     -2397.070 6        38.375    25731852.673 4 105367635.51704     -1867.846 4        29.125    25731853.175 5 105367641.54005     -1867.992 5        32.719
G25  19960503.048 8 104893149.87108      1002.114 8        49.750    19960504.620 9  81734926.29709       780.869 9        54.188    19960504.884 8  81734929.30008       780.864 8        48.188
G29  21224224.276 7 111534050.11107      3707.890 7        46.438    21224223.450 8  86909648.78508      2889.266 8        49.688    21224223.891 7  86909649.78707      2889.240 7        45.063
G31  21759014.249 8 114344389.43008      3334.919 8        48.125    21759012.258 6  89099519.88506      2598.638 6        38.969    21759012.668 7  89099519.89307      2598.525 7        44.125
G32  23920602.680 6 125703609.02306     -1349.218 6        41.156    23920605.279 3  97950876.54403     -1051.334 3        23.938    23920606.481 6  97950873.52806     -1051.158 6        37.031
> 2022 02 14 14 39  6.0000000  0 10
G02  22458133.186 7 118018287.50907      1066.065 7        45.469    22458130.268 5  91962290.82705       830.696 5        35.906
G06  24009721.519 6 126171939.07506     -1196.479 6        40.781    24009724.537 6  98315805.31406      -932.334 6        38.625    24009725.300 6  98315809.32606      -932.364 6        41.656
G12  21717096.578 7 114124109.06907     -1223.152 7        44.906    21717095.229 8  88927873.05108      -953.107 8        48.063    21717095.568 7  88927858.04107      -953.181 7        44.156
G20  25419308.083 6 133579363.11406      4418.411 6        38.375    25419309.371 2 104087823.93702      3442.949 2        15.031
G22  23139082.470 7 121596700.79207      -180.661 7        42.875    23139082.113 4  94750671.22604      -140.780 4        26.844
G24  25732304.406 6 135224168.81606     -2396.503 6        38.344    25732308.684 4 105369502.74304     -1867.404 4        28.813    25732308.912 5 105369508.78005     -1867.025 5        32.063
G25  19960312.212 8 104892147.26308      1002.140 8        49.750    19960313.825 9  81734145.04509       780.883 9        54.125    19960314.116 8  81734148.04308       780.948 8        48.156
G29  21223518.503 7 111530341.71207      3707.985 7        46.500    21223517.765 8  86906759.12508      2889.331 8        49.625    21223518.219 7  86906760.13907      2889.297 7        45.063
G31  21758379.511 7 114341054.07307      3334.861 7        47.875    21758377.574 6  89096920.90706      2598.592 6        38.938    21758377.900 7  89096920.91407      2598.604 7        44.219
G32  23920859.292 6 125704957.69106     -1349.066 6        41.219    23920861.959 3  97951927.44903     -1051.216 3        23.906    23920862.965 6  97951924.45506     -1051.186 6        37.031
> 2022 02 14 14 39  7.0000000  0 10
G02  22457930.336 7 118017221.86407      1064.822 7        45.531    22457927.489 5  91961460.45605       829.728 5        35.906
G06  24009949.209 6 126173135.82206     -1197.522 6        40.938    24009952.277 6  98316737.84706      -933.135 6        38.656    24009953.046 6  98316741.85606      -933.123 6        41.469
G12  21717329.478 7 114125332.51707     -1224.158 7        45.031    21717328.058 8  88928826.38608      -953.888 8        48.063    21717328.328 7  88928811.38307      -953.898 7        44.156
G20  25418467.164 6 133574944.82106      4417.706 6        38.313    25418468.590 2 104084381.10002      3442.368 2        15.031
G22  23139116.815 7 121596881.79207      -181.800 7        42.938    23139116.540 4  94750812.26804      -141.664 4        26.906
G24  25732760.548 6 135226565.40006     -2397.209 6        38.125    25732764.727 4 105371370.21204     -1867.952 4        28.750    25732765.021 5 105371376.23905     -1868.007 5        32.875
G25  19960121.542 8 104891145.53008      1000.912 8        49.844    19960123.199 9  81733364.47309       779.931 9        54.125    19960123.523 8  81733367.47908       779.903 8        48.063
G29  21222813.059 7 111526634.15407      3706.871 7        46.406    21222812.242 8  86903870.11908      2888.468 8        49.594    21222812.790 7  86903871.12707      2888.468 7        45.094
G31  21757744.965 8 114337719.61708      3333.623 8        48.031    21757743.078 6  89094322.63306      2597.623 6        39.031    21757743.246 7  89094322.62907      2597.716 7        44.156
G32  23921116.041 6 125706307.04006     -1350.097 6        41.406    23921118.756 3  97952978.88803     -1052.017 3        23.875    23921119.776 6  97952975.88906     -1051.956 6        36.969
> 2022 02 14 14 39  8.0000000  0 10
G02  22457727.695 7 118016156.69907      1065.196 7        45.750    22457724.804 5  91960630.45805       830.024 5        35.875
G06  24010176.945 6 126174332.90806     -1196.961 6        40.688    24010180.070 6  98317670.64306      -932.698 6        38.688    24010180.917 6  98317674.65806      -932.731 6        41.281
G12  21717562.405 7 114126556.18407     -1223.444 7        45.156    21717560.931 8  88929779.89108      -953.334 8        48.094    21717561.205 7  88929764.89607      -953.498 7        44.281
G20  25417626.190 6 133570526.58206      4418.464 6        38.406    25417627.723 2 104080938.32502      3442.939 2        14.781
G22  23139151.152 7 121597063.21007      -181.384 7        42.969    23139151.057 4  94750953.62804      -141.341 4        26.906
G24  25733216.593 6 135228961.81606     -2396.349 6        38.000    25733220.721 4 105373237.54804     -1867.280 4        28.750    25733220.455 5 105373243.55005     -1867.008 5        32.781
G25  19959931.034 8 104890144.23408      1001.365 8        49.813    19959932.654 9  81732584.24109       780.283 9        54.156    19959933.022 8  81732587.24408       780.307 8        48.031
G29  21222107.567 7 111522926.98207      3707.220 7        46.344    21222106.794 8  86900981.41308      2888.740 8        49.594    21222107.255 7  86900982.42407      2888.758 7        45.063
G31  21757110.475 8 114334385.58508      3334.074 8        48.031    21757108.648 6  89091724.68706      2597.975 6        39.063    21757108.691 7  89091724.69507      2597.887 7        44.156
G32  23921372.861 6 125707656.57506     -1349.452 6        41.688    23921375.557 3  97954030.46703     -1051.510 3        23.875    23921376.597 6  97954027.46606     -1051.460 6        37.094
> 2022 02 14 14 39  9.0000000  0 10
G02  22457525.267 7 118015092.47607      1063.327 7        45.938    22457522.302 5  91959801.19605       828.564 5        35.969
G06  24010404.743 6 126175530.79606     -1198.622 6        40.688    24010408.025 6  98318604.06206      -933.992 6        38.750    24010408.754 6  98318608.07206      -934.138 6        41.469
G12  21717795.348 7 114127780.54507     -1225.142 7        45.313    21717793.934 8  88930733.94208      -954.655 8        48.156    21717794.030 7  88930718.93907      -954.671 7        44.219
G20  25416785.459 6 133566108.81606      4417.175 6        38.906    25416787.081 2 104077495.90402      3441.960 2        14.688
G22  23139185.833 7 121597245.48107      -183.028 7        42.688    23139185.743 4  94751095.65804      -142.619 4        26.969
G24  25733672.698 6 135231358.50106     -2397.265 6        37.781    25733676.791 4 105375105.09204     -1867.988 4        28.813    25733677.046 5 105375111.10305     -1867.591 5        33.531
G25  19959740.643 8 104889143.79908       999.662 8        49.688    19959742.275 9  81731804.68209       778.955 9        54.188    19959742.570 8  81731807.68108       778.929 8        48.000
G29  21221402.200 7 111519220.64107      3705.514 7        46.406    21221401.498 8  86898093.35608      2887.411 8        49.656    21221401.876 7  86898094.36307      2887.395 7        45.031
G31  21756476.116 8 114331052.46808      3332.224 8        48.063    21756474.394 6  89089127.45506      2596.537 6        39.125    21756474.429 7  89089127.46107      2596.542 7        44.156
G32  23921629.781 6 125709006.78206     -1351.010 6        41.406    23921632.492 4  97955082.57104     -1052.738 4        24.000    23921633.442 6  97955079.57506     -1052.817 6        37.031
> 2022 02 14 14 39 10.0000000  0 10
G02  22457322.872 7 118014028.62207      1063.230 7        45.906    22457319.862 6  91958972.21606       828.489 6        36.063
G06  24010632.771 6 126176728.92306     -1198.764 6        40.781    24010636.033 6  98319537.66506      -934.110 6        38.813    24010636.762 6  98319541.67806      -934.147 6        41.188
G12  21718028.319 7 114129004.99307     -1224.930 7        45.563    21718026.954 8  88931688.05608      -954.491 8        48.219    21718027.038 7  88931673.06107      -954.535 7        44.281
G20  25415945.066 6 133561691.00206      4417.433 6        39.094    25415946.384 2 104074053.45102      3442.148 2        14.469
G22  23139220.757 7 121597428.05907      -183.065 7        42.969    23139220.492 4  94751237.92004      -142.652 4        27.156
G24  25734128.763 6 135233754.92606     -2396.844 6        37.938    25734132.802 4 105376972.43404     -1867.672 4        29.000    25734133.143 5 105376978.46405     -1867.693 5        33.500
G25  19959550.339 8 104888143.67508       999.529 8        49.563    19959551.954 9  81731025.36409       778.851 9        54.219    19959552.352 7  81731028.36307       778.909 7        47.969
G29  21220696.844 7 111515514.55207      3705.562 7        46.625    21220696.247 8  86895205.49308      2887.446 8        49.719    21220696.731 7  86895206.49307      2887.513 7        45.031
G31  21755841.852 8 114327719.65808      3332.183 8        48.000    21755840.201 6  89086530.45906      2596.500 6        39.219    21755840.273 7  89086530.46307      2596.528 7        44.125
G32  23921886.653 6 125710357.07406     -1350.880 6        41.125    23921889.458 3  97956134.75303     -1052.631 3        23.844    23921890.433 6  97956131.74406     -1052.464 6        37.219
> 2022 02 14 14 39 11.0000000  0 10
G02  22457120.564 7 118012965.37807      1062.637 7        46.063    22457117.539 6  91958143.71306       828.030 6        36.031
G06  24010860.939 6 126177927.49906     -1199.228 6        40.344    24010864.135 6  98320471.62306      -934.461 6        38.781    24010864.981 6  98320475.62006      -934.382 6        41.156
G12  21718261.372 7 114130229.79007     -1225.175 7        45.656    21718260.038 8  88932642.44308      -954.678 8        48.250    21718260.147 7  88932627.43407      -954.655 7        44.313
G20  25415104.623 6 133557273.35706      4417.458 6        39.313    25415105.683 2 104070611.11202      3442.165 2        15.188
G22  23139255.668 7 121597611.16107      -183.512 7        42.875    23139255.317 4  94751380.59504      -142.994 4        27.094
G24  25734584.763 6 135236151.31006     -2396.699 6        38.438    25734588.827 4 105378839.74404     -1867.557 4        29.250    25734589.545 5 105378845.77605     -1867.482 5        34.219
G25  19959360.102 8 104887144.11108       999.004 8        49.531    19959361.736 9  81730246.48409       778.445 9        54.188    19959362.075 7  81730249.49207       778.458 7        47.906
G29  21219991.705 7 111511808.97707      3705.110 7        46.625    21219991.099 8  86892318.03408      2887.100 8        49.719    21219991.525 7  86892319.03607      2887.108 7        45.125
G31  21755207.668 8 114324387.42808      3331.655 8        48.156    21755206.112 6  89083933.91906      2596.095 6        39.219    21755206.293 7  89083933.92507      2596.146 7        44.156
G32  23922143.610 6 125711707.70006     -1350.997 6        41.125    23922146.500 3  97957187.17503     -1052.702 3        23.688    23922147.440 6  97957184.18206     -1052.646 6        37.406
> 2022 02 14 14 39 12.0000000  0 10
G02  22456918.238 7 118011902.64407      1062.737 7        46.125    22456915.319 5  91957315.60905       828.107 5        35.969
G06  24011089.085 6 126179126.44606     -1199.002 6        40.563    24011092.290 6  98321405.86306      -934.280 6        38.719    24011092.911 6  98321409.84706      -934.116 6        41.250
G12  21718494.558 7 114131454.80207     -1224.896 7        45.750    21718493.166 8  88933596.99608      -954.462 8        48.219    21718493.292 7  88933581.99607      -954.477 7        44.344
G20  25414264.220 6 133552855.79206      4417.805 6        39.469    25414265.054 2 104067168.85602      3442.445 2        14.844
G22  23139290.647 7 121597794.70007      -183.509 7        42.781    23139290.214 4  94751523.60904      -142.992 4        27.125
G24  25735040.603 6 135238547.55606     -2396.000 6        38.500    25735044.848 4 105380706.95004     -1867.011 4        29.406    25735045.689 5 105380712.97105     -1867.147 5        34.188
G25  19959169.957 8 104886144.97608       999.081 8        49.344    19959171.602 9  81729467.93809       778.506 9        54.156    19959171.968 7  81729470.93707       778.483 7        47.938
G29  21219286.615 7 111508103.79607      3705.227 7        46.500    21219286.027 8  86889430.88008      2887.190 8        49.688    21219286.596 7  86889431.88407      2887.204 7        45.094
G31  21754573.702 8 114321055.65408      3331.779 8        48.031    21754572.112 6  89081337.73306      2596.193 6        39.250    21754572.278 7  89081337.73307      2596.216 7        44.313
G32  23922400.754 6 125713058.53406     -1350.672 6        41.000    23922403.533 3  97958239.77103     -1052.467 3        23.594    23922404.542 6  97958236.78606     -1052.462 6        37.719
> 2022 02 14 14 39 13.0000000  0 10
G02  22456716.110 7 118010840.53207      1061.562 7        46.094    22456713.215 6  91956487.99106       827.191 6        36.000
G06  24011317.301 6 126180325.85306     -1199.957 6        40.375    24011320.522 6  98322340.46606      -935.027 6        38.719    24011320.928 6  98322344.46906      -935.057 6        41.188
G12  21718727.766 7 114132680.18007     -1225.775 7        45.813    21718726.361 8  88934551.83508      -955.147 8        48.219    21718726.481 7  88934536.83707      -955.114 7        44.438
G20  25413423.425 6 133548438.40506      4416.933 6        39.281    25413424.461 2 104063726.72102      3441.742 2        14.500
G22  23139325.612 7 121597978.77907      -184.634 7        42.906    23139325.244 4  94751667.04904      -143.870 4        27.063
G24  25735496.720 6 135240943.76906     -2396.363 6        38.281    25735500.846 4 105382574.12704     -1867.293 4        29.531    25735501.483 5 105382580.15305     -1867.484 5        33.969
G25  19958979.900 8 104885146.40208       998.058 8        49.219    19958981.576 9  81728689.82809       777.711 9        54.125    19958981.979 7  81728692.83907       777.682 7        47.813
G29  21218581.754 7 111504399.13107      3704.209 7        46.500    21218581.054 8  86886544.12808      2886.400 8        49.688    21218581.756 7  86886545.13507      2886.379 7        45.250
G31  21753939.802 7 114317724.46807      3330.657 7        47.875    21753938.214 6  89078742.00306      2595.319 6        39.250    21753938.406 7  89078742.00607      2595.344 7        44.250
G32  23922657.941 6 125714409.74506     -1351.623 6        40.750    23922660.629 3  97959292.65803     -1053.188 3        23.688    23922661.623 6  97959289.66506     -1053.338 6        37.688
> 2022 02 14 14 39 14.0000000  0 10
G02  22456514.108 7 118009778.94807      1060.742 7        46.094    22456511.192 5  91955660.78505       826.544 5        35.969
G06  24011545.617 6 126181525.64806     -1200.447 6        40.531    24011548.830 6  98323275.36506      -935.414 6        38.750    24011549.360 6  98323279.35706      -935.482 6        41.313
G12  21718961.088 7 114133905.79507     -1226.268 7        45.750    21718959.596 8  88935506.85908      -955.537 8        48.250    21718959.802 7  88935491.86107      -955.615 7        44.469
G20  25412582.828 6 133544021.08806      4416.838 6        39.406    25412583.849 2 104060284.66902      3441.702 2        15.313
G22  23139360.941 7 121598163.29107      -185.231 7        43.094    23139360.356 4  94751810.82204      -144.342 4        26.969
G24  25735952.645 6 135243339.86606     -2396.543 6        38.438    25735956.822 4 105384441.21004     -1867.431 4        29.625    25735957.649 5 105384447.24505     -1867.516 5        33.688
G25  19958789.958 8 104884148.29208       997.256 8        49.281    19958791.635 9  81727912.08109       777.077 9        54.125    19958792.017 7  81727915.08107       777.184 7        47.906
G29  21217876.964 7 111500694.87307      3703.539 7        46.500    21217876.165 8  86883657.69408      2885.866 8        49.688    21217876.759 7  86883658.69607      2885.806 7        45.313
G31  21753306.030 7 114314393.74407      3329.948 7        47.875    21753304.416 6  89076146.63406      2594.758 6        39.281    21753304.653 7  89076146.64007      2594.719 7        44.219
G32  23922914.993 6 125715761.17306     -1352.100 6        40.563    23922917.828 3  97960345.71103     -1053.585 3        23.719    23922918.791 6  97960342.72306     -1053.663 6        37.844
> 2022 02 14 14 39 15.0000000  0 10
G02  22456312.044 7 118008717.80607      1061.152 7        46.188    22456309.267 5  91954833.92405       826.871 5        35.906
G06  24011773.864 6 126182725.74706     -1199.679 6        40.531    24011777.195 6  98324210.50206      -934.812 6        38.750    24011777.653 6  98324214.50306      -935.009 6        41.094
G12  21719194.363 7 114135131.58907     -1225.605 7        46.000    21719192.867 8  88936462.02408      -955.017 8        48.219    21719193.068 7  88936447.02407      -955.022 7        44.500
G20  25411742.078 6 133539603.79106      4417.542 6        39.531    25411743.251 2 104056842.61402      3442.241 2        15.469
G22  23139396.242 7 121598348.20807      -184.833 7        42.969    23139395.556 4  94751954.91004      -144.024 4        26.906
G24  25736408.638 6 135245735.77106     -2395.548 6        38.094    25736412.762 4 105386308.14804     -1866.655 4        29.625    25736413.859 5 105386314.17105     -1866.563 5        34.063
G25  19958599.997 8 104883150.56008       997.828 8        49.313    19958601.765 9  81727134.62709       777.528 9        54.094    19958602.177 7  81727137.63407       777.497 7        47.750
G29  21217172.244 7 111496990.96707      3703.941 7        46.594    21217171.339 8  86880771.53308      2886.188 8        49.656    21217171.819 7  86880772.53707      2886.201 7        45.094
G31  21752672.335 7 114311063.44607      3330.323 7        47.656    21752670.697 6  89073551.59606      2595.057 6        39.250    21752670.906 7  89073551.59607      2595.190 7        44.250
G32  23923172.012 6 125717112.80106     -1351.500 6        40.719    23923175.027 3  97961398.92703     -1053.118 3        23.688    23923175.877 6  97961395.91906     -1053.002 6        37.719
> 2022 02 14 14 39 16.0000000  0 10
G02  22456110.238 7 118007657.33007      1059.579 7        46.156    22456107.476 5  91954007.57905       825.639 5        35.781
G06  24012002.332 6 126183926.35706     -1201.253 6        40.906    24012005.646 6  98325146.04206      -936.039 6        38.688    24012006.157 6  98325150.06306      -936.235 6        41.063
G12  21719427.768 7 114136357.78707     -1226.930 7        45.844    21719426.219 8  88937417.50008      -956.053 8        48.094    21719426.434 7  88937402.50207      -956.156 7        44.344
G20  25410901.444 6 133535186.72306      4416.374 6        39.656    25410902.680 2 104053400.74302      3441.353 2        15.281
G22  23139431.690 7 121598533.70607      -186.338 7        42.906    23139430.891 4  94752099.45004      -145.197 4        26.688
G24  25736864.543 6 135248131.66306     -2396.333 6        38.281    25736868.702 4 105388175.07404     -1867.267 4        29.500    25736869.660 5 105388181.11405     -1867.417 5        33.719
G25  19958410.220 8 104882153.43408       996.379 8        49.250    19958412.008 8  81726357.64508       776.393 8        53.969    19958412.424 7  81726360.65307       776.337 7        47.719
G29  21216467.462 7 111493287.61207      3702.534 7        46.688    21216466.620 8  86877885.80508      2885.086 8        49.531    21216466.982 7  86877886.81107      2885.063 7        45.156
G31  21752038.632 7 114307733.75707      3328.859 7        47.656    21752037.086 6  89070957.03506      2593.913 6        39.125    21752037.337 7  89070957.03207      2593.927 7        44.344
G32  23923429.252 6 125718464.77806     -1352.708 6        40.656    23923432.329 3  97962452.42103     -1054.061 3        23.531    23923433.062 6  97962449.42406     -1054.117 6        37.844
> 2022 02 14 14 39 17.0000000  0 10
G02  22455908.454 7 118006597.49507      1059.758 7        46.156    22455905.797 5  91953181.73505       825.785 5        35.781
G06  24012230.981 6 126185127.48806     -1201.170 6        40.656    24012234.195 6  98326081.98606      -935.975 6        38.719    24012234.552 6  98326085.99506      -935.977 6        41.031
G12  21719661.152 7 114137584.33707     -1226.439 7        46.000    21719659.629 8  88938373.25608      -955.667 8        48.094    21719659.809 7  88938358.25007      -955.680 7        44.313
G20  25410061.194 6 133530769.84306      4416.960 6        39.938    25410062.176 2 104049959.01402      3441.770 2        15.375
G22  23139467.222 7 121598719.75307      -186.146 7        42.813    23139466.279 4  94752244.41904      -145.047 4        26.656
G24  25737320.304 6 135250527.56706     -2395.589 6        38.344    25737324.633 4 105390042.00704     -1866.702 4        29.531    25737325.532 5 105390048.04105     -1866.747 5        33.531
G25  19958220.513 8 104881156.87508       996.482 8        49.281    19958222.362 8  81725581.10608       776.476 8        53.969    19958222.854 7  81725584.11007       776.479 7        47.813
G29  21215762.698 7 111489584.78107      3702.809 7        46.781    21215762.004 8  86875000.48508      2885.302 8        49.563    21215762.325 7  86875001.49107      2885.302 7        45.125
G31  21751405.123 7 114304404.66407      3329.033 7        47.719    21751403.587 6  89068362.93606      2594.051 6        39.125    21751403.867 7  89068362.93407      2594.125 7        44.250
G32  23923686.720 6 125719817.14406     -1352.177 6        40.531    23923689.720 3  97963506.21703     -1053.651 3        23.438    23923690.252 6  97963503.19806     -1053.483 6        37.813
> 2022 02 14 14 39 18.0000000  0 10
G02  22455706.810 7 118005538.33007      1059.133 7        46.281    22455704.247 5  91952356.41105       825.296 5        35.906
G06  24012459.635 6 126186329.11306     -1201.586 6        40.656    24012462.847 6  98327018.31806      -936.309 6        38.844    24012463.352 6  98327022.32706      -936.214 6        40.906
G12  21719894.680 7 114138811.29707     -1226.833 7        46.156    21719893.114 8  88939329.32708      -955.973 8        48.188    21719893.205 7  88939314.33207      -956.048 7        44.406
G20  25409220.597 6 133526353.21506      4416.725 6        40.219    25409221.739 2 104046517.49202      3441.600 2        15.281
G22  23139502.969 7 121598906.40307      -186.734 7        42.875    23139501.811 4  94752389.86304      -145.511 4        26.813
G24  25737776.162 6 135252923.49606     -2395.630 6        38.250    25737780.560 4 105391908.97004     -1866.726 4        29.406    25737781.293 5 105391914.99005     -1867.018 5        33.125
G25  19958030.944 8 104880160.94308       995.888 8        49.281    19958032.832 9  81724805.05309       776.016 9        54.063    19958033.374 7  81724808.05907       776.037 7        47.719
G29  21215058.034 7 111485882.53007      3702.298 7        46.813    21215057.496 8  86872115.61308      2884.907 8        49.656    21215057.722 7  86872116.61707      2884.848 7        45.188
G31  21750771.754 7 114301076.20207      3328.497 7        47.563    21750770.213 6  89065769.32906      2593.628 6        39.188    21750770.518 7  89065769.32907      2593.591 7        44.281
G32  23923943.918 6 125721169.89406     -1352.530 6        40.688    23923947.182 3  97964560.30403     -1053.908 3        23.438    23923947.407 6  97964557.27606     -1053.771 6        37.750
> 2022 02 14 14 39 19.0000000  0 10
G02  22455505.456 7 118004479.70407      1058.171 7        46.125    22455502.805 5  91951531.51205       824.547 5        35.938
G06  24012688.522 6 126187531.14806     -1202.522 6        40.844    24012691.580 6  98327954.96806      -937.029 6        38.813    24012692.095 6  98327958.98406      -936.942 6        41.000
G12  21720128.171 7 114140038.51507     -1227.546 7        46.375    21720126.649 8  88940285.60208      -956.528 8        48.219    21720126.558 7  88940270.59807      -956.491 7        44.438
G20  25408380.303 6 133521936.68006      4416.312 6        40.344    25408381.302 2 104043076.02902      3441.321 2        15.313
G22  23139538.509 7 121599093.50107      -187.599 7        42.688    23139537.418 4  94752535.65604      -146.182 4        26.906
G24  25738232.069 6 135255319.29706     -2396.009 6        38.094    25738236.473 4 105393775.82804     -1867.021 4        29.281    25738237.424 5 105393781.84705     -1866.849 5        33.313
G25  19957841.566 8 104879165.46808       995.004 8        49.375    19957843.396 9  81724029.35809       775.327 9        54.063    19957843.993 7  81724032.36607       775.341 7        47.750
G29  21214353.525 7 111482180.70207      3701.393 7        46.875    21214353.067 8  86869231.07208      2884.202 8        49.719    21214353.170 7  86869232.07407      2884.229 7        45.188
G31  21750138.439 7 114297748.23507      3327.538 7        47.719    21750136.937 6  89063176.10906      2592.886 6        39.219    21750137.091 7  89063176.10907      2592.922 7        44.250
G32  23924201.450 6 125722522.88906     -1353.230 6        40.594    23924204.725 3  97965614.58003     -1054.453 3        23.344    23924205.022 6  97965611.57806     -1054.569 6        37.563
> 2022 02 14 14 39 20.0000000  0 10
G02  22455303.971 7 118003421.42007      1057.645 7        46.125    22455301.421 5  91950706.87605       824.136 5        35.906
G06  24012917.188 6 126188733.37106     -1202.755 6        40.969    24012920.348 6  98328891.76406      -937.211 6        38.844    24012920.917 6  98328895.77706      -937.224 6        40.906
G12  21720361.681 7 114141265.80007     -1227.752 7        46.406    21720360.202 8  88941241.92508      -956.689 8        48.219    21720360.057 7  88941226.92207      -956.632 7        44.375
G20  25407539.968 6 133517520.02906      4416.318 6        40.281    25407540.785 2 104039634.48002      3441.267 2        15.375
G22  23139574.142 7 121599280.86707      -187.874 7        42.906    23139573.075 4  94752681.65404      -146.390 4        26.906
G24  25738687.752 6 135257714.78906     -2395.709 6        38.000    25738692.350 4 105395642.44904     -1866.787 4        29.125    25738693.130 5 105395648.46905     -1866.549 5        33.063
G25  19957652.256 8 104878170.28108       994.627 8        49.375    19957654.014 9  81723253.88709       775.035 9        54.094    19957654.560 7  81723256.89507       775.040 7        47.781
G29  21213649.203 7 111478479.10907      3701.059 7        46.969    21213648.684 8  86866346.71508      2883.943 8        49.719    21213648.801 7  86866347.71307      2883.961 7        45.125
G31  21749505.310 7 114294420.56607      3327.083 7        47.656    21749503.702 6  89060583.12006      2592.533 6        39.219    21749503.832 7  89060583.11607      2592.597 7        44.344
G32  23924459.060 6 125723875.95006     -1353.349 6        40.563    23924462.233 3  97966668.91703     -1054.557 3        23.125    23924462.698 6  97966665.90906     -1054.526 6        37.656
> 2022 02 14 14 39 21.0000000  0 10
G02  22455102.623 7 118002363.78507      1058.007 7        45.938    22455100.171 5  91949882.74405       824.420 5        35.844
G06  24013146.234 6 126189936.10706     -1202.314 6        41.031    24013149.201 6  98329828.96506      -936.866 6        38.844    24013149.754 6  98329832.98106      -936.994 6        40.813
G12  21720595.281 7 114142493.46607     -1227.165 7        46.406    21720593.827 8  88942198.55008      -956.235 8        48.219    21720593.767 7  88942183.55107      -956.258 7        44.344
G20  25406699.578 6 133513103.60206      4416.997 6        40.094    25406700.339 2 104036193.10102      3441.837 2        15.688
G22  23139609.783 7 121599468.82007      -187.617 7        42.875    23139608.866 4  94752828.10504      -146.192 4        26.844
G24  25739143.724 6 135260110.31006     -2394.813 6        37.719    25739148.232 4 105397509.09104     -1866.089 4        28.938    25739149.108 5 105397515.13905     -1866.391 5        32.906
G25  19957463.000 8 104877175.67208       994.983 8        49.313    19957464.739 9  81722478.86909       775.309 9        54.063    19957465.299 7  81722481.87507       775.310 7        47.688
G29  21212945.036 7 111474778.05707      3701.440 7        46.875    21212944.399 8  86863462.78108      2884.239 8        49.688    21212944.589 7  86863463.78007      2884.278 7        45.156
G31  21748872.152 7 114291093.50407      3327.415 7        47.656    21748870.592 6  89057990.60406      2592.791 6        39.188    21748870.723 7  89057990.60607      2592.760 7        44.344
G32  23924716.773 6 125725229.39806     -1352.984 6        40.656    23924719.780 3  97967723.55103     -1054.259 3        23.000    23924719.904 6  97967720.53206     -1054.188 6        37.625
> 2022 02 14 14 39 22.0000000  0 10
G02  22454901.419 7 118001306.68107      1057.196 7        45.781    22454899.015 5  91949059.02705       823.784 5        35.906
G06  24013375.128 6 126191139.21506     -1202.945 6        40.938    24013378.121 6  98330766.45206      -937.361 6        38.875    24013378.783 6  98330770.46206      -937.443 6        40.813
G12  21720828.876 7 114143721.38507     -1227.620 7        46.438    21720827.491 8  88943155.36708      -956.585 8        48.281    21720827.529 7  88943140.36607      -956.621 7        44.406
G20  25405859.301 6 133508687.25206      4416.645 6        39.844    25405859.955 2 104032751.79502      3441.546 2        16.031
G22  23139645.435 7 121599657.21407      -188.314 7        42.844    23139644.751 4  94752974.90304      -146.728 4        26.906
G24  25739599.687 6 135262505.68806     -2395.097 6        37.500    25739604.083 4 105399375.62504     -1866.309 4        28.844    25739604.525 5 105399381.64505     -1866.058 5        33.094
G25  19957273.958 8 104876181.53808       994.271 8        49.250    19957275.554 9  81721704.22009       774.757 9        54.094    19957276.198 7  81721707.22707       774.696 7        47.813
G29  21212240.768 7 111471077.42407      3700.795 7        46.969    21212240.195 8  86860579.17008      2883.735 8        49.781    21212240.370 7  86860580.17507      2883.767 7        45.125
G31  21748239.161 7 114287766.92707      3326.719 7        47.500    21748237.575 6  89055398.46506      2592.250 6        39.188    21748237.838 7  89055398.46507      2592.241 7        44.469
G32  23924974.590 6 125726583.08006     -1353.377 6        40.531    23924977.417 3  97968778.37003     -1054.577 3        23.219    23924977.221 6  97968775.36106     -1054.684 6        37.406
> 2022 02 14 14 39 23.0000000  0 10
G02  22454700.391 7 118000250.40407      1056.464 7        45.563    22454698.020 5  91948235.95605       823.216 5        35.906
G06  24013604.194 6 126192343.02206     -1203.821 6        40.875    24013607.180 6  98331704.48406      -938.038 6        38.875    24013608.039 6  98331708.48506      -937.868 6        40.906
G12  21721062.544 7 114144949.86207     -1228.132 7        46.406    21721061.268 8  88944112.62308      -956.988 8        48.281    21721061.316 7  88944097.62207      -956.965 7        44.438
G20  25405018.940 6 133504271.30106      4416.463 6        39.719    25405019.675 2 104029310.79702      3441.409 2        15.688
G22  23139681.487 7 121599846.36707      -188.879 7        42.875    23139680.725 4  94753122.29504      -147.178 4        26.938
G24  25740055.344 6 135264901.26306     -2395.093 6        37.219    25740059.978 4 105401242.30704     -1866.302 4        28.750    25740060.643 5 105401248.31505     -1866.076 5        33.250
G25  19957085.047 8 104875188.16308       993.648 8        49.094    19957086.516 9  81720930.16409       774.267 9        54.094    19957087.213 7  81720933.16907       774.265 7        47.750
G29  21211536.628 7 111467377.51807      3700.157 7        46.781    21211536.138 8  86857696.13208      2883.234 8        49.781    21211536.391 7  86857697.13307      2883.270 7        45.125
G31  21747606.300 7 114284441.13807      3325.988 7        47.281    21747604.693 6  89052806.94306      2591.675 6        39.156    21747605.071 7  89052806.94407      2591.650 7        44.563
G32  23925232.344 6 125727937.31606     -1353.808 6        40.625    23925235.148 3  97969833.61703     -1054.912 3        23.344    23925234.785 6  97969830.61606     -1054.817 6        37.594
> 2022 02 14 14 39 24.0000000  0 10
G02  22454499.505 7 117999194.78107      1055.886 7        45.531    22454497.137 5  91947413.38905       822.768 5        35.906
G06  24013833.462 6 126193547.30306     -1203.939 6        40.969    24013836.319 6  98332642.88506      -938.133 6        38.844    24013837.199 6  98332646.89006      -938.135 6        40.813
G12  21721296.290 7 114146178.70307     -1228.414 7        46.438    21721295.116 8  88945070.16108      -957.206 8        48.281    21721295.109 7  88945055.16507      -957.237 7        44.531
G20  25404178.665 6 133499855.53906      4416.266 6        39.531    25404179.421 2 104025869.93702      3441.266 2        15.844
G22  23139717.280 7 121600036.07507      -189.464 7        43.031    23139716.798 4  94753270.11704      -147.632 4        27.063
G24  25740511.225 6 135267296.81106     -2395.061 6        37.094    25740515.869 4 105403108.96204     -1866.277 4        28.563    25740516.367 5 105403114.97505     -1865.922 5        33.250
G25  19956896.173 8 104874195.36508       993.106 8        49.219    19956897.585 9  81720156.55209       773.849 9        54.094    19956898.212 7  81720159.55907       773.860 7        47.781
G29  21210832.691 7 111463678.14307      3699.669 7        46.875    21210832.174 8  86854813.50308      2882.859 8        49.750    21210832.445 7  86854814.50707      2882.867 7        45.063
G31  21746973.508 7 114281115.94407      3325.518 7        47.313    21746971.927 6  89050215.88106      2591.313 6        39.156    21746972.385 7  89050215.88507      2591.268 7        44.656
G32  23925490.249 6 125729291.91606     -1354.048 6        40.844    23925492.897 3  97970889.13803     -1055.097 3        23.438    23925492.673 6  97970886.14906     -1055.151 6        37.531
> 2022 02 14 14 39 25.0000000  0 10
G02  22454298.790 7 117998139.72507      1054.812 7        45.313    22454296.361 5  91946591.26805       821.932 5        35.938
G06  24014062.728 6 126194752.02206     -1204.826 6        41.094    24014065.544 6  98333581.62606      -938.825 6        38.906    24014066.275 6  98333585.63506      -938.840 6        40.875
G12  21721530.067 7 114147407.85707     -1229.156 7        46.375    21721529.026 8  88946027.94108      -957.779 8        48.344    21721529.077 7  88946012.94407      -957.882 7        44.500
G20  25403338.081 6 133495439.93606      4415.677 6        39.438    25403339.168 2 104022429.19902      3440.835 2        15.375
G22  23139753.530 7 121600226.27807      -190.296 7        42.875    23139753.004 4  94753418.32504      -148.280 4        27.063
G24  25740967.284 6 135269692.30206     -2395.337 6        37.156    25740971.747 4 105404975.57104     -1866.492 4        28.375    25740972.449 5 105404981.56905     -1866.403 5        32.844
G25  19956707.430 8 104873203.07708       992.154 8        49.156    19956708.753 9  81719383.33909       773.109 9        54.094    19956709.351 7  81719386.35107       773.090 7        47.781
G29  21210128.717 7 111459979.22607      3698.832 7        46.813    21210128.296 8  86851931.23008      2882.209 8        49.781    21210128.629 7  86851932.23807      2882.175 7        45.063
G31  21746340.873 7 114277791.27407      3324.562 7        47.156    21746339.260 6  89047625.23206      2590.571 6        39.188    21746339.649 7  89047625.23607      2590.515 7        44.656
G32  23925748.190 6 125730646.81706     -1354.958 6        40.813    23925750.793 3  97971944.90603     -1055.813 3        23.656    23925750.304 6  97971941.91206     -1055.755 6        37.438
> 2022 02 14 14 39 26.0000000  0 10
G02  22454098.030 7 117997085.34507      1053.812 7        45.313    22454095.715 5  91945769.67405       821.157 5        35.969
G06  24014292.173 6 126195957.28106     -1205.662 6        41.063    24014294.880 6  98334520.78706      -939.474 6        38.938    24014295.603 6  98334524.79306      -939.620 6        40.906
G12  21721764.041 7 114148637.41407     -1230.015 7        46.438    21721763.004 8  88946986.03508      -958.453 8        48.344    21721763.138 7  88946971.04307      -958.382 7        44.375
G20  25402497.746 6 133491024.55406      4415.093 6        39.375    25402498.990 2 104018988.64902      3440.343 2        15.031
G22  23139789.888 7 121600417.09007      -191.304 7        43.031    23139789.336 4  94753567.01204      -149.058 4        27.063
G24  25741423.240 6 135272087.80406     -2395.642 6        37.188    25741427.620 4 105406842.19504     -1866.736 4        28.313    25741427.961 5 105406848.22205     -1866.658 5        32.750
G25  19956518.722 8 104872211.41108       991.054 8        49.094    19956520.042 9  81718610.61509       772.251 9        54.125    19956520.593 7  81718613.62507       772.232 7        47.750
G29  21209424.953 7 111456280.89707      3697.785 7        46.813    21209424.530 8  86849049.41508      2881.391 8        49.813    21209424.786 7  86849050.41507      2881.427 7        45.000
G31  21745708.397 7 114274467.25207      3323.463 7        47.031    21745706.722 6  89045035.08406      2589.711 6        39.188    21745707.046 7  89045035.08707      2589.708 7        44.750
G32  23926006.269 6 125732002.10706     -1355.772 6        40.938    23926008.757 3  97973000.97003     -1056.445 3        23.688    23926008.623 6  97972997.97406     -1056.422 6        37.469
> 2022 02 14 14 39 27.0000000  0 10
G02  22453897.467 7 117996032.17107      1053.010 7        45.344    22453895.297 6  91944949.01906       820.524 6        36.031
G06  24014521.736 6 126197163.58106     -1206.481 6        41.031    24014524.408 6  98335460.76206      -940.113 6        39.000    24014525.180 6  98335464.78206      -940.133 6        40.750
G12  21721998.165 7 114149867.91107     -1230.583 7        46.344    21721997.160 8  88947944.86608      -958.897 8        48.375    21721997.181 7  88947929.86707      -958.816 7        44.438
G20  25401657.612 6 133486609.95406      4414.614 6        39.406    25401658.902 2 104015548.72202      3439.937 2        15.406
G22  23139826.543 7 121600609.03407      -192.122 7        42.906    23139825.869 4  94753716.58204      -149.709 4        26.969
G24  25741879.301 6 135274483.89706     -2396.228 6        37.000    25741883.591 4 105408709.28404     -1867.198 4        28.313    25741884.628 5 105408715.30805     -1867.080 5        33.063
G25  19956330.243 8 104871220.88608       990.315 8        49.188    19956331.545 9  81717838.77909       771.674 9        54.156    19956332.149 7  81717841.78307       771.711 7        47.781
G29  21208721.424 7 111452583.65607      3697.123 7        46.844    21208720.965 8  86846168.45008      2880.872 8        49.844    21208721.262 7  86846169.45607      2880.824 7        45.094
G31  21745076.042 7 114271144.38807      3322.649 7        47.063    21745074.417 6  89042445.84106      2589.075 6        39.156    21745074.729 7  89042445.84707      2588.959 7        44.813
G32  23926264.362 6 125733358.32706     -1356.285 6        40.719    23926266.872 3  97974057.76603     -1056.846 3        23.813    23926266.676 6  97974054.76806     -1056.778 6        37.688
> 2022 02 14 14 39 28.0000000  0 10
G02  22453697.103 7 117994979.41607      1052.944 7        45.344    22453694.968 5  91944128.68905       820.479 5        35.969
G06  24014751.180 6 126198370.16506     -1206.230 6        41.031    24014753.990 6  98336400.95506      -939.919 6        39.063    24014754.817 6  98336404.96406      -939.927 6        40.969
G12  21722232.381 7 114151098.54807     -1230.409 7        46.188    21722231.339 8  88948903.80208      -958.759 8        48.375    21722231.282 7  88948888.80307      -958.670 7        44.313
G20  25400817.399 6 133482195.32306      4414.972 6        39.250    25400818.818 2 104012108.74302      3440.249 2        15.375
G22  23139863.271 7 121600801.30907      -192.029 7        42.719    23139862.496 4  94753866.40604      -149.637 4        27.000
G24  25742335.422 6 135276879.73006     -2395.615 6        36.500    25742339.513 4 105410576.16904     -1866.716 4        28.188    25742340.565 5 105410582.18905     -1866.444 5        33.406
G25  19956141.728 8 104870230.71108       990.340 8        49.156    19956143.115 9  81717067.21409       771.698 9        54.156    19956143.713 7  81717070.22007       771.686 7        47.781
G29  21208017.855 7 111448886.72707      3697.141 7        46.844    21208017.462 8  86843287.72708      2880.892 8        49.875    21208017.675 7  86843288.73307      2880.892 7        45.125
G31  21744443.824 7 114267821.89107      3322.647 7        47.063    21744442.178 6  89039856.88506      2589.077 6        39.156    21744442.468 7  89039856.89307      2589.073 7        44.906
G32  23926522.465 6 125734714.68206     -1356.133 6        40.906    23926524.997 3  97975114.66103     -1056.719 3        23.781    23926525.061 6  97975111.66706     -1056.780 6        37.656
> 2022 02 14 14 39 29.0000000  0 10
G02  22453496.807 7 117993926.79907      1052.039 7        45.219    22453494.680 5  91943308.46905       819.769 5        35.938
G06  24014980.743 6 126199576.75306     -1207.005 6        40.875    24014983.577 6  98337341.15406      -940.522 6        39.031    24014984.314 6  98337345.16006      -940.446 6        40.969
G12  21722466.497 7 114152329.05307     -1230.962 7        46.188    21722465.496 8  88949862.63608      -959.190 8        48.375    21722465.305 7  88949847.64007      -959.221 7        44.406
G20  25399977.257 6 133477780.39106      4414.643 6        39.344    25399978.605 2 104008668.54602      3440.020 2        15.313
G22  23139899.864 7 121600993.65507      -192.886 7        42.563    23139899.173 4  94754016.28804      -150.299 4        27.063
G24  25742791.250 6 135279275.06406     -2395.529 6        36.438    25742795.400 4 105412442.66204     -1866.643 4        28.094    25742795.959 5 105412448.70105     -1866.853 5        33.438
G25  19955953.238 8 104869240.62408       989.522 8        49.094    19955954.704 9  81716295.71609       771.055 9        54.125    19955955.398 7  81716298.72407       771.100 7        47.844
G29  21207314.300 7 111445189.83607      3696.369 7        46.750    21207313.964 8  86840407.03108      2880.285 8        49.875    21207314.363 7  86840408.03107      2880.344 7        45.094
G31  21743811.625 7 114264499.49507      3321.847 7        47.063    21743809.954 6  89037268.00806      2588.448 6        39.125    21743810.237 7  89037268.01007      2588.415 7        45.000
G32  23926780.700 6 125736070.90406     -1356.656 6        40.813    23926783.126 3  97976171.46003     -1057.141 3        23.906    23926783.338 6  97976168.45906     -1057.158 6        37.844
> 2022 02 14 14 39 30.0000000  0 10
G02  22453296.817 7 117992874.84207      1050.979 7        45.156    22453294.499 6  91942488.76306       818.940 6        36.000
G06  24015210.387 6 126200783.85006     -1208.029 6        40.969    24015213.253 6  98338281.74706      -941.323 6        39.031    24015213.992 6  98338285.75306      -941.290 6        40.969
G12  21722700.780 7 114153559.94907     -1231.772 7        46.031    21722699.728 8  88950821.77508      -959.825 8        48.438    21722699.649 7  88950806.77407      -959.824 7        44.375
G20  25399137.343 6 133473365.71206      4413.835 6        39.438    25399138.525 2 104005228.51902      3439.348 2        15.094
G22  23139936.551 7 121601186.59507      -193.923 7        42.500    23139935.961 4  94754166.62604      -151.101 4        27.250
G24  25743247.100 6 135281670.42206     -2396.115 6        36.094    25743251.232 4 105414309.17104     -1867.101 4        28.063    25743251.464 5 105414315.16105     -1866.983 5        33.000
G25  19955764.885 8 104868251.12708       988.567 8        49.094    19955766.408 9  81715524.67909       770.307 9        54.188    19955767.091 7  81715527.68507       770.333 7        47.781
G29  21206610.920 7 111441493.48607      3695.475 7        46.656    21206610.574 8  86837526.76008      2879.586 8        49.938    21206610.892 7  86837527.76307      2879.623 7        45.125
G31  21743179.589 7 114261177.72507      3320.860 7        47.031    21743177.845 6  89034679.61406      2587.676 6        39.219    21743178.114 7  89034679.61007      2587.731 7        44.875
G32  23927038.652 6 125737427.50206     -1357.539 6        41.094    23927041.353 3  97977228.55003     -1057.825 3        23.938    23927041.417 6  97977225.54206     -1057.647 6        37.969
> 2022 02 14 14 39 31.0000000  0 10
G02  22453096.949 7 117991823.51007      1050.850 7        45.188    22453094.443 6  91941669.54406       818.840 6        36.000
G06  24015440.161 6 126201991.42806     -1207.914 6        40.938    24015443.027 6  98339222.71406      -941.232 6        39.094    24015443.790 6  98339226.72506      -941.307 6        40.875
G12  21722934.988 7 114154791.19207     -1231.568 7        46.219    21722934.019 8  88951781.18708      -959.665 8        48.438    21722933.830 7  88951766.19107      -959.700 7        44.469
G20  25398297.532 6 133468951.18406      4414.245 6        39.406    25398298.513 2 104001788.63102      3439.676 2        15.000
G22  23139973.391 7 121601380.06307      -193.841 7        42.438    23139972.793 4  94754317.37904      -151.044 4        27.281
G24  25743702.794 6 135284065.73406     -2395.386 6        36.313    25743707.029 4 105416175.64704     -1866.539 4        27.875    25743707.398 5 105416181.67805     -1866.402 5        32.500
G25  19955576.671 8 104867262.19708       988.469 8        49.063    19955578.220 9  81714754.08609       770.233 9        54.156    19955578.890 7  81714757.09407       770.194 7        47.750
G29  21205907.620 7 111437797.66907      3695.410 7        46.563    21205907.290 8  86834646.90308      2879.534 8        49.906    21205907.457 7  86834647.90207      2879.549 7        45.063
G31  21742547.569 7 114257856.53507      3320.792 7        46.969    21742545.857 6  89032091.67606      2587.629 6        39.188    21742546.014 7  89032091.67207      2587.619 7        44.781
G32  23927296.841 6 125738784.44106     -1357.329 6        40.719    23927299.580 4  97978285.91104     -1057.668 4        24.000    23927299.899 6  97978282.90006     -1057.611 6        37.844
> 2022 02 14 14 39 32.0000000  0 10
G02  22452897.085 7 117990772.78807      1051.144 7        45.344    22452894.503 6  91940850.80006       819.071 6        36.031
G06  24015669.943 6 126203199.45906     -1207.553 6        41.063    24015672.900 6  98340164.03906      -940.953 6        39.063    24015673.733 6  98340168.04806      -940.865 6        40.813
G12  21723169.305 7 114156022.77507     -1231.124 7        46.219    21723168.381 8  88952740.86208      -959.319 8        48.438    21723168.205 7  88952725.86107      -959.225 7        44.313
G20  25397457.502 6 133464536.86106      4414.893 6        39.563    25397458.505 2 103998348.91502      3440.138 2        15.500
G22  23140010.238 7 121601574.08607      -193.642 7        42.250    23140009.751 4  94754468.55904      -150.890 4        27.281
G24  25744158.383 6 135286461.03006     -2394.631 6        36.438    25744162.831 4 105418042.10704     -1865.940 4        27.719    25744162.673 5 105418048.10805     -1866.252 5        32.375
G25  19955388.613 8 104866273.82508       988.728 8        49.125    19955390.139 9  81713983.92709       770.436 9        54.156    19955390.664 7  81713986.92907       770.447 7        47.625
G29  21205204.506 7 111434102.34407      3695.730 7        46.594    21205204.096 8  86831767.43108      2879.788 8        49.906    21205204.351 7  86831768.43407      2879.881 7        44.938
G31  21741915.688 7 114254535.90107      3321.014 7        47.031    21741913.963 6  89029504.16906      2587.803 6        39.188    21741914.001 7  89029504.17307      2587.771 7        44.781
G32  23927555.055 6 125740141.71006     -1356.657 6        40.781    23927557.865 3  97979343.52403     -1057.135 3        23.750    23927557.863 6  97979340.53206     -1057.341 6        37.500
> 2022 02 14 14 39 33.0000000  0 10
G02  22452697.224 7 117989721.99707      1050.560 7        45.156    22452694.559 6  91940032.00206       818.622 6        36.063
G06  24015899.891 6 126204407.28906     -1208.014 6        41.656    24015902.728 6  98341105.20606      -941.312 6        39.125    24015903.694 6  98341109.21906      -941.269 6        40.719
G12  21723403.494 7 114157254.01407     -1231.380 7        46.469    21723402.676 8  88953700.26908      -959.516 8        48.500    21723402.509 7  88953685.26807      -959.452 7        44.438
G20  25396617.369 6 133460122.00206      4414.817 6        39.656    25396618.399 2 103994908.78302      3440.109 2        15.313
G22  23140047.008 7 121601767.96307      -194.064 7        42.281    23140046.660 4  94754619.62904      -151.218 4        27.313
G24  25744613.805 6 135288855.58206     -2394.391 6        36.500    25744618.489 4 105419907.99104     -1865.754 4        27.531    25744618.341 5 105419914.02505     -1865.962 5        32.625
G25  19955200.490 8 104865285.31108       988.239 8        49.156    19955202.027 9  81713213.65409       770.058 9        54.219    19955202.618 7  81713216.66107       770.092 7        47.781
G29  21204501.296 7 111430406.84907      3695.367 7        46.625    21204500.858 8  86828887.82308      2879.508 8        49.969    21204501.201 7  86828888.83507      2879.386 7        44.938
G31  21741283.833 7 114251215.17107      3320.524 7        47.031    21741282.047 6  89026916.58806      2587.423 6        39.219    21741282.073 7  89026916.59207      2587.360 7        44.875
G32  23927813.110 6 125741498.65406     -1357.182 6        40.875    23927816.128 3  97980400.87803     -1057.532 3        23.688    23927816.149 6  97980397.86506     -1057.562 6        37.688
> 2022 02 14 14 39 34.0000000  0 10
G02  22452497.423 7 117988672.26807      1050.038 7        45.188    22452494.798 6  91939214.03306       818.211 6        36.094
G06  24016130.069 6 126205616.03206     -1208.439 6        41.188    24016132.726 6  98342047.08506      -941.638 6        39.125    24016133.892 6  98342051.09206      -941.561 6        40.750
G12  21723637.879 7 114158486.04207     -1231.573 7        46.469    21723637.119 8  88954660.29008      -959.669 8        48.500    21723637.014 7  88954645.29107      -959.636 7        44.469
G20  25395777.205 6 133455707.78806      4414.615 6        39.563    25395778.369 2 103991469.12802      3439.968 2        15.469
G22  23140084.148 7 121601962.80007      -194.398 7        42.250    23140083.761 4  94754771.45204      -151.475 4        27.313
G24  25745069.505 6 135291250.55606     -2394.386 6        36.656    25745074.219 4 105421774.20204     -1865.755 4        27.406    25745074.246 5 105421780.23905     -1865.890 5        32.813
G25  19955012.591 8 104864297.79108       987.903 8        49.219    19955014.107 9  81712444.15909       769.792 9        54.188    19955014.743 7  81712447.16507       769.778 7        47.750
G29  21203798.321 7 111426712.31307      3694.933 7        46.625    21203797.798 8  86826008.96508      2879.167 8        49.938    21203798.210 7  86826009.97007      2879.160 7        44.938
G31  21740652.017 7 114247895.45507      3319.978 7        47.031    21740650.336 6  89024329.79806      2586.995 6        39.188    21740650.441 7  89024329.79907      2587.104 7        44.781
G32  23928071.481 6 125742856.35306     -1357.275 6        41.219    23928074.512 3  97981458.82403     -1057.616 3        23.750    23928074.657 6  97981455.80706     -1057.468 6        37.500
> 2022 02 14 14 39 35.0000000  0 10
G02  22452297.829 7 117987623.58907      1047.991 7        45.250    22452295.248 6  91938396.88106       816.617 6        36.063
G06  24016359.989 6 126206825.67406     -1210.346 6        41.625    24016362.903 6  98342989.66106      -943.128 6        39.094    24016364.241 6  98342993.66706      -943.106 6        40.563
G12  21723872.662 7 114159718.85307     -1233.384 7        46.531    21723871.709 8  88955620.92008      -961.078 8        48.469    21723871.713 7  88955605.93007      -961.109 7        44.438
G20  25394937.314 6 133451294.18106      4413.170 6        39.313    25394938.532 2 103988029.94402      3438.875 2        15.469
G22  23140121.362 7 121602158.63807      -196.548 7        42.125    23140121.055 4  94754924.05204      -153.155 4        27.250
G24  25745524.959 6 135293645.93806     -2395.656 6        36.625    25745530.025 4 105423640.73404     -1866.745 4        27.313    25745530.729 5 105423646.78405     -1867.105 5        32.656
G25  19954824.874 8 104863311.26008       985.849 8        49.219    19954826.375 9  81711675.43309       768.194 9        54.156    19954826.993 7  81711678.43907       768.145 7        47.594
G29  21203095.547 7 111423018.71907      3692.941 7        46.531    21203094.922 8  86823130.84008      2877.617 8        49.875    21203095.336 7  86823131.85307      2877.611 7        44.875
G31  21740020.454 7 114244576.74607      3318.000 7        47.125    21740018.818 6  89021743.79006      2585.454 6        39.125    21740018.908 7  89021743.79307      2585.424 7        44.625
G32  23928329.722 6 125744214.82806     -1359.141 6        41.188    23928332.999 3  97982517.37303     -1059.069 3        23.844    23928333.049 6  97982514.36706     -1058.998 6        37.375
> 2022 02 14 14 39 36.0000000  0 10
G02  22452098.544 7 117986575.67907      1047.639 7        45.188    22452095.845 6  91937580.32806       816.343 6        36.063
G06  24016590.407 6 126208035.93206     -1210.439 6        41.656    24016593.196 6  98343932.71806      -943.195 6        39.125    24016594.241 6  98343936.73306      -943.215 6        40.313
G12  21724107.283 7 114160952.15107     -1233.436 7        46.375    21724106.398 8  88956581.93208      -961.117 8        48.469    21724106.456 7  88956566.93407      -961.122 7        44.438
G20  25394097.427 6 133446880.91906      4413.107 6        39.344    25394098.761 2 103984591.03702      3438.793 2        15.313
G22  23140158.757 7 121602355.14807      -196.785 7        42.281    23140158.464 4  94755077.17404      -153.326 4        27.125
G24  25745980.966 6 135296041.43506     -2395.552 6        36.688    25745985.840 4 105425507.35404     -1866.666 4        27.375    25745986.190 5 105425513.35505     -1866.316 5        32.719
G25  19954637.340 8 104862325.42708       985.572 8        49.281    19954638.768 9  81710907.25109       767.980 9        54.125    19954639.438 7  81710910.26107       767.950 7        47.563
G29  21202392.765 7 111419325.78507      3692.676 7        46.500    21202392.170 8  86820253.23208      2877.412 8        49.875    21202392.472 7  86820254.22907      2877.448 7        44.844
G31  21739388.973 7 114241258.75907      3317.754 7        47.188    21739387.434 6  89019158.34506      2585.262 6        39.125    21739387.505 7  89019158.34707      2585.188 7        44.719
G32  23928588.228 6 125745573.80206     -1359.170 6        41.500    23928591.655 3  97983576.30303     -1059.094 3        23.750    23928591.668 6  97983573.28606     -1058.930 6        37.438
> 2022 02 14 14 39 37.0000000  0 10
G02  22451899.243 7 117985527.85207      1047.272 7        45.063    22451896.464 6  91936763.83806       816.055 6        36.031
G06  24016820.774 6 126209246.15206     -1210.821 6        41.781    24016823.471 6  98344875.74906      -943.498 6        39.156    24016824.498 6  98344879.74806      -943.373 6        40.281
G12  21724342.087 7 114162185.27807     -1233.636 7        46.250    21724341.051 8  88957542.80508      -961.273 8        48.438    21724341.096 7  88957527.81207      -961.266 7        44.438
G20  25393257.482 6 133442467.29306      4413.294 6        39.250    25393258.941 2 103981151.85102      3438.929 2        15.500
G22  23140196.436 7 121602551.68007      -197.213 7        42.000    23140195.896 4  94755230.31204      -153.673 4        27.156
G24  25746436.691 6 135298436.37606     -2395.269 6        37.031    25746441.583 4 105427373.54304     -1866.443 4        27.469    25746442.147 5 105427379.57605     -1866.600 5        32.813
G25  19954449.770 8 104861339.62708       985.152 8        49.250    19954451.170 9  81710139.09509       767.652 9        54.094    19954451.956 7  81710142.10407       767.714 7        47.500
G29  21201689.969 7 111415632.83307      3692.337 7        46.594    21201689.415 8  86817375.60808      2877.146 8        49.844    21201689.671 7  86817376.61007      2877.158 7        44.813
G31  21738757.583 7 114237940.82407      3317.305 7        47.031    21738756.063 6  89016572.94306      2584.911 6        39.094    21738756.135 7  89016572.94907      2584.916 7        44.656
G32  23928846.980 6 125746932.57006     -1359.192 6        41.688    23928850.214 3  97984635.08503     -1059.104 3        23.781    23928850.185 6  97984632.09706     -1059.352 6        37.406
> 2022 02 14 14 39 38.0000000  0 10
G02  22451699.993 7 117984480.79007      1047.066 7        45.094    22451697.231 6  91935947.94706       815.902 6        36.031
G06  24017051.253 6 126210456.96006     -1210.850 6        41.750    24017053.858 6  98345819.23506      -943.522 6        39.188    24017054.647 6  98345823.25106      -943.586 6        40.250
G12  21724576.821 7 114163418.88207     -1233.475 7        46.219    21724575.793 8  88958504.05808      -961.145 8        48.438    21724575.766 7  88958489.06307      -961.199 7        44.406
G20  25392417.621 6 133438053.98706      4413.488 6        39.469    25392419.179 2 103977712.91702      3439.089 2        15.844
G22  23140233.907 7 121602748.88007      -197.217 7        42.156    23140233.431 4  94755383.97504      -153.681 4        27.094
G24  25746892.477 6 135300831.42806     -2394.861 6        36.969    25746897.358 4 105429239.82304     -1866.119 4        27.531    25746897.894 5 105429245.83605     -1866.102 5        33.094
G25  19954262.296 8 104860354.52708       985.133 8        49.344    19954263.706 9  81709371.48609       767.641 9        54.094    19954264.447 7  81709374.48907       767.619 7        47.531
G29  21200987.187 7 111411940.53007      3692.286 7        46.563    21200986.780 8  86814498.49108      2877.109 8        49.844    21200987.019 7  86814499.49907      2877.099 7        44.813
G31  21738126.382 7 114234623.60207      3317.179 7        47.094    21738124.822 6  89013988.09306      2584.814 6        39.094    21738124.952 7  89013988.10507      2584.774 7        44.719
G32  23929105.769 6 125748291.81806     -1359.222 6        41.594    23929108.843 3  97985694.23803     -1059.128 3        23.844    23929108.827 6  97985691.24206     -1059.008 6        37.688
> 2022 02 14 14 39 39.0000000  0 10
G02  22451500.976 7 117983434.66407      1045.510 7        45.125    22451498.159 6  91935132.78406       814.686 6        36.063
G06  24017281.734 6 126211668.55606     -1212.116 6        41.844    24017284.388 6  98346763.33606      -944.507 6        39.219    24017285.319 6  98346767.35406      -944.613 6        40.344
G12  21724811.748 7 114164653.15707     -1234.783 7        46.156    21724810.665 8  88959465.82908      -962.169 8        48.406    21724810.686 7  88959450.83207      -962.120 7        44.500
G20  25391577.794 6 133433641.17606      4412.505 6        39.531    25391579.435 2 103974274.35902      3438.356 2        16.375
G22  23140271.700 6 121602946.94006      -198.672 6        41.844    23140271.078 4  94755538.30804      -154.810 4        27.250
G24  25747348.260 6 135303226.74306     -2395.556 6        37.219    25747353.172 4 105431106.30304     -1866.671 4        27.781    25747353.823 5 105431112.31905     -1866.768 5        33.531
G25  19954075.048 8 104859370.29008       983.599 8        49.406    19954076.407 9  81708604.54909       766.439 9        54.094    19954077.091 7  81708607.55807       766.386 7        47.656
G29  21200284.723 7 111408249.05807      3690.923 7        46.563    21200284.301 8  86811622.02008      2876.042 8        49.844    21200284.619 7  86811623.02207      2876.009 7        44.875
G31  21737495.335 7 114231307.27407      3315.746 7        47.219    21737493.755 6  89011403.94506      2583.692 6        39.031    21737493.882 7  89011403.95107      2583.657 7        44.813
G32  23929364.451 6 125749651.71806     -1360.402 6        41.750    23929367.643 4  97986753.90004     -1060.057 4        24.094    23929367.844 6  97986750.89006     -1059.913 6        37.625
> 2022 02 14 14 39 40.0000000  0 10
G02  22451302.077 7 117982389.16307      1045.101 7        45.250    22451299.221 6  91934318.11006       814.371 6        36.000
G06  24017512.514 6 126212880.64206     -1212.338 6        41.750    24017515.030 6  98347707.81706      -944.674 6        39.313    24017516.054 6  98347711.83306      -944.760 6        40.250
G12  21725046.641 7 114165887.78507     -1234.886 7        46.125    21725045.604 8  88960427.87608      -962.246 8        48.375    21725045.512 7  88960412.87607      -962.269 7        44.406
G20  25390738.088 6 133429228.56706      4412.512 6        39.500    25390739.714 2 103970835.93602      3438.359 2        16.469
G22  23140309.491 6 121603145.55606      -199.015 6        41.938    23140308.863 4  94755693.07304      -155.065 4        27.219
G24  25747804.000 6 135305622.06706     -2395.344 6        37.250    25747808.996 4 105432972.78604     -1866.498 4        27.938    25747809.394 5 105432978.80605     -1866.504 5        33.375
G25  19953887.883 8 104858386.62108       983.364 8        49.375    19953889.221 9  81707838.05209       766.261 9        54.094    19953889.879 7  81707841.05907       766.236 7        47.594
G29  21199582.393 7 111404558.11907      3690.647 7        46.531    21199581.925 8  86808745.96208      2875.833 8        49.844    21199582.371 7  86808746.97007      2875.743 7        44.875
G31  21736864.303 7 114227991.54107      3315.375 7        47.156    21736862.801 6  89008820.25606      2583.409 6        39.031    21736862.968 7  89008820.25607      2583.418 7        44.688
G32  23929623.204 6 125751011.97506     -1360.431 6        41.750    23929626.532 4  97987813.83504     -1060.074 4        24.000    23929626.567 6  97987810.83706     -1060.083 6        37.750
> 2022 02 14 14 39 41.0000000  0 10
G02  22451103.343 7 117981344.07207      1044.579 7        45.344    22451100.354 6  91933503.75106       813.959 6        36.000
G06  24017743.027 6 126214092.99206     -1212.833 6        41.656    24017745.721 6  98348652.50506      -945.063 6        39.313    24017746.786 6  98348656.51806      -945.033 6        40.344
G12  21725281.544 7 114167122.54407     -1235.055 7        46.375    21725280.561 8  88961390.02608      -962.380 8        48.344    21725280.638 7  88961375.03407      -962.552 7        44.344
G20  25389898.409 6 133424815.91306      4412.534 6        39.281    25389900.010 2 103967397.51002      3438.323 2        16.031
G22  23140347.395 6 121603344.49406      -199.418 6        41.875    23140346.724 4  94755848.08204      -155.391 4        27.156
G24  25748259.772 6 135308017.13006     -2395.308 6        37.094    25748264.771 4 105434839.06404     -1866.466 4        28.094    25748265.662 5 105434845.07105     -1866.524 5        33.438
G25  19953700.736 8 104857403.28708       982.943 8        49.469    19953702.092 9  81707071.81909       765.931 9        54.063    19953702.822 7  81707074.82207       765.978 7        47.688
G29  21198880.099 7 111400867.47707      3690.166 7        46.656    21198879.608 8  86805870.13908      2875.456 8        49.844    21198880.087 7  86805871.14307      2875.475 7        44.875
G31  21736233.294 7 114224676.16807      3314.840 7        47.250    21736231.926 6  89006236.85106      2582.990 6        38.969    21736232.018 7  89006236.85307      2582.995 7        44.750
G32  23929882.082 6 125752372.35506     -1360.822 6        41.750    23929885.452 4  97988873.87004     -1060.377 4        24.063    23929885.587 6  97988870.88006     -1060.554 6        37.594
> 2022 02 14 14 39 42.0000000  0 10
G02  22450904.632 7 117980299.42407      1044.255 7        45.406    22450901.568 6  91932689.74006       813.705 6        36.063
G06  24017973.545 6 126215305.62706     -1212.904 6        41.500    24017976.470 6  98349597.41606      -945.124 6        39.344    24017977.608 6  98349601.43206      -945.157 6        40.375
G12  21725516.475 7 114168357.48207     -1235.181 7        46.406    21725515.563 8  88962352.31408      -962.480 8        48.406    21725515.606 7  88962337.31607      -962.508 7        44.500
G20  25389058.558 6 133420403.28006      4412.556 6        39.281    25389060.262 2 103963959.10802      3438.326 2        16.188
G22  23140385.450 7 121603543.80007      -199.609 7        42.063    23140384.652 4  94756003.38804      -155.533 4        27.125
G24  25748715.666 6 135310411.99406     -2394.911 6        36.906    25748720.505 4 105436705.18504     -1866.162 4        28.219    25748720.519 5 105436711.20105     -1866.309 5        33.500
G25  19953513.679 8 104856420.34908       982.550 8        49.438    19953515.044 9  81706305.89409       765.620 9        54.094    19953515.873 7  81706308.89607       765.685 7        47.688
G29  21198177.913 7 111397177.17507      3689.936 7        46.594    21198177.357 8  86802994.58108      2875.272 8        49.875    21198177.901 7  86802995.57907      2875.250 7        44.813
G31  21735602.517 7 114221361.20007      3314.584 7        47.281    21735601.114 6  89003653.76106      2582.792 6        38.969    21735601.216 7  89003653.76007      2582.807 7        44.719
G32  23930140.927 6 125753732.89406     -1360.794 6        41.563    23930144.408 4  97989934.03704     -1060.364 4        24.031    23930144.468 6  97989931.02106     -1060.317 6        37.625
> 2022 02 14 14 39 43.0000000  0 10
G02  22450705.920 7 117979255.46107      1043.192 7        45.344    22450702.925 5  91931876.26205       812.878 5        35.969
G06  24018204.251 6 126216518.81506     -1213.903 6        41.625    24018207.317 6  98350542.75806      -945.901 6        39.281    24018208.574 6  98350546.76206      -945.820 6        40.313
G12  21725751.556 7 114169592.83007     -1235.936 7        46.313    21725750.636 8  88963314.92208      -963.064 8        48.281    21725750.647 7  88963299.92307      -963.058 7        44.344
G20  25388218.910 6 133415990.88906      4411.948 6        39.031    25388220.643 2 103960520.87902      3437.833 2        16.063
G22  23140423.712 7 121603743.70207      -200.508 7        42.063    23140422.679 4  94756159.15504      -156.241 4        27.000
G24  25749171.278 6 135312806.88406     -2395.331 6        37.094    25749176.248 4 105438571.33204     -1866.486 4        28.094    25749176.323 5 105438577.36005     -1866.523 5        33.750
G25  19953326.744 8 104855438.03608       981.641 8        49.469    19953328.113 9  81705540.45409       764.918 9        54.031    19953328.861 7  81705543.45407       764.943 7        47.781
G29  21197475.739 7 111393487.44207      3689.084 7        46.563    21197475.210 8  86800119.46508      2874.614 8        49.781    21197475.733 7  86800120.46607      2874.589 7        44.875
G31  21734971.770 7 114218046.87907      3313.630 7        47.281    21734970.423 6  89001071.17406      2582.054 6        38.906    21734970.570 7  89001071.17307      2582.043 7        44.750
G32  23930399.832 6 125755093.83406     -1361.472 6        41.531    23930403.436 3  97990994.50703     -1060.869 3        23.938    23930403.453 6  97990991.50506     -1060.988 6        37.719
> 2022 02 14 14 39 44.0000000  0 10
G02  22450507.236 7 117978212.32407      1043.264 7        45.594    22450504.421 5  91931063.42905       812.936 5        35.938
G06  24018435.412 6 126217732.68806     -1213.688 6        41.688    24018438.303 6  98351488.63106      -945.736 6        39.250    24018439.607 6  98351492.63506      -945.679 6        40.281
G12  21725986.729 7 114170828.74407     -1235.754 7        46.375    21725985.817 8  88964277.97208      -962.926 8        48.281    21725985.882 7  88964262.97307      -962.879 7        44.375
G20  25387379.136 6 133411578.90706      4412.224 6        38.813    25387381.042 2 103957082.96102      3438.148 2        15.500
G22  23140461.931 7 121603944.38707      -200.517 7        42.344    23140460.822 4  94756315.52904      -156.245 4        27.000
G24  25749627.177 6 135315201.97406     -2394.641 6        37.344    25749632.010 4 105440437.63104     -1865.955 4        28.125    25749632.119 5 105440443.65105     -1866.027 5        34.031
G25  19953139.961 8 104854456.49308       981.671 8        49.375    19953141.329 9  81704775.61609       764.936 9        54.031    19953142.263 7  81704778.61707       764.915 7        47.750
G29  21196773.851 7 111389798.43707      3689.216 7        46.625    21196773.201 8  86797244.91708      2874.712 8        49.750    21196773.867 7  86797245.92207      2874.715 7        44.844
G31  21734341.248 7 114214733.34607      3313.658 7        47.313    21734339.884 6  88998489.20106      2582.070 6        38.875    21734339.972 7  88998489.20007      2582.087 7        44.688
G32  23930658.799 6 125756455.34406     -1361.297 6        41.781    23930662.540 4  97992055.41704     -1060.744 4        24.063    23930662.491 6  97992052.40206     -1060.770 6        37.750
> 2022 02 14 14 39 45.0000000  0 10
G02  22450308.746 7 117977169.54207      1042.335 7        45.688    22450305.970 5  91930250.87205       812.211 5        35.938
G06  24018666.477 6 126218946.76106     -1214.417 6        41.500    24018669.330 6  98352434.66006      -946.299 6        39.250    24018670.697 6  98352438.67906      -946.511 6        40.313
G12  21726221.821 7 114172064.72707     -1236.260 7        46.469    21726221.010 8  88965241.07608      -963.320 8        48.313    21726221.103 7  88965226.07907      -963.294 7        44.344
G20  25386539.762 6 133407166.82506      4411.903 6        38.719    25386541.522 2 103953644.98402      3437.880 2        15.781
G22  23140500.121 7 121604145.33207      -201.338 7        42.438    23140499.032 4  94756472.10704      -156.883 4        27.000
G24  25750082.982 6 135317596.76006     -2394.890 6        37.531    25750087.708 4 105442303.69804     -1866.142 4        28.156    25750088.049 5 105442309.70405     -1865.896 5        34.031
G25  19952953.264 8 104853475.22508       980.918 8        49.469    19952954.603 9  81704010.99409       764.350 9        54.031    19952955.378 7  81704013.99807       764.347 7        47.781
G29  21196071.948 7 111386109.69107      3688.362 7        46.531    21196071.246 8  86794370.56808      2874.048 8        49.750    21196071.873 7  86794371.57307      2874.032 7        44.906
G31  21733710.739 7 114211420.11607      3312.870 7        47.344    21733709.399 6  88995907.46306      2581.454 6        38.875    21733709.371 7  88995907.46507      2581.449 7        44.688
G32  23930917.900 6 125757816.90306     -1361.903 6        41.844    23930921.617 4  97993116.37104     -1061.228 4        24.063    23930921.267 6  97993113.37106     -1061.305 6        37.656
> 2022 02 14 14 39 46.0000000  0 10
G02  22450110.317 7 117976127.52107      1041.079 7        45.563    22450107.685 5  91929438.91005       811.230 5        35.969
G06  24018897.660 6 126220161.44806     -1215.636 6        41.625    24018900.477 6  98353381.16806      -947.257 6        39.250    24018901.720 6  98353385.18406      -947.271 6        40.188
G12  21726457.056 7 114173301.20607     -1237.270 7        46.406    21726456.294 8  88966204.56608      -964.106 8        48.313    21726456.567 7  88966189.57307      -964.150 7        44.156
G20  25385700.065 6 133402755.07906      4410.931 6        38.563    25385702.024 2 103950207.26402      3437.073 2        15.469
G22  23140538.610 7 121604346.96007      -202.627 7        42.563    23140537.412 4  94756629.22204      -157.888 4        26.969
G24  25750538.740 6 135319991.65506     -2395.647 6        37.313    25750543.434 4 105444169.85004     -1866.740 4        28.188    25750543.747 5 105444175.87505     -1866.646 5        33.625
G25  19952766.645 8 104852494.67008       979.591 8        49.344    19952768.002 9  81703246.92509       763.318 9        54.031    19952768.766 7  81703249.92507       763.356 7        47.594
G29  21195370.211 7 111382421.59507      3687.199 7        46.469    21195369.420 8  86791496.72808      2873.142 8        49.781    21195369.912 7  86791497.72707      2873.132 7        44.781
G31  21733080.430 7 114208107.62907      3311.558 7        47.094    21733079.057 6  88993326.30406      2580.435 6        38.875    21733079.089 7  88993326.30307      2580.384 7        44.563
G32  23931177.012 6 125759178.94306     -1362.755 6        41.875    23931180.819 4  97994177.70304     -1061.885 4        24.125    23931180.571 6  97994174.69006     -1061.907 6        37.750
> 2022 02 14 14 39 47.0000000  0 10
G02  22449912.069 7 117975086.24907      1041.031 7        45.656    22449909.543 6  91928627.52806       811.192 6        36.000
G06  24019128.888 6 126221376.72906     -1215.377 6        41.438    24019131.727 6  98354328.14006      -947.046 6        39.250    24019133.031 6  98354332.15506      -947.010 6        40.156
G12  21726692.470 7 114174538.16307     -1237.031 7        46.469    21726691.667 8  88967168.42808      -963.920 8        48.313    21726691.841 7  88967153.42907      -963.920 7        44.406
G20  25384860.385 6 133398343.62906      4411.565 6        38.406    25384862.481 2 103946769.77402      3437.544 2        15.313
G22  23140577.154 7 121604549.25207      -202.304 7        42.563    23140575.926 4  94756786.85104      -157.638 4        27.000
G24  25750994.379 6 135322386.64106     -2395.038 6        36.906    25750999.199 4 105446036.07704     -1866.261 4        28.313    25750999.525 5 105446042.10305     -1865.984 5        33.938
G25  19952580.114 8 104851514.79408       979.726 8        49.281    19952581.535 9  81702483.38609       763.421 9        54.063    19952582.324 7  81702486.38807       763.401 7        47.844
G29  21194668.524 7 111378734.13507      3687.304 7        46.344    21194667.711 8  86788623.38308      2873.221 8        49.813    21194668.301 7  86788624.37707      2873.333 7        44.813
G31  21732450.154 7 114204795.83007      3311.616 7        46.969    21732448.849 6  88990745.68206      2580.478 6        38.844    21732448.874 7  88990745.68807      2580.446 7        44.719
G32  23931436.235 6 125760541.47106     -1362.662 6        41.813    23931440.173 4  97995239.40904     -1061.824 4        24.125    23931440.007 6  97995236.40506     -1061.621 6        37.688
> 2022 02 14 14 39 48.0000000  0 10
G02  22449714.166 7 117974045.81607      1040.389 7        45.688    22449711.549 5  91927816.79905       810.692 5        35.969
G06  24019360.584 6 126222592.71406     -1216.050 6        41.375    24019363.111 6  98355275.66306      -947.574 6        39.188    24019364.451 6  98355279.67406      -947.509 6        39.938
G12  21726927.881 7 114175775.68907     -1237.449 7        46.406    21726927.147 8  88968132.73208      -964.247 8        48.281    21726927.336 7  88968117.73507      -964.219 7        44.406
G20  25384021.198 6 133393932.61206      4411.189 6        38.219    25384023.077 2 103943332.61602      3437.267 2        15.375
G22  23140615.713 7 121604752.33107      -203.079 7        42.563    23140614.561 4  94756945.10004      -158.251 4        27.063
G24  25751450.283 6 135324781.81606     -2395.074 6        36.938    25751454.978 4 105447902.44504     -1866.290 4        28.250    25751455.633 5 105447908.43905     -1865.961 5        33.969
G25  19952393.832 8 104850535.71108       979.097 8        49.250    19952395.216 9  81701720.46309       762.929 9        54.031    19952395.944 7  81701723.46307       762.944 7        47.781
G29  21193967.071 7 111375047.42207      3686.774 7        46.313    21193966.149 8  86785750.62008      2872.807 8        49.813    21193966.730 7  86785751.62107      2872.775 7        44.844
G31  21731820.163 7 114201484.84707      3311.020 7        46.906    21731818.779 6  88988165.69806      2580.012 6        38.781    21731818.710 7  88988165.69507      2580.023 7        44.719
G32  23931695.733 6 125761904.53606     -1362.954 6        41.688    23931699.581 4  97996301.54204     -1062.042 4        24.063    23931699.326 6  97996298.53406     -1061.998 6        37.563
> 2022 02 14 14 39 49.0000000  0 10
G02  22449516.368 7 117973005.80107      1039.009 7        45.719    22449513.644 6  91927006.39906       809.615 6        36.000
G06  24019592.376 6 126223808.97106     -1217.174 6        41.469    24019594.544 6  98356223.39606      -948.450 6        39.125    24019595.845 6  98356227.41306      -948.423 6        40.094
G12  21727163.567 7 114177013.34907     -1238.506 7        46.594    21727162.654 8  88969097.14008      -965.070 8        48.219    21727162.847 7  88969082.13907      -964.969 7        44.469
G20  25383181.686 6 133389521.54606      4410.251 6        38.219    25383183.655 2 103939895.41202      3436.570 2        15.375
G22  23140654.277 7 121604955.73507      -204.372 7        42.438    23140653.294 4  94757103.58804      -159.250 4        27.000
G24  25751906.029 6 135327176.75806     -2395.575 6        37.031    25751910.722 4 105449768.63604     -1866.682 4        28.219    25751911.634 5 105449774.65305     -1866.870 5        34.281
G25  19952207.575 8 104849556.97208       977.751 8        49.281    19952208.968 9  81700957.80809       761.883 9        54.000    19952209.673 7  81700960.81107       761.868 7        47.938
G29  21193265.622 7 111371361.01107      3685.528 7        46.281    21193264.641 8  86782878.09208      2871.839 8        49.781    21193265.193 7  86782879.10607      2871.777 7        44.844
G31  21731190.014 7 114198174.23807      3309.627 7        47.000    21731188.795 6  88985585.99906      2578.929 6        38.750    21731188.784 7  88985586.00007      2578.909 7        44.688
G32  23931955.019 7 125763267.74507     -1364.042 7        42.094    23931959.033 4  97997363.78204     -1062.891 4        24.000    23931958.602 6  97997360.78006     -1063.004 6        37.594
> 2022 02 14 14 39 50.0000000  0 10
G02  22449318.602 7 117971966.59507      1038.749 7        45.844    22449315.891 6  91926196.62906       809.413 6        36.063
G06  24019824.093 6 126225025.89706     -1217.319 6        41.281    24019826.112 6  98357171.64906      -948.559 6        39.156    24019827.355 6  98357175.65806      -948.495 6        40.219
G12  21727399.174 7 114178251.54907     -1238.508 7        46.750    21727398.263 8  88970061.97208      -965.070 8        48.250    21727398.386 7  88970046.97907      -965.113 7        44.500
G20  25382341.963 6 133385110.87006      4410.387 6        37.563    25382344.390 2 103936458.52402      3436.673 2        15.219
G22  23140693.016 7 121605159.85607      -204.511 7        42.469    23140692.126 4  94757262.64304      -159.364 4        26.969
G24  25752361.929 6 135329571.86906     -2395.201 6        36.906    25752366.478 4 105451634.95404     -1866.388 4        28.344    25752367.313 5 105451640.96205     -1866.218 5        34.219
G25  19952021.412 8 104848578.97608       977.515 8        49.406    19952022.855 9  81700195.73309       761.699 9        54.000    19952023.486 8  81700198.73308       761.693 8        48.000
G29  21192564.189 7 111367675.31007      3685.317 7        46.313    21192563.271 8  86780006.11808      2871.674 8        49.813    21192563.857 7  86780007.12707      2871.644 7        44.969
G31  21730560.171 7 114194864.38907      3309.445 7        47.156    21730558.949 6  88983006.89706      2578.789 6        38.781    21730558.830 7  88983006.90307      2578.750 7        44.750
G32  23932214.522 6 125764631.48006     -1363.936 6        41.875    23932218.580 4  97998426.43104     -1062.801 4        24.000    23932218.220 6  97998423.44306     -1063.077 6        37.719
> 2022 02 14 14 39 51.0000000  0 10
G02  22449121.216 7 117970928.58507      1038.543 7        45.875    22449118.366 6  91925387.79106       809.256 6        36.063
G06  24020055.933 6 126226243.83906     -1217.203 6        40.875    24020057.871 6  98358120.69306      -948.466 6        39.094    24020058.827 6  98358124.71306      -948.474 6        40.281
G12  21727635.024 7 114179490.68507     -1238.441 7        46.781    21727634.052 8  88971027.53208      -965.017 8        48.250    21727634.256 7  88971012.52907      -964.987 7        44.500
G20  25381502.842 6 133380700.95206      4410.733 6        37.281    25381505.151 2 103933022.20702      3436.947 2        15.094
G22  23140731.949 7 121605365.10507      -204.631 7        42.344    23140731.181 4  94757422.57604      -159.453 4        26.844
G24  25752817.700 6 135331967.51806     -2394.760 6        37.406    25752822.351 4 105453501.69204     -1866.051 4        28.438    25752823.164 5 105453507.73305     -1866.141 5        33.781
G25  19951835.498 8 104847602.10608       977.512 8        49.375    19951836.965 9  81699434.53809       761.699 9        54.000    19951837.624 8  81699437.54108       761.648 8        48.031
G29  21191862.989 7 111363990.69607      3685.279 7        46.344    21191862.107 8  86777134.99208      2871.645 8        49.813    21191862.600 7  86777135.99807      2871.588 7        44.781
G31  21729930.547 7 114191555.70807      3309.293 7        47.156    21729929.331 6  88980428.70706      2578.670 6        38.750    21729929.161 7  88980428.71207      2578.590 7        44.719
G32  23932474.214 6 125765996.13006     -1363.920 6        41.938    23932478.251 4  97999489.79104     -1062.806 4        24.000    23932477.879 6  97999486.79506     -1062.859 6        37.813
> 2022 02 14 14 39 52.0000000  0 10
G02  22448923.777 7 117969890.95007      1037.887 7        45.906    22448920.894 6  91924579.24706       808.737 6        36.094
G06  24020287.806 6 126227462.04506     -1217.868 6        40.781    24020289.680 6  98359069.94806      -948.994 6        39.125    24020290.542 6  98359073.95806      -948.907 6        40.406
G12  21727870.833 7 114180729.90907     -1238.780 7        46.844    21727869.854 8  88971993.16008      -965.283 8        48.313    21727870.027 7  88971978.16207      -965.331 7        44.469
G20  25380663.836 6 133376290.95706      4410.563 6        37.438    25380665.940 2 103929585.85402      3436.781 2        15.188
G22  23140771.059 7 121605570.65807      -205.234 7        42.375    23140770.321 4  94757582.74404      -159.922 4        27.000
G24  25753273.807 6 135334362.91406     -2394.805 6        37.438    25753278.180 4 105455368.23004     -1866.081 4        28.500    25753278.845 5 105455374.24805     -1866.217 5        33.938
G25  19951649.601 8 104846625.56708       976.876 8        49.406    19951651.138 9  81698673.60009       761.202 9        54.063    19951651.827 8  81698676.59708       761.254 8        48.031
G29  21191161.980 7 111360306.35307      3684.769 7        46.250    21191160.988 8  86774264.07408      2871.246 8        49.875    21191161.497 7  86774265.08307      2871.183 7        44.719
G31  21729300.915 7 114188247.35407      3308.681 7        47.031    21729299.771 6  88977850.77106      2578.192 6        38.844    21729299.591 7  88977850.76807      2578.185 7        44.688
G32  23932733.713 7 125767360.87407     -1364.316 7        42.063    23932737.950 4  98000553.22004     -1063.099 4        24.000    23932737.631 6  98000550.20806     -1062.982 6        37.563
> 2022 02 14 14 39 53.0000000  0 10
G02  22448726.408 7 117968853.72107      1036.994 7        45.813    22448723.499 6  91923771.01406       808.047 6        36.156
G06  24020519.349 6 126228680.48906     -1218.583 6        40.344    24020521.547 6  98360019.38706      -949.548 6        39.031    24020522.449 6  98360023.39706      -949.490 6        40.063
G12  21728106.730 7 114181969.26907     -1239.422 7        46.906    21728105.683 8  88972958.89508      -965.783 8        48.344    21728105.791 7  88972943.89307      -965.772 7        44.406
G20  25379824.453 6 133371880.94906      4410.074 6        37.063    25379826.764 2 103926149.46402      3436.391 2        15.000
G22  23140810.220 7 121605776.53407      -206.076 7        42.156    23140809.497 4  94757743.16704      -160.583 4        26.875
G24  25753729.365 6 135336758.05206     -2394.922 6        37.281    25753733.981 4 105457234.57104     -1866.163 4        28.563    25753734.332 5 105457240.61505     -1866.408 5        33.781
G25  19951463.823 8 104845649.36508       975.999 8        49.375    19951465.369 9  81697912.92309       760.521 9        54.031    19951466.013 8  81697915.92308       760.554 8        48.031
G29  21190460.953 7 111356622.32607      3683.853 7        46.125    21190459.932 8  86771393.40508      2870.535 8        49.875    21190460.491 7  86771394.40907      2870.525 7        44.688
G31  21728671.454 7 114184939.37007      3307.825 7        46.938    21728670.283 6  88975273.12006      2577.531 6        38.750    21728670.108 7  88975273.11707      2577.530 7        44.688
G32  23932993.510 6 125768725.74306     -1364.995 6        41.813    23932997.644 4  98001616.76004     -1063.635 4        24.094    23932997.321 6  98001613.76206     -1063.625 6        37.531
> 2022 02 14 14 39 54.0000000  0 10
G02  22448529.033 7 117967816.77707      1037.154 7        45.906    22448526.184 6  91922963.00906       808.169 6        36.156
G06  24020751.052 6 126229899.07606     -1218.264 6        40.656    24020753.446 6  98360968.93706      -949.297 6        39.031    24020754.353 6  98360972.95306      -949.476 6        40.063
G12  21728342.588 7 114183208.64607     -1239.118 7        47.031    21728341.516 8  88973924.64208      -965.548 8        48.344    21728341.640 7  88973909.64907      -965.594 7        44.344
G20  25378985.491 6 133367470.79106      4410.588 6        37.031    25378987.583 2 103922712.98302      3436.819 2        14.750
G22  23140849.426 7 121605982.62507      -206.007 7        42.375    23140848.690 4  94757903.75704      -160.516 4        26.781
G24  25754185.380 6 135339152.84706     -2394.379 6        36.938    25754189.715 4 105459100.63604     -1865.751 4        28.594    25754189.692 5 105459106.67805     -1865.929 5        34.094
G25  19951278.108 8 104844673.38208       976.184 8        49.500    19951279.645 9  81697152.41609       760.661 9        54.063    19951280.344 8  81697155.42208       760.596 8        48.125
G29  21189760.034 7 111352938.46707      3684.090 7        46.281    21189758.906 8  86768522.86508      2870.717 8        49.875    21189759.475 7  86768523.86707      2870.705 7        44.688
G31  21728041.998 7 114181631.64407      3307.886 7        46.969    21728040.848 6  88972695.67306      2577.573 6        38.781    21728040.746 7  88972695.66407      2577.593 7        44.688
G32  23933253.321 6 125770090.63406     -1364.661 6        41.531    23933257.315 3  98002680.31503     -1063.369 3        23.969    23933257.271 6  98002677.31206     -1063.330 6        37.531
> 2022 02 14 14 39 55.0000000  0 10
G02  22448331.744 7 117966780.04907      1035.675 7        46.031    22448328.896 6  91922155.16906       807.016 6        36.031
G06  24020982.791 6 126231117.74106     -1219.711 6        40.500    24020985.357 6  98361918.54506      -950.427 6        39.000    24020986.384 6  98361922.54706      -950.368 6        40.031
G12  21728578.460 7 114184447.95007     -1240.182 7        46.875    21728577.332 8  88974890.33408      -966.380 8        48.281    21728577.434 7  88974875.34407      -966.379 7        44.281
G20  25378146.702 6 133363060.40806      4409.723 6        36.719    25378148.300 2 103919276.31702      3436.142 2        14.656
G22  23140888.560 7 121606188.83007      -207.150 7        42.469    23140887.902 4  94758064.43304      -161.416 4        26.875
G24  25754641.237 6 135341547.17206     -2395.011 6        36.906    25754645.342 4 105460966.34304     -1866.246 4        28.406    25754645.167 5 105460972.36805     -1866.181 5        33.781
G25  19951092.331 8 104843697.55708       974.788 8        49.500    19951093.947 9  81696392.03609       759.571 9        54.000    19951094.623 8  81696395.04208       759.582 8        48.156
G29  21189059.061 7 111349254.72207      3682.746 7        46.188    21189057.899 8  86765652.41908      2869.665 8        49.813    21189058.428 7  86765653.41807      2869.679 7        44.563
G31  21727412.570 7 114178324.06607      3306.589 7        46.813    21727411.436 6  88970118.34006      2576.558 6        38.719    21727411.295 7  88970118.34407      2576.518 7        44.688
G32  23933513.136 6 125771455.44006     -1365.648 6        41.688    23933516.942 3  98003743.79303     -1064.148 3        23.906    23933516.755 6  98003740.79106     -1064.350 6        37.656
> 2022 02 14 14 39 56.0000000  0 10
G02  22448134.635 7 117965744.15707      1035.774 7        45.906    22448131.769 5  91921347.98205       807.087 5        35.938
G06  24021214.697 6 126232337.09306     -1219.427 6        40.563    24021217.390 6  98362868.68806      -950.208 6        38.844    24021218.380 6  98362872.69006      -950.251 6        39.844
G12  21728814.417 7 114185687.83707     -1239.956 7        46.813    21728813.246 8  88975856.48008      -966.203 8        48.156    21728813.526 7  88975841.48207      -966.276 7        44.156
G20  25377307.806 6 133358650.42206      4410.217 6        36.656    25377309.079 2 103915839.96102      3436.574 2        14.500
G22  23140928.079 7 121606395.80607      -207.220 7        42.469    23140927.306 4  94758225.71504      -161.481 4        26.750
G24  25755097.119 6 135343941.69806     -2394.335 6        36.906    25755101.005 4 105462832.22104     -1865.715 4        28.313    25755100.690 5 105462838.24705     -1865.664 5        33.969
G25  19950906.751 8 104842722.51308       974.831 8        49.469    19950908.402 8  81695632.26008       759.600 8        53.875    19950909.105 8  81695635.25608       759.639 8        48.156
G29  21188358.310 7 111345571.71407      3682.888 7        46.313    21188357.026 8  86762782.54208      2869.777 8        49.719    21188357.570 7  86762783.54307      2869.769 7        44.438
G31  21726783.343 7 114175017.30307      3306.589 7        46.750    21726782.180 6  88967541.64406      2576.559 6        38.625    21726782.107 7  88967541.64407      2576.595 7        44.563
G32  23933772.980 6 125772820.80106     -1365.495 6        41.500    23933776.761 3  98004807.70803     -1064.025 3        23.656    23933776.589 6  98004804.70706     -1063.938 6        37.500
> 2022 02 14 14 39 57.0000000  0 10
G02  22447937.423 7 117964708.93307      1034.600 7        46.156    22447934.763 5  91920541.31705       806.177 5        35.938
G06  24021446.602 6 126233556.95106     -1220.446 6        40.438    24021449.525 6  98363819.22606      -950.996 6        38.875    24021450.627 6  98363823.22806      -950.943 6        39.969
G12  21729050.480 7 114186928.11507     -1240.794 7        46.781    21729049.245 8  88976822.92908      -966.853 8        48.125    21729049.552 7  88976807.92807      -966.817 7        44.250
G20  25376468.580 6 133354240.67706      4409.173 6        36.375    25376469.961 2 103912403.81002      3435.696 2        14.375
G22  23140967.527 7 121606603.35707      -208.126 7        42.719    23140966.786 4  94758387.44704      -162.180 4        26.719
G24  25755552.806 6 135346336.23806     -2394.842 6        36.938    25755556.695 4 105464698.08804     -1866.113 4        28.375    25755556.461 5 105464704.08905     -1866.069 5        34.188
G25  19950721.373 8 104841748.04708       973.843 8        49.531    19950722.968 8  81694872.93608       758.836 8        53.875    19950723.700 8  81694875.93608       758.898 8        48.281
G29  21187657.588 7 111341889.25707      3681.917 7        46.438    21187656.269 8  86759913.09608      2869.022 8        49.719    21187656.837 7  86759914.10007      2868.908 7        44.625
G31  21726154.300 7 114171711.15207      3305.519 7        46.563    21726153.032 6  88964965.42206      2575.727 6        38.594    21726153.085 7  88964965.42607      2575.762 7        44.719
G32  23934032.830 6 125774186.54106     -1366.144 6        41.281    23934036.634 3  98005871.92403     -1064.523 3        23.563    23934036.419 6  98005868.93006     -1064.575 6        37.219
> 2022 02 14 14 39 58.0000000  0 10
G02  22447740.578 7 117963674.29807      1034.400 7        46.000    22447737.864 6  91919735.10706       806.031 6        36.000
G06  24021678.860 6 126234777.25106     -1220.321 6        40.469    24021681.728 6  98364770.10506      -950.895 6        38.813    24021683.202 6  98364774.12506      -950.947 6        39.625
G12  21729286.427 7 114188168.70507     -1240.662 7        46.781    21729285.297 8  88977789.62008      -966.745 8        48.125    21729285.603 7  88977774.62507      -966.777 7        44.156
G20  25375629.587 6 133349831.08506      4409.771 6        36.813    25375630.852 2 103908967.77002      3436.189 2        14.375
G22  23141007.099 7 121606811.43907      -208.223 7        42.500    23141006.364 4  94758549.58104      -162.237 4        26.750
G24  25756008.215 6 135348730.71506     -2394.423 6        37.156    25756012.340 4 105466563.90704     -1865.784 4        28.438    25756012.370 5 105466569.94305     -1865.774 5        34.031
G25  19950536.066 8 104840774.13208       973.721 8        49.531    19950537.633 8  81694114.04108       758.746 8        53.875    19950538.374 8  81694117.04208       758.762 8        48.313
G29  21186956.923 7 111338207.29707      3681.776 7        46.375    21186955.602 8  86757044.03608      2868.918 8        49.781    21186956.146 7  86757045.03607      2868.953 7        44.594
G31  21725525.184 7 114168405.55907      3305.428 7        46.563    21725523.991 6  88962389.63506      2575.659 6        38.563    21725524.030 7  88962389.64107      2575.580 7        44.656
G32  23934292.771 6 125775552.61806     -1366.196 6        41.344    23934296.605 3  98006936.39003     -1064.562 3        23.344    23934296.491 6  98006933.37106     -1064.344 6        37.656
> 2022 02 14 14 39 59.0000000  0 10
G02  22447543.788 7 117962640.35407      1033.753 7        45.750    22447541.104 6  91918929.43706       805.520 6        36.031
G06  24021911.287 6 126235998.11206     -1221.039 6        40.250    24021914.046 6  98365721.43206      -951.463 6        38.844    24021915.587 6  98365725.42706      -951.333 6        39.938
G12  21729522.657 7 114189409.72107     -1241.104 7        46.875    21729521.426 8  88978756.64608      -967.094 8        48.125    21729521.749 7  88978741.64707      -967.208 7        44.156
G20  25374790.350 6 133345421.74706      4409.312 6        36.688    25374791.811 2 103905531.92802      3435.833 2        14.406
G22  23141046.853 7 121607020.11807      -208.867 7        42.531    23141046.068 4  94758712.19404      -162.754 4        26.750
G24  25756463.657 6 135351125.23306     -2394.228 6        37.875    25756468.007 4 105468429.77104     -1865.634 4        28.531    25756468.061 5 105468435.80505     -1865.816 5        34.000
G25  19950350.829 8 104839800.83908       973.099 8        49.688    19950352.418 8  81693355.63008       758.258 8        53.938    19950353.218 8  81693358.63308       758.237 8        48.281
G29  21186256.394 7 111334525.92107      3681.219 7        46.438    21186255.046 8  86754175.42908      2868.479 8        49.844    21186255.625 7  86754176.43907      2868.452 7        44.594
G31  21724896.326 7 114165100.62407      3304.740 7        46.438    21724895.089 6  88959814.36106      2575.123 6        38.594    21724895.130 7  88959814.36007      2575.204 7        44.750
G32  23934552.665 6 125776919.06606     -1366.463 6        41.406    23934556.657 3  98008001.15003     -1064.769 3        23.469    23934556.741 6  98007998.15806     -1064.781 6        37.781
> 2022 02 14 14 40  0.0000000  0 10
G02  22447346.991 7 117961606.92007      1032.816 7        45.969    22447344.446 6  91918124.16406       804.785 6        36.063
G06  24022143.725 6 126237219.31706     -1221.760 6        40.656    24022146.441 6  98366673.02006      -952.021 6        38.875    24022148.003 6  98366677.02706      -952.130 6        40.031
G12  21729758.755 7 114190650.96907     -1241.777 7        46.969    21729757.599 8  88979723.85208      -967.621 8        48.125    21729757.867 7  88979708.85007      -967.605 7        44.156
G20  25373951.272 6 133341012.48006      4408.748 6        37.469    25373952.728 2 103902096.12102      3435.402 2        15.188
G22  23141086.377 7 121607229.23207      -209.702 7        42.688    23141085.830 4  94758875.13404      -163.396 4        26.813
G24  25756919.112 6 135353519.61406     -2394.664 6        37.938    25756923.621 4 105470295.51804     -1865.974 4        28.656    25756923.960 5 105470301.54205     -1865.985 5        33.938
G25  19950165.786 8 104838827.98608       972.263 8        49.750    19950167.288 8  81692597.56408       757.604 8        53.969    19950168.050 8  81692600.56608       757.620 8        48.281
G29  21185555.845 7 111330844.93807      3680.396 7        46.594    21185554.571 8  86751307.13408      2867.838 8        49.875    21185555.327 7  86751308.13707      2867.851 7        44.656
G31  21724267.482 7 114161796.14907      3303.827 7        46.594    21724266.258 6  88957239.44706      2574.406 6        38.563    21724266.468 7  88957239.44807      2574.442 7        44.625
G32  23934812.868 6 125778285.76306     -1367.169 6        41.438    23934816.780 3  98009066.10403     -1065.325 3        23.438    23934816.915 6  98009063.09906     -1065.387 6        37.625
> 2022 02 14 14 40  1.0000000  0 10
G02  22447150.434 7 117960574.02307      1033.091 7        45.875    22447147.896 6  91917319.31106       805.002 6        36.031
G06  24022376.731 6 126238440.92506     -1221.273 6        40.563    24022378.903 6  98367624.92206      -951.640 6        38.875    24022380.548 6  98367628.93306      -951.768 6        40.031
G12  21729994.902 7 114191892.49107     -1241.123 7        47.000    21729993.835 8  88980691.27008      -967.111 8        48.125    21729994.183 7  88980676.27107      -967.150 7        44.031
G20  25373112.202 6 133336603.32506      4409.550 6        37.219    25373113.722 2 103898660.41902      3435.983 2        15.281
G22  23141126.102 7 121607438.80107      -209.375 7        42.719    23141125.663 4  94759038.43804      -163.152 4        26.844
G24  25757374.655 6 135355913.89106     -2393.677 6        37.750    25757379.234 4 105472161.18904     -1865.204 4        28.656    25757379.280 5 105472167.19905     -1865.277 5        33.531
G25  19949980.800 8 104837855.62208       972.622 8        49.875    19949982.253 8  81691839.87708       757.885 8        53.969    19949982.904 8  81691842.88008       757.890 8        48.219
G29  21184855.467 7 111327164.39507      3680.823 7        46.688    21184854.180 8  86748439.17908      2868.171 8        49.875    21184855.078 7  86748440.18807      2868.168 7        44.625
G31  21723638.753 7 114158492.17807      3304.162 7        46.594    21723637.534 6  88954664.92606      2574.669 6        38.563    21723637.796 7  88954664.92307      2574.713 7        44.594
G32  23935072.877 6 125779652.70306     -1366.514 6        41.688    23935076.885 3  98010131.24803     -1064.825 3        23.469    23935077.201 6  98010128.24006     -1064.843 6        37.781
> 2022 02 14 14 40  2.0000000  0 10
G02  22446953.998 7 117959541.67707      1031.886 7        45.969    22446951.435 6  91916514.88506       804.065 6        36.063
G06  24022609.377 6 126239662.92306     -1222.430 6        40.500    24022611.454 6  98368577.12506      -952.535 6        38.906    24022613.028 6  98368581.12806      -952.462 6        40.188
G12  21730231.182 7 114193134.28407     -1242.092 7        46.875    21730230.120 8  88981658.89908      -967.862 8        48.156    21730230.389 7  88981643.89907      -967.810 7        43.969
G20  25372272.986 6 133332194.29106      4408.643 6        37.156    25372274.779 2 103895224.81602      3435.304 2        15.125
G22  23141165.963 7 121607648.84807      -210.441 7        42.906    23141165.603 4  94759202.11004      -163.978 4        26.969
G24  25757830.103 6 135358308.05506     -2394.250 6        37.844    25757834.794 4 105474026.76704     -1865.644 4        28.688    25757835.169 5 105474032.78405     -1865.702 5        34.438
G25  19949795.896 8 104836883.74708       971.463 8        49.750    19949797.311 9  81691082.57209       756.985 9        54.000    19949797.941 8  81691085.57508       756.999 8        48.344
G29  21184155.163 7 111323484.30007      3679.687 7        46.594    21184153.875 8  86745571.57308      2867.289 8        49.969    21184154.703 7  86745572.58207      2867.243 7        44.688
G31  21723010.090 7 114155188.70107      3303.117 7        46.781    21723008.896 6  88952090.78706      2573.858 6        38.563    21723009.003 7  88952090.79407      2573.830 7        44.563
G32  23935333.254 6 125781019.93406     -1367.599 6        41.031    23935337.049 3  98011196.62403     -1065.664 3        23.625    23935337.478 6  98011193.59506     -1065.471 6        37.781
> 2022 02 14 14 40  3.0000000  0 10
G02  22446757.537 7 117958510.05607      1031.165 7        45.969    22446755.104 6  91915711.02606       803.505 6        36.063
G06  24022842.212 6 126240885.49506     -1222.884 6        40.625    24022844.113 6  98369529.77906      -952.897 6        39.000    24022845.551 6  98369533.79306      -952.943 6        40.281
G12  21730467.489 7 114194376.53607     -1242.542 7        46.813    21730466.494 8  88982626.88808      -968.212 8        48.125    21730466.778 7  88982611.88707      -968.127 7        44.063
G20  25371434.119 6 133327785.54606      4408.482 6        37.688    25371435.804 2 103891789.42502      3435.162 2        15.500
G22  23141206.273 7 121607859.54907      -211.072 7        42.563    23141205.642 4  94759366.29304      -164.469 4        26.813
G24  25758285.592 6 135360702.31906     -2394.395 6        37.750    25758290.399 4 105475892.42204     -1865.761 4        28.656    25758291.140 5 105475898.43705     -1865.843 5        34.531
G25  19949611.174 8 104835912.53408       970.738 8        49.625    19949612.499 9  81690325.78309       756.418 9        54.000    19949613.091 8  81690328.78208       756.510 8        48.375
G29  21183454.969 7 111319804.81907      3679.095 7        46.625    21183453.691 8  86742704.44808      2866.829 8        49.969    21183454.510 7  86742705.45507      2866.806 7        44.781
G31  21722381.668 7 114151885.93207      3302.334 7        46.656    21722380.391 6  88949517.20106      2573.246 6        38.563    21722380.497 7  88949517.19907      2573.224 7        44.688
G32  23935593.482 6 125782387.58806     -1368.139 6        41.250    23935597.302 3  98012262.32803     -1066.070 3        23.625    23935597.749 6  98012259.31206     -1065.929 6        38.063
> 2022 02 14 14 40  4.0000000  0 10
G02  22446561.338 7 117957478.98907      1031.211 7        45.969    22446558.898 6  91914907.59706       803.545 6        36.031
G06  24023075.187 6 126242108.49806     -1222.863 6        40.594    24023076.852 6  98370482.76706      -952.881 6        39.000    24023078.341 6  98370486.76706      -952.830 6        40.250
G12  21730703.937 7 114195619.07007     -1242.293 7        46.719    21730702.922 8  88983595.09508      -968.016 8        48.125    21730703.317 7  88983580.09807      -967.951 7        44.031
G20  25370595.697 6 133323376.91706      4408.996 6        37.313    25370596.834 2 103888354.13902      3435.564 2        15.563
G22  23141246.685 7 121608070.72007      -210.942 7        42.500    23141245.780 4  94759530.84004      -164.372 4        26.781
G24  25758741.240 6 135363096.45106     -2393.658 6        37.656    25758745.999 4 105477757.97804     -1865.180 4        28.719    25758746.989 5 105477764.00605     -1865.308 5        34.531
G25  19949426.526 8 104834941.80408       970.919 8        49.594    19949427.776 9  81689569.36909       756.563 9        54.000    19949428.294 8  81689572.37308       756.491 8        48.313
G29  21182754.856 7 111316125.79007      3679.216 7        46.656    21182753.587 8  86739837.67308      2866.926 8        49.969    21182754.361 7  86739838.67607      2866.892 7        44.719
G31  21721753.295 7 114148583.66607      3302.412 7        46.844    21721751.990 6  88946944.00906      2573.315 6        38.563    21721752.117 7  88946944.00607      2573.348 7        44.750
G32  23935853.836 6 125783755.49706     -1367.543 6        41.281    23935857.644 3  98013328.22203     -1065.617 3        23.531    23935857.964 6  98013325.24306     -1065.650 6        37.844
> 2022 02 14 14 40  5.0000000  0 10
G02  22446365.285 7 117956448.30007      1029.796 7        45.938    22446362.751 6  91914104.46206       802.440 6        36.063
G06  24023307.921 6 126243331.69806     -1224.009 6        40.406    24023309.631 6  98371435.91006      -953.770 6        39.031    24023311.115 6  98371439.92406      -953.843 6        40.344
G12  21730940.332 7 114196861.71107     -1243.349 7        46.594    21730939.373 8  88984563.38808      -968.844 8        48.125    21730939.736 7  88984548.39907      -968.876 7        43.844
G20  25369756.953 6 133318968.23006      4408.185 6        37.438    25369757.881 2 103884918.78802      3434.905 2        15.406
G22  23141286.729 7 121608282.19607      -212.312 7        42.375    23141286.015 4  94759695.63104      -165.436 4        26.656
G24  25759196.912 6 135365490.33106     -2394.473 6        37.563    25759201.497 4 105479623.33404     -1865.814 4        28.813    25759202.497 5 105479629.36205     -1865.653 5        34.594
G25  19949241.812 8 104833971.39208       969.595 8        49.563    19949243.107 9  81688813.20609       755.525 9        54.031    19949243.663 8  81688816.20708       755.571 8        48.188
G29  21182054.769 7 111312447.03607      3677.888 7        46.750    21182053.541 8  86736971.11108      2865.883 8        50.000    21182054.392 7  86736972.10807      2865.942 7        44.656
G31  21721125.060 7 114145281.74507      3301.062 7        46.688    21721123.651 6  88944371.08206      2572.253 6        38.594    21721123.704 7  88944371.07807      2572.292 7        44.500
G32  23936114.153 6 125785123.53606     -1368.908 6        41.313    23936117.964 3  98014394.22803     -1066.691 3        23.531    23936118.319 6  98014391.22206     -1066.753 6        37.563
> 2022 02 14 14 40  6.0000000  0 10
G02  22446169.303 7 117955418.48707      1029.462 7        45.813    22446166.782 6  91913302.01006       802.176 6        36.094
G06  24023540.686 6 126244555.63406     -1224.110 6        40.188    24023542.540 6  98372389.62606      -953.851 6        39.094    24023544.097 6  98372393.64506      -953.937 6        40.188
G12  21731176.920 7 114198104.95107     -1243.353 7        46.500    21731175.944 8  88985532.14608      -968.847 8        48.125    21731176.379 7  88985517.14507      -968.878 7        43.750
G20  25368918.342 6 133314559.99806      4408.228 6        36.906    25368919.063 2 103881483.81602      3434.990 2        15.594
G22  23141327.229 7 121608494.46307      -212.518 7        42.281    23141326.358 4  94759861.02704      -165.595 4        26.688
G24  25759652.490 6 135367884.42306     -2394.081 6        37.375    25759657.048 4 105481488.86304     -1865.520 4        28.906    25759658.414 5 105481494.88605     -1865.347 5        34.406
G25  19949057.205 8 104833001.80208       969.364 8        49.469    19949058.599 9  81688057.68109       755.345 9        54.031    19949059.111 8  81688060.68308       755.355 8        48.156
G29  21181354.773 7 111308769.04207      3677.745 7        46.719    21181353.642 8  86734105.14408      2865.774 8        50.031    21181354.447 7  86734106.15107      2865.736 7        44.625
G31  21720497.002 7 114141980.63907      3300.825 7        46.594    21720495.468 6  88941798.79306      2572.067 6        38.594    21720495.586 7  88941798.80407      2572.008 7        44.656
G32  23936374.441 6 125786492.14206     -1368.704 6        40.813    23936378.391 3  98015460.67103     -1066.520 3        23.563    23936378.737 6  98015457.66306     -1066.493 6        37.938
> 2022 02 14 14 40  7.0000000  0 10
G02  22445973.522 7 117954389.28707      1028.433 7        45.688    22445970.934 6  91912500.03606       801.376 6        36.094
G06  24023773.567 6 126245780.02606     -1224.948 6        39.875    24023775.534 6  98373343.69506      -954.505 6        39.063    24023777.093 6  98373347.71406      -954.563 6        40.281
G12  21731413.542 7 114199348.52907     -1244.106 7        46.344    21731412.578 8  88986501.16508      -969.434 8        48.125    21731413.238 7  88986486.17007      -969.482 7        43.875
G20  25368079.528 6 133310151.93006      4407.537 6        37.031    25368080.249 2 103878048.95902      3434.411 2        15.688
G22  23141367.818 7 121608707.26007      -213.354 7        42.125    23141366.782 4  94760026.83604      -166.248 4        26.625
G24  25760108.073 6 135370278.47006     -2394.333 6        37.281    25760112.616 4 105483354.35504     -1865.720 4        28.906    25760113.823 5 105483360.37005     -1865.714 5        33.938
G25  19948872.734 8 104832032.74808       968.307 8        49.375    19948874.189 9  81687302.57509       754.526 9        54.031    19948874.648 8  81687305.57208       754.567 8        48.125
G29  21180655.009 7 111305091.56307      3676.787 7        46.625    21180653.838 8  86731239.57808      2865.029 8        50.063    21180654.836 7  86731240.58307      2865.077 7        44.594
G31  21719869.027 7 114138680.12407      3299.874 7        46.563    21719867.393 6  88939226.96506      2571.331 6        38.563    21719867.526 7  88939226.96907      2571.236 7        44.563
G32  23936634.790 6 125787861.07806     -1369.496 6        41.000    23936638.854 3  98016527.37303     -1067.143 3        23.594    23936639.025 6  98016524.37706     -1067.111 6        37.875
> 2022 02 14 14 40  8.0000000  0 10
G02  22445777.890 7 117953360.93207      1027.905 7        45.813    22445775.229 6  91911698.72106       800.965 6        36.063
G06  24024006.307 6 126247005.11606     -1225.557 6        39.969    24024008.666 6  98374298.30906      -954.978 6        39.031    24024010.156 6  98374302.31006      -954.805 6        40.406
G12  21731650.236 7 114200592.67207     -1244.508 7        46.469    21731649.319 8  88987470.62508      -969.742 8        48.094    21731649.913 7  88987455.62007      -969.612 7        43.719
G20  25367241.149 6 133305744.26506      4407.391 6        37.344    25367241.516 2 103874614.43702      3434.297 2        16.031
G22  23141408.414 7 121608920.81307      -213.965 7        42.063    23141407.339 4  94760193.24404      -166.725 4        26.563
G24  25760563.789 6 135372672.70506     -2394.267 6        37.094    25760568.221 4 105485219.99304     -1865.660 4        28.844    25760569.179 5 105485226.02005     -1865.688 5        34.000
G25  19948688.486 8 104831064.47308       967.833 8        49.500    19948689.931 9  81686548.07509       754.160 9        54.000    19948690.415 8  81686551.07408       754.211 8        48.125
G29  21179955.273 7 111301414.81007      3676.346 7        46.813    21179954.172 8  86728374.57708      2864.688 8        50.063    21179955.056 7  86728375.58407      2864.592 7        44.688
G31  21719241.070 7 114135380.39107      3299.355 7        46.625    21719239.465 6  88936655.74606      2570.930 6        38.531    21719239.594 7  88936655.75007      2570.910 7        44.719
G32  23936895.478 6 125789230.57206     -1369.790 6        40.844    23936899.479 3  98017594.51303     -1067.363 3        23.469    23936899.633 6  98017591.49606     -1067.246 6        38.063
> 2022 02 14 14 40  9.0000000  0 10
G02  22445582.269 7 117952332.98107      1028.131 7        45.688    22445579.609 6  91910897.72306       801.138 6        36.094
G06  24024239.453 6 126248230.45406     -1225.086 6        40.063    24024241.857 6  98375253.11806      -954.615 6        39.063    24024243.488 6  98375257.12906      -954.585 6        40.313
G12  21731887.081 7 114201836.93307     -1243.912 7        46.344    21731886.087 8  88988440.18008      -969.285 8        48.094    21731886.832 7  88988425.17407      -969.270 7        43.563
G20  25366402.378 6 133301336.56606      4408.232 6        37.375    25366402.778 2 103871179.86802      3434.988 2        16.063
G22  23141448.946 7 121609134.69007      -213.630 7        42.031    23141448.035 4  94760359.90804      -166.471 4        26.563
G24  25761019.435 6 135375066.68106     -2393.318 6        37.500    25761023.781 4 105487085.43104     -1864.935 4        28.938    25761024.613 5 105487091.46405     -1865.031 5        34.094
G25  19948504.291 8 104830096.52508       968.187 8        49.563    19948505.732 9  81685793.82909       754.427 9        54.000    19948506.241 8  81685796.83608       754.392 8        48.125
G29  21179255.824 7 111297738.35707      3676.749 7        46.781    21179254.569 8  86725509.80808      2864.998 8        50.094    21179255.342 7  86725510.81607      2864.930 7        44.750
G31  21718613.222 7 114132081.02807      3299.645 7        46.656    21718611.609 6  88934084.81306      2571.149 6        38.531    21718611.748 7  88934084.82407      2571.115 7        44.719
G32  23937155.920 6 125790600.18106     -1369.185 6        40.656    23937160.125 3  98018661.73203     -1066.885 3        23.656    23937160.242 6  98018658.72306     -1066.897 6        37.938
> 2022 02 14 14 40 10.0000000  0 10
G02  22445386.775 7 117951305.86407      1026.754 7        45.750    22445384.154 6  91910097.37306       800.065 6        36.031
G06  24024472.968 6 126249456.49206     -1226.324 6        40.094    24024475.177 6  98376208.46906      -955.568 6        39.000    24024476.750 6  98376212.46906      -955.504 6        40.375
G12  21732124.018 7 114203081.76907     -1245.131 7        46.375    21732122.966 8  88989410.17908      -970.233 8        48.031    21732123.655 7  88989395.17107      -970.152 7        43.625
G20  25365563.545 6 133296929.26506      4407.135 6        37.344    25365564.134 2 103867745.60802      3434.122 2        15.656
G22  23141489.903 7 121609349.32407      -214.938 7        42.031    23141488.893 4  94760527.15604      -167.472 4        26.406
G24  25761474.790 6 135377460.87206     -2394.158 6        37.781    25761479.417 4 105488951.02904     -1865.572 4        28.906    25761480.200 5 105488957.03505     -1865.424 5        34.000
G25  19948320.305 8 104829129.36308       966.875 8        49.438    19948321.689 8  81685040.19508       753.409 8        53.938    19948322.146 8  81685043.20108       753.375 8        48.094
G29  21178556.417 7 111294062.64407      3675.374 7        46.750    21178555.109 8  86722645.61608      2863.927 8        50.063    21178555.814 7  86722646.61007      2864.036 7        44.656
G31  21717985.470 7 114128782.47107      3298.214 7        46.813    21717983.905 6  88931514.50806      2570.040 6        38.469    21717984.033 7  88931514.51507      2570.057 7        44.750
G32  23937416.810 6 125791970.34906     -1370.386 6        40.281    23937420.838 3  98019729.39003     -1067.827 3        23.531    23937421.183 6  98019726.38406     -1067.788 6        38.031
> 2022 02 14 14 40 11.0000000  0 10
G02  22445191.336 7 117950279.19107      1025.833 7        45.750    22445188.780 6  91909297.36906       799.350 6        36.063
G06  24024706.185 6 126250682.78906     -1227.066 6        40.344    24024708.556 6  98377164.02606      -956.154 6        39.031    24024710.123 6  98377168.04306      -956.283 6        40.313
G12  21732361.004 7 114204326.75007     -1245.666 7        46.406    21732359.873 8  88990380.29508      -970.648 8        48.000    21732360.561 7  88990365.29507      -970.624 7        43.563
G20  25364724.716 6 133292521.95706      4406.826 6        37.625    25364725.491 2 103864311.33802      3433.866 2        15.875
G22  23141530.965 7 121609564.31107      -215.846 7        42.000    23141529.795 4  94760694.67304      -168.192 4        26.406
G24  25761930.273 6 135379854.83506     -2394.650 6        38.156    25761934.977 4 105490816.45404     -1865.958 4        29.063    25761935.494 5 105490822.46305     -1865.603 5        34.125
G25  19948136.299 8 104828162.57308       965.945 8        49.625    19948137.713 8  81684286.85208       752.683 8        53.938    19948138.238 8  81684289.85108       752.697 8        48.125
G29  21177857.046 7 111290387.25907      3674.605 7        46.813    21177855.702 8  86719781.68208      2863.330 8        50.063    21177856.378 7  86719782.68207      2863.270 7        44.719
G31  21717357.864 7 114125484.30307      3297.317 7        46.875    21717356.268 6  88928944.50906      2569.338 6        38.406    21717356.449 7  88928944.51007      2569.413 7        44.656
G32  23937677.412 6 125793340.66406     -1371.088 6        40.219    23937681.579 3  98020797.16403     -1068.396 3        23.500    23937681.910 6  98020794.14106     -1068.114 6        37.906
> 2022 02 14 14 40 12.0000000  0 10
G02  22444996.118 7 117949253.13107      1026.132 7        45.906    22444993.522 6  91908497.83906       799.587 6        36.094
G06  24024939.641 6 126251909.58506     -1226.658 6        40.406    24024942.024 6  98378119.96706      -955.831 6        39.031    24024943.539 6  98378123.98206      -955.854 6        40.375
G12  21732597.963 7 114205572.09407     -1245.181 7        46.500    21732596.851 8  88991350.69108      -970.265 8        48.031    21732597.589 7  88991335.69007      -970.236 7        43.500
G20  25363886.062 6 133288114.88806      4407.250 6        37.406    25363886.887 2 103860877.25602      3434.216 2        16.000
G22  23141571.961 7 121609779.84907      -215.428 7        42.063    23141570.790 4  94760862.62104      -167.856 4        26.375
G24  25762386.056 6 135382248.75506     -2393.540 6        38.188    25762390.524 4 105492681.84504     -1865.104 4        29.188    25762391.190 5 105492687.86005     -1864.988 5        34.219
G25  19947952.333 8 104827196.34308       966.316 8        49.594    19947953.844 8  81683533.94708       752.976 8        53.969    19947954.400 8  81683536.94208       753.028 8        48.094
G29  21177157.680 7 111286712.39307      3675.026 7        46.875    21177156.394 8  86716918.14908      2863.659 8        50.094    21177157.089 7  86716919.14807      2863.573 7        44.719
G31  21716730.293 7 114122186.72107      3297.671 7        46.906    21716728.761 6  88926374.96506      2569.615 6        38.438    21716728.972 7  88926374.96907      2569.614 7        44.625
G32  23937938.260 6 125794711.32606     -1370.433 6        39.938    23937942.395 3  98021865.21303     -1067.870 3        23.625    23937942.906 6  98021862.19606     -1067.854 6        38.000
> 2022 02 14 14 40 13.0000000  0 10
G02  22444801.142 7 117948228.21007      1025.010 7        45.906    22444798.501 6  91907699.20006       798.710 6        36.063
G06  24025173.195 6 126253137.35006     -1227.656 6        40.281    24025175.675 6  98379076.66506      -956.616 6        38.969    24025177.150 6  98379080.68206      -956.577 6        40.156
G12  21732835.114 7 114206818.29607     -1245.978 7        46.563    21732833.990 8  88992321.75808      -970.891 8        48.000    21732834.789 7  88992306.76007      -970.808 7        43.594
G20  25363047.800 6 133283708.47906      4406.804 6        37.813    25363048.377 2 103857443.70302      3433.849 2        16.375
G22  23141613.105 7 121609996.43307      -216.372 7        42.031    23141612.010 4  94761031.38504      -168.599 4        26.406
G24  25762841.648 6 135384643.18006     -2394.064 6        38.031    25762846.169 4 105494547.62804     -1865.504 4        29.344    25762847.117 5 105494553.63805     -1865.506 5        34.344
G25  19947768.753 8 104826231.18808       965.221 8        49.563    19947770.181 8  81682781.87608       752.121 8        53.938    19947770.774 8  81682784.87908       752.087 8        48.156
G29  21176458.510 7 111283038.56007      3674.005 7        46.875    21176457.283 8  86714055.42408      2862.861 8        50.063    21176457.986 7  86714056.43407      2862.788 7        44.781
G31  21716102.926 7 114118890.24007      3296.624 7        46.969    21716101.464 6  88923806.28106      2568.797 6        38.406    21716101.648 7  88923806.28207      2568.810 7        44.656
G32  23938199.296 6 125796082.82006     -1371.207 6        39.844    23938203.372 3  98022933.91703     -1068.469 3        23.531    23938203.940 6  98022930.89506     -1068.366 6        37.750
> 2022 02 14 14 40 14.0000000  0 10
G02  22444606.027 7 117947203.46207      1024.561 7        45.906    22444603.498 6  91906900.69606       798.351 6        36.094
G06  24025407.025 6 126254365.18106     -1228.177 6        40.094    24025409.335 6  98380033.41806      -957.024 6        38.969    24025410.756 6  98380037.41806      -956.826 6        40.313
G12  21733072.248 7 114208064.39207     -1246.218 7        46.625    21733071.107 8  88993292.74108      -971.082 8        48.000    21733071.789 7  88993277.75107      -971.216 7        43.563
G20  25362209.079 6 133279301.83806      4406.476 6        38.063    25362209.912 2 103854009.96102      3433.636 2        16.188
G22  23141654.385 7 121610213.13007      -216.965 7        42.250    23141653.256 4  94761200.23804      -169.057 4        26.438
G24  25763297.181 6 135387037.11806     -2393.832 6        37.531    25763301.702 4 105496413.03504     -1865.321 4        29.375    25763302.915 5 105496419.02705     -1865.300 5        34.000
G25  19947585.196 8 104825266.14908       964.771 8        49.531    19947586.541 8  81682029.89908       751.767 8        53.938    19947587.190 8  81682032.89708       751.791 8        48.156
G29  21175759.306 7 111279364.81107      3673.484 7        46.938    21175758.189 8  86711192.76408      2862.449 8        50.063    21175758.962 7  86711193.76407      2862.402 7        44.875
G31  21715475.608 7 114115593.89807      3296.102 7        47.094    21715474.198 6  88921237.70506      2568.386 6        38.406    21715474.416 7  88921237.70507      2568.425 7        44.688
G32  23938460.432 6 125797454.22006     -1371.421 6        39.750    23938464.381 3  98024002.53403     -1068.636 3        23.438    23938464.801 6  98023999.52906     -1068.739 6        37.813
> 2022 02 14 14 40 15.0000000  0 10
G02  22444411.109 7 117946179.17307      1022.814 7        46.000    22444408.571 6  91906102.55006       796.998 6        36.094
G06  24025641.001 6 126255593.27406     -1229.568 6        39.781    24025643.035 6  98380990.37206      -958.103 6        38.938    24025644.587 6  98380994.37606      -958.011 6        40.219
G12  21733309.383 7 114209310.68707     -1247.591 7        46.563    21733308.273 8  88994263.87808      -972.148 8        48.031    21733308.923 7  88994248.88107      -972.136 7        43.500
G20  25361370.449 6 133274895.21806      4405.519 6        38.125    25361371.394 2 103850576.23902      3432.866 2        16.469
G22  23141695.636 7 121610430.19707      -218.495 7        42.063    23141694.601 4  94761369.38104      -170.262 4        26.375
G24  25763752.685 6 135389430.87006     -2394.752 6        37.406    25763757.204 4 105498278.29204     -1866.043 4        29.250    25763758.350 5 105498284.31405     -1866.105 5        33.781
G25  19947401.605 8 104824301.48408       963.256 8        49.500    19947402.971 8  81681278.21308       750.590 8        53.969    19947403.593 8  81681281.21508       750.569 8        48.188
G29  21175060.197 7 111275691.40207      3672.023 7        46.750    21175059.163 8  86708330.37008      2861.317 8        50.094    21175059.857 7  86708331.36607      2861.302 7        44.875
G31  21714848.375 7 114112297.97007      3294.518 7        47.094    21714847.000 6  88918669.44906      2567.159 6        38.438    21714847.155 7  88918669.45307      2567.111 7        44.563
G32  23938721.206 6 125798825.80506     -1372.815 6        39.750    23938725.367 3  98025071.29603     -1069.728 3        23.469    23938725.683 6  98025068.27606     -1069.624 6        37.781
> 2022 02 14 14 40 16.0000000  0 10
G02  22444216.320 7 117945155.21907      1023.599 7        46.063    22444213.698 6  91905304.66706       797.612 6        36.031
G06  24025875.068 6 126256821.57306     -1228.513 6        40.063    24025876.776 6  98381947.48306      -957.282 6        38.813    24025878.379 6  98381951.50206      -957.289 6        40.250
G12  21733546.638 7 114210557.04007     -1246.536 7        46.625    21733545.443 7  88995235.06107      -971.326 7        47.969    21733546.154 7  88995220.06407      -971.357 7        43.500
G20  25360531.855 6 133270488.50306      4406.673 6        38.281    25360532.826 2 103847142.43702      3433.793 2        16.625
G22  23141736.948 7 121610647.51907      -217.661 7        42.063    23141735.950 4  94761538.72304      -169.600 4        26.188
G24  25764208.251 6 135391824.30306     -2393.454 6        36.875    25764212.647 4 105500143.30504     -1865.022 4        29.094    25764213.345 5 105500149.34005     -1865.166 5        34.125
G25  19947218.063 8 104823337.11708       964.029 8        49.594    19947219.456 8  81680526.75908       751.192 8        53.906    19947220.055 8  81680529.75908       751.218 8        48.250
G29  21174361.198 7 111272018.24107      3672.801 7        46.875    21174360.177 8  86705468.16708      2861.925 8        50.063    21174360.754 7  86705469.16207      2861.984 7        44.969
G31  21714221.172 7 114109002.34607      3295.356 7        47.125    21714219.854 6  88916101.43306      2567.812 6        38.375    21714219.901 7  88916101.43007      2567.759 7        44.531
G32  23938982.496 6 125800197.43606     -1371.844 6        39.813    23938986.416 3  98026140.10303     -1068.967 3        23.313    23938986.326 6  98026137.07306     -1068.861 6        37.563
> 2022 02 14 14 40 17.0000000  0 10
G02  22444021.566 7 117944131.75207      1022.278 7        46.125    22444018.918 6  91904507.15906       796.581 6        36.031
G06  24026108.834 6 126258050.20206     -1229.868 6        40.250    24026110.588 6  98382904.85906      -958.342 6        38.781    24026112.191 6  98382908.86806      -958.143 6        40.313
G12  21733783.909 7 114211803.60707     -1247.672 7        46.750    21733782.654 8  88996206.41208      -972.211 8        48.000    21733783.480 7  88996191.40707      -972.158 7        43.406
G20  25359693.342 6 133266081.82506      4405.875 6        38.344    25359694.303 2 103843708.65202      3433.180 2        16.625
G22  23141778.474 7 121610865.24107      -218.868 7        42.156    23141777.362 4  94761708.37404      -170.546 4        26.250
G24  25764663.592 6 135394217.56506     -2394.176 6        36.625    25764668.055 4 105502008.18204     -1865.592 4        28.906    25764668.330 5 105502014.19305     -1865.428 5        33.719
G25  19947034.603 8 104822373.15908       962.742 8        49.625    19947036.021 8  81679775.62208       750.191 8        53.938    19947036.661 8  81679778.62408       750.203 8        48.281
G29  21173662.239 7 111268345.45007      3671.672 7        47.000    21173661.262 8  86702606.25208      2861.044 8        50.063    21173661.947 7  86702607.24707      2861.007 7        45.000
G31  21713594.144 7 114105707.16607      3294.045 7        47.344    21713592.799 6  88913533.76206      2566.790 6        38.406    21713592.850 7  88913533.76307      2566.706 7        44.563
G32  23939243.627 6 125801569.25106     -1372.943 6        40.188    23939247.519 3  98027209.04703     -1069.806 3        23.406    23939246.942 6  98027206.03206     -1069.830 6        37.594
> 2022 02 14 14 40 18.0000000  0 10
G02  22443826.864 7 117943109.11407      1021.849 7        46.063    22443824.304 5  91903710.29805       796.244 5        35.938
G06  24026342.855 6 126259279.50506     -1229.969 6        39.969    24026344.530 6  98383862.75906      -958.416 6        38.719    24026346.159 6  98383866.77106      -958.465 6        40.281
G12  21734021.323 7 114213050.72907     -1247.700 7        46.594    21734019.972 7  88997178.19307      -972.234 7        47.969    21734020.743 7  88997163.19207      -972.220 7        43.438
G20  25358854.744 6 133261675.56906      4405.787 6        38.438    25358855.820 2 103840275.20702      3433.073 2        16.781
G22  23141820.062 6 121611083.70906      -219.226 6        41.875    23141818.961 4  94761878.61304      -170.832 4        26.094
G24  25765118.784 6 135396611.00906     -2393.839 6        36.594    25765123.490 4 105503873.20504     -1865.327 4        28.531    25765123.724 5 105503879.22905     -1865.403 5        33.719
G25  19946851.239 8 104821409.97408       962.400 8        49.813    19946852.734 8  81679025.09008       749.923 8        53.906    19946853.321 8  81679028.09208       749.889 8        48.250
G29  21172963.366 7 111264673.38207      3671.368 7        47.000    21172962.491 8  86699744.90208      2860.805 8        50.031    21172963.107 7  86699745.90107      2860.839 7        45.094
G31  21712967.181 7 114102412.78107      3293.682 7        47.344    21712965.886 6  88910966.70806      2566.504 6        38.406    21712965.801 7  88910966.70907      2566.513 7        44.656
G32  23939504.751 6 125802941.61006     -1372.822 6        40.125    23939508.697 3  98028278.41703     -1069.730 3        23.375    23939507.940 6  98028275.40306     -1069.713 6        37.594
> 2022 02 14 14 40 19.0000000  0 10
G02  22443632.404 7 117942086.71207      1022.672 7        46.063    22443629.744 6  91902913.62106       796.882 6        36.031
G06  24026576.760 6 126260508.92306     -1229.079 6        39.875    24026578.476 6  98384820.74806      -957.725 6        38.719    24026580.230 6  98384824.75406      -957.618 6        40.500
G12  21734258.608 7 114214297.82707     -1246.684 7        46.531    21734257.285 8  88998149.95808      -971.447 8        48.063    21734258.040 7  88998134.96007      -971.459 7        43.313
G20  25358016.317 6 133257269.12506      4406.839 6        38.281    25358017.337 2 103836841.61102      3433.904 2        16.969
G22  23141861.693 7 121611302.34407      -218.351 7        42.000    23141860.587 4  94762048.97604      -170.137 4        26.156
G24  25765574.102 6 135399004.04106     -2392.615 6        36.313    25765578.862 4 105505737.90304     -1864.379 4        28.406    25765579.511 5 105505743.92605     -1864.134 5        33.719
G25  19946668.009 8 104820446.96308       963.369 8        49.625    19946669.478 8  81678274.69208       750.674 8        53.969    19946670.085 8  81678277.69108       750.656 8        48.250
G29  21172264.582 7 111261001.46707      3672.222 7        46.906    21172263.741 8  86696883.67008      2861.466 8        50.125    21172264.270 7  86696884.67007      2861.470 7        45.063
G31  21712340.343 7 114099118.60207      3294.470 7        47.344    21712339.005 6  88908399.81706      2567.112 6        38.469    21712338.899 7  88908399.82107      2567.192 7        44.688
G32  23939766.047 6 125804313.95506     -1371.901 6        40.531    23939769.795 3  98029347.77203     -1069.022 3        23.219    23939769.196 6  98029344.76106     -1069.041 6        37.375
> 2022 02 14 14 40 20.0000000  0 10
G02  22443437.788 7 117941064.85307      1021.447 7        46.250    22443435.282 6  91902117.36506       795.930 6        36.063
G06  24026810.570 6 126261738.70106     -1230.016 6        39.781    24026812.503 6  98385779.01406      -958.450 6        38.688    24026814.370 6  98385783.03406      -958.564 6        40.469
G12  21734496.046 7 114215545.17707     -1247.626 7        46.438    21734494.648 8  88999121.91808      -972.176 8        48.094    21734495.512 7  88999106.91807      -972.073 7        43.313
G20  25357177.472 6 133252862.74406      4406.318 6        38.031    25357178.849 2 103833408.06402      3433.501 2        16.375
G22  23141903.355 7 121611521.43707      -219.426 7        42.000    23141902.299 4  94762219.69604      -170.972 4        26.125
G24  25766029.339 6 135401396.95706     -2392.943 6        36.063    25766034.248 4 105507602.51404     -1864.630 4        28.219    25766034.951 5 105507608.56305     -1864.771 5        33.688
G25  19946484.802 8 104819484.43208       962.237 8        49.656    19946486.316 9  81677524.66709       749.792 9        54.031    19946486.919 8  81677527.67008       749.762 8        48.250
G29  21171565.835 7 111257329.96307      3671.180 7        46.875    21171565.068 8  86694022.76108      2860.657 8        50.156    21171565.548 7  86694023.77007      2860.573 7        45.000
G31  21711713.631 7 114095824.91607      3293.345 7        47.406    21711712.213 6  88905833.31006      2566.244 6        38.594    21711712.189 7  88905833.32407      2566.194 7        44.625
G32  23940027.285 6 125805686.53206     -1372.747 6        40.625    23940030.951 3  98030417.30803     -1069.674 3        23.094    23940030.642 6  98030414.31406     -1069.796 6        37.750
> 2022 02 14 14 40 21.0000000  0 10
G02  22443243.476 7 117940043.56207      1021.133 7        46.344    22443240.937 6  91901321.55506       795.692 6        36.094
G06  24027044.598 6 126262968.93106     -1230.332 6        39.969    24027046.615 6  98386737.63706      -958.699 6        38.688    24027048.412 6  98386741.64406      -958.774 6        40.375
G12  21734733.445 7 114216792.83107     -1247.725 7        46.500    21734732.064 8  89000094.11508      -972.251 8        48.094    21734732.914 7  89000079.11607      -972.251 7        43.125
G20  25356338.962 6 133248456.53706      4406.313 6        37.813    25356340.380 2 103829974.66702      3433.464 2        16.281
G22  23141945.224 6 121611741.02206      -219.807 6        41.688    23141944.073 4  94762390.80104      -171.279 4        26.156
G24  25766484.442 6 135403789.78106     -2392.672 6        36.375    25766489.606 4 105509467.05404     -1864.414 4        28.094    25766489.757 5 105509473.09405     -1864.579 5        33.063
G25  19946301.774 8 104818522.42208       961.807 8        49.688    19946303.252 9  81676775.04709       749.462 9        54.031    19946303.843 8  81676778.04808       749.484 8        48.250
G29  21170867.273 7 111253658.95707      3670.817 7        46.844    21170866.498 8  86691162.23808      2860.376 8        50.156    21170866.989 7  86691163.23307      2860.458 7        44.906
G31  21711086.926 7 114092531.77707      3293.009 7        47.375    21711085.533 6  88903267.22706      2565.982 6        38.563    21711085.574 7  88903267.22807      2565.970 7        44.500
G32  23940288.583 6 125807059.40906     -1372.922 6        40.531    23940292.161 3  98031487.08203     -1069.811 3        22.969    23940292.027 6  98031484.07806     -1069.831 6        37.375
> 2022 02 14 14 40 22.0000000  0 10
G02  22443049.291 7 117939023.08207      1020.351 7        46.375    22443046.734 6  91900526.37706       795.078 6        36.219
G06  24027278.833 6 126264199.79606     -1230.843 6        39.844    24027280.830 6  98387696.75206      -959.096 6        38.750    24027282.487 6  98387700.76306      -959.168 6        40.531
G12  21734970.961 7 114218041.02007     -1248.157 7        46.406    21734969.584 8  89001066.73008      -972.591 8        48.188    21734970.422 7  89001051.73707      -972.661 7        43.000
G20  25355500.704 6 133244050.69906      4405.939 6        37.344    25355502.036 2 103826541.56002      3433.170 2        16.219
G22  23141987.206 6 121611961.32806      -220.371 6        41.781    23141986.012 4  94762562.46504      -171.722 4        26.031
G24  25766940.209 6 135406182.78106     -2392.714 6        36.531    25766944.992 4 105511331.72204     -1864.456 4        28.031    25766945.598 5 105511337.76505     -1864.626 5        33.375
G25  19946118.836 8 104817561.14708       961.184 8        49.531    19946120.327 9  81676026.00309       748.972 9        54.094    19946120.995 8  81676029.00508       749.008 8        48.188
G29  21170168.814 7 111249988.63307      3670.205 7        46.688    21170168.062 8  86688302.24408      2859.897 8        50.219    21170168.587 7  86688303.23907      2859.963 7        44.750
G31  21710460.389 7 114089239.40207      3292.257 7        47.563    21710458.996 6  88900701.74306      2565.393 6        38.625    21710459.025 7  88900701.74007      2565.428 7        44.500
G32  23940549.906 6 125808432.79306     -1373.382 6        40.344    23940553.492 3  98032557.24703     -1070.160 3        22.906    23940553.527 6  98032554.23606     -1070.047 6        37.313
> 2022 02 14 14 40 23.0000000  0 10
G02  22442855.186 7 117938003.20107      1019.461 7        46.500    22442852.652 6  91899731.66606       794.383 6        36.156
G06  24027512.801 6 126265431.11606     -1231.597 6        39.688    24027515.143 6  98388656.22106      -959.683 6        38.688    24027516.621 6  98388660.22706      -959.809 6        40.375
G12  21735208.486 7 114219289.53107     -1248.766 7        46.469    21735207.165 8  89002039.59508      -973.064 8        48.156    21735208.045 7  89002024.59707      -973.108 7        42.938
G20  25354662.535 6 133239645.03306      4405.482 6        37.406    25354663.691 2 103823108.57202      3432.818 2        16.188
G22  23142029.136 6 121612182.16506      -221.274 6        41.438    23142028.045 4  94762734.54504      -172.427 4        25.969
G24  25767395.827 6 135408575.74906     -2393.054 6        36.469    25767400.377 4 105513196.36904     -1864.718 4        27.688    25767400.727 5 105513202.39305     -1865.058 5        33.125
G25  19945936.027 8 104816600.42108       960.307 8        49.531    19945937.509 9  81675277.38509       748.293 9        54.094    19945938.182 8  81675280.38808       748.304 8        48.219
G29  21169470.498 7 111246318.81507      3669.438 7        46.781    21169469.715 8  86685442.64608      2859.303 8        50.188    21169470.226 7  86685443.65107      2859.331 7        44.813
G31  21709833.854 7 114085947.58907      3291.442 7        47.500    21709832.558 6  88898136.69306      2564.759 6        38.625    21709832.625 7  88898136.70007      2564.741 7        44.594
G32  23940811.386 6 125809806.50906     -1374.007 6        40.281    23940814.894 3  98033627.67103     -1070.650 3        22.906    23940814.985 6  98033624.69006     -1070.747 6        37.531
> 2022 02 14 14 40 24.0000000  0 10
G02  22442661.240 7 117936984.31207      1018.100 7        46.500    22442658.763 6  91898937.72506       793.326 6        36.156
G06  24027747.318 6 126266663.28806     -1232.823 6        39.813    24027749.630 6  98389616.35606      -960.636 6        38.688    24027750.926 6  98389620.35906      -960.761 6        40.469
G12  21735446.173 7 114220538.77507     -1249.846 7        46.469    21735444.886 8  89003013.03108      -973.909 8        48.188    21735445.787 7  89002998.03707      -973.946 7        43.031
G20  25353824.203 6 133235239.93306      4404.597 6        37.313    25353825.463 2 103819676.02602      3432.144 2        16.188
G22  23142071.224 6 121612403.90306      -222.414 6        41.156    23142070.231 4  94762907.32804      -173.302 4        26.000
G24  25767851.419 5 135410969.03605     -2393.961 5        35.938    25767855.817 4 105515061.25804     -1865.425 4        27.531    25767856.200 5 105515067.30305     -1865.386 5        33.500
G25  19945753.380 8 104815640.62108       959.067 8        49.438    19945754.866 9  81674529.48909       747.325 9        54.094    19945755.560 8  81674532.49008       747.283 8        48.219
G29  21168772.344 7 111242649.89507      3668.235 7        46.750    21168771.543 8  86682583.74808      2858.362 8        50.188    21168772.041 7  86682584.74807      2858.345 7        44.750
G31  21709207.497 7 114082656.73707      3290.114 7        47.563    21709206.316 6  88895572.39606      2563.725 6        38.594    21709206.404 7  88895572.39907      2563.717 7        44.531
G32  23941073.158 6 125811180.91806     -1375.014 6        40.094    23941076.376 3  98034698.63803     -1071.432 3        22.813    23941077.137 6  98034695.64806     -1071.591 6        37.813
> 2022 02 14 14 40 25.0000000  0 10
G02  22442467.526 7 117935966.31707      1018.676 7        46.375    22442465.047 6  91898144.48106       793.775 6        36.156
G06  24027981.960 6 126267896.19606     -1232.134 6        39.531    24027984.243 6  98390577.06106      -960.098 6        38.719    24027985.578 6  98390581.05906      -960.168 6        40.500
G12  21735683.916 7 114221788.62307     -1248.980 7        46.281    21735682.722 8  89003986.93908      -973.230 8        48.156    21735683.711 7  89003971.94507      -973.338 7        42.969
G20  25352985.853 6 133230835.29706      4405.484 6        37.313    25352987.276 2 103816243.82902      3432.853 2        16.563
G22  23142113.603 6 121612626.45606      -221.799 6        41.188    23142112.586 4  94763080.74404      -172.827 4        26.031
G24  25768306.709 6 135413362.56306     -2392.738 6        36.125    25768311.283 4 105516926.35204     -1864.473 4        27.406    25768311.638 5 105516932.38505     -1864.531 5        33.531
G25  19945570.865 8 104814681.64508       959.728 8        49.406    19945572.374 9  81673782.23509       747.841 9        54.094    19945573.099 8  81673785.23508       747.889 8        48.219
G29  21168074.336 7 111238981.75607      3668.898 7        46.656    21168073.514 8  86679725.45808      2858.881 8        50.188    21168073.993 7  86679726.45507      2858.901 7        44.781
G31  21708581.418 7 114079366.73607      3290.736 7        47.531    21708580.231 6  88893008.75706      2564.209 6        38.563    21708580.419 7  88893008.76107      2564.136 7        44.469
G32  23941334.751 6 125812555.94706     -1374.253 6        39.781    23941337.980 3  98035770.08403     -1070.856 3        22.906    23941339.052 6  98035767.09706     -1070.914 6        37.500
> 2022 02 14 14 40 26.0000000  0 10
G02  22442273.901 7 117934948.71207      1017.356 7        46.438    22442271.404 6  91897351.54406       792.742 6        36.000
G06  24028216.562 6 126269129.35106     -1233.448 6        39.906    24028218.918 6  98391537.96106      -961.121 6        38.594    24028220.013 6  98391541.96306      -960.965 6        40.406
G12  21735921.820 7 114223038.61107     -1250.094 7        46.156    21735920.590 8  89004960.95308      -974.099 8        48.063    21735921.651 7  89004945.95807      -974.033 7        43.031
G20  25352147.630 6 133226430.62206      4404.593 6        36.938    25352149.142 2 103812811.62102      3432.164 2        16.500
G22  23142155.883 6 121612849.32906      -223.046 6        41.250    23142155.035 4  94763254.41304      -173.803 4        25.938
G24  25768762.378 6 135415755.82206     -2392.849 6        36.156    25768766.709 4 105518791.23104     -1864.558 4        27.313    25768767.231 5 105518797.23805     -1864.671 5        33.563
G25  19945388.330 8 104813723.00808       958.423 8        49.281    19945389.959 9  81673035.24509       746.823 9        54.000    19945390.713 8  81673038.24708       746.848 8        48.188
G29  21167376.380 7 111235313.92107      3667.600 7        46.563    21167375.543 8  86676867.40708      2857.867 8        50.063    21167376.198 7  86676868.40807      2857.896 7        44.750
G31  21707955.337 7 114076077.10507      3289.419 7        47.500    21707954.217 6  88890445.40806      2563.181 6        38.438    21707954.377 7  88890445.40707      2563.175 7        44.438
G32  23941596.454 6 125813931.08406     -1375.234 6        39.938    23941599.606 3  98036841.62403     -1071.616 3        22.469    23941600.513 6  98036838.62306     -1071.686 6        37.375
> 2022 02 14 14 40 27.0000000  0 10
G02  22442080.446 7 117933931.33607      1017.657 7        46.531    22442077.805 6  91896558.78306       792.981 6        36.031
G06  24028451.168 6 126270362.58706     -1232.781 6        40.094    24028453.607 6  98392498.91906      -960.607 6        38.625    24028454.705 6  98392502.92906      -960.780 6        40.375
G12  21736159.601 7 114224288.54007     -1249.530 7        46.125    21736158.440 8  89005934.92408      -973.660 8        48.063    21736159.315 7  89005919.93107      -973.632 7        42.969
G20  25351309.375 6 133222025.74306      4405.314 6        36.969    25351310.900 2 103809379.24502      3432.697 2        16.688
G22  23142198.376 6 121613072.35506      -222.728 6        41.344    23142197.484 4  94763428.19704      -173.548 4        25.875
G24  25769217.956 6 135418148.71206     -2392.354 6        36.063    25769222.072 4 105520655.81504     -1864.167 4        27.344    25769222.238 5 105520661.81705     -1863.959 5        33.406
G25  19945205.908 8 104812764.53608       958.761 8        49.344    19945207.570 9  81672288.38609       747.087 9        54.000    19945208.321 8  81672291.38508       747.092 8        48.156
G29  21166678.342 7 111231646.21307      3667.970 7        46.688    21166677.594 8  86674009.45408      2858.159 8        50.063    21166678.186 7  86674010.45207      2858.275 7        44.781
G31  21707329.415 7 114072787.65807      3289.716 7        47.531    21707328.235 6  88887882.20506      2563.413 6        38.469    21707328.456 7  88887882.20307      2563.490 7        44.500
G32  23941858.061 6 125815306.18106     -1374.618 6        39.750    23941861.285 3  98037913.12803     -1071.128 3        22.500    23941862.085 6  98037910.12506     -1071.154 6        37.313
> 2022 02 14 14 40 28.0000000  0 10
G02  22441886.837 7 117932914.54507      1016.065 7        46.438    22441884.309 6  91895766.48006       791.737 6        36.031
G06  24028685.928 6 126271596.25706     -1234.292 6        40.063    24028688.385 6  98393460.22006      -961.784 6        38.625    24028689.400 6  98393464.22906      -961.747 6        40.344
G12  21736397.385 7 114225538.78807     -1250.855 7        46.125    21736396.349 8  89006909.14108      -974.691 8        48.031    21736397.310 7  89006894.14607      -974.690 7        43.125
G20  25350470.943 6 133217621.01506      4404.344 6        36.406    25350472.650 2 103805946.98802      3431.956 2        16.313
G22  23142240.908 6 121613295.87706      -224.229 6        41.156    23142240.036 4  94763602.36604      -174.717 4        25.938
G24  25769673.301 6 135420541.50006     -2393.180 6        36.219    25769677.413 4 105522520.31504     -1864.813 4        27.250    25769677.970 5 105522526.30505     -1864.520 5        33.500
G25  19945023.582 8 104811806.57908       957.261 8        49.313    19945025.280 9  81671541.92609       745.916 9        54.000    19945026.020 8  81671544.92508       745.967 8        48.094
G29  21165980.386 7 111227978.97807      3666.499 7        46.844    21165979.739 8  86671151.86808      2857.012 8        50.031    21165980.225 7  86671152.86707      2857.101 7        44.750
G31  21706703.687 7 114069498.75107      3288.173 7        47.625    21706702.355 6  88885319.42006      2562.209 6        38.469    21706702.593 7  88885319.42107      2562.158 7        44.375
G32  23942119.607 6 125816681.54906     -1375.858 6        39.906    23942123.054 3  98038984.83903     -1072.092 3        22.469    23942123.740 6  98038981.84206     -1072.287 6        37.469
> 2022 02 14 14 40 29.0000000  0 10
G02  22441693.471 7 117931898.74607      1015.567 7        46.344    22441691.001 6  91894974.95006       791.349 6        36.125
G06  24028920.894 6 126272830.76306     -1234.612 6        40.156    24028923.328 6  98394422.17506      -962.035 6        38.656    24028924.352 6  98394426.16906      -962.036 6        40.531
G12  21736635.439 7 114226789.74407     -1251.027 7        46.094    21736634.391 8  89007883.91308      -974.827 8        48.063    21736635.398 7  89007868.91807      -974.817 7        43.313
G20  25349632.699 6 133213216.84906      4404.240 6        36.531    25349634.632 2 103802515.16602      3431.852 2        16.063
G22  23142283.621 6 121613520.30806      -224.596 6        41.531    23142282.722 4  94763777.24704      -175.003 4        26.063
G24  25770128.606 6 135422934.62606     -2393.184 6        36.750    25770132.816 4 105524385.08704     -1864.825 4        27.469    25770133.413 5 105524391.10405     -1864.861 5        33.625
G25  19944841.446 8 104810849.55808       956.835 8        49.313    19944843.164 9  81670796.19509       745.584 9        54.000    19944843.867 8  81670799.19908       745.583 8        48.156
G29  21165282.687 7 111224312.63207      3666.143 7        46.938    21165282.050 8  86668294.97708      2856.732 8        50.063    21165282.571 7  86668295.97607      2856.821 7        44.813
G31  21706077.973 7 114066210.80907      3287.694 7        47.906    21706076.668 6  88882757.38906      2561.835 6        38.500    21706076.923 7  88882757.38807      2561.789 7        44.594
G32  23942381.585 6 125818057.64506     -1376.224 6        39.719    23942385.006 3  98040057.12003     -1072.394 3        22.469    23942385.189 6  98040054.11806     -1072.468 6        37.625
> 2022 02 14 14 40 30.0000000  0 10
G02  22441500.266 7 117930883.30707      1015.615 7        46.500    22441497.755 6  91894183.69806       791.390 6        36.156
G06  24029155.937 6 126274065.48406     -1234.408 6        40.219    24029158.308 6  98395384.28906      -961.880 6        38.625    24029159.443 6  98395388.30206      -961.952 6        40.469
G12  21736873.600 7 114228040.79407     -1250.741 7        46.125    21736872.451 8  89008858.75508      -974.603 8        48.125    21736873.448 7  89008843.76507      -974.551 7        43.281
G20  25348794.625 6 133208812.61006      4404.456 6        36.594    25348796.520 2 103799083.31002      3432.033 2        16.031
G22  23142326.276 6 121613745.02006      -224.410 6        41.531    23142325.439 4  94763952.34204      -174.863 4        26.063
G24  25770583.547 6 135425327.45506     -2392.340 6        36.969    25770588.193 4 105526249.63304     -1864.161 4        27.625    25770588.525 5 105526255.64505     -1864.215 5        33.781
G25  19944659.464 8 104809892.83208       956.986 8        49.281    19944661.102 9  81670050.69409       745.704 9        54.063    19944661.701 8  81670053.69708       745.699 8        48.094
G29  21164585.148 7 111220646.54207      3666.317 7        47.188    21164584.414 8  86665438.28308      2856.868 8        50.125    21164584.957 7  86665439.29007      2856.890 7        44.750
G31  21705452.308 8 114062923.18008      3287.855 8        48.000    21705451.047 6  88880195.60206      2561.962 6        38.563    21705451.345 7  88880195.60307      2561.971 7        44.563
G32  23942643.579 6 125819433.79806     -1375.849 6        40.063    23942646.900 3  98041129.44103     -1072.088 3        22.500    23942647.066 6  98041126.43106     -1071.945 6        37.406
> 2022 02 14 14 40 31.0000000  0 10
G02  22441307.039 7 117929868.24707      1014.763 7        46.531    22441304.581 6  91893392.74206       790.724 6        36.063
G06  24029391.150 6 126275300.42606     -1235.248 6        40.156    24029393.327 6  98396346.58406      -962.531 6        38.594    24029394.547 6  98396350.58006      -962.379 6        40.313
G12  21737111.708 7 114229291.95007     -1251.269 7        46.125    21737110.538 8  89009833.68208      -975.013 8        48.125    21737111.563 7  89009818.69107      -975.012 7        43.313
G20  25347956.510 6 133204408.31806      4404.240 6        36.750    25347958.404 2 103795651.40502      3431.879 2        16.313
G22  23142369.332 6 121613970.03606      -225.274 6        41.594    23142368.246 4  94764127.67704      -175.537 4        26.094
G24  25771038.703 6 135427720.02106     -2392.606 6        37.250    25771043.511 4 105528113.97104     -1864.361 4        27.781    25771043.783 5 105528119.95505     -1863.833 5        34.094
G25  19944477.536 8 104808936.43108       956.173 8        49.250    19944479.103 9  81669305.44509       745.070 9        54.063    19944479.593 8  81669308.45008       745.098 8        48.031
G29  21163887.592 7 111216980.73007      3665.653 7        47.156    21163886.827 8  86662581.80708      2856.350 8        50.094    21163887.389 7  86662582.81107      2856.296 7        44.688
G31  21704826.777 8 114059635.90008      3287.065 8        48.000    21704825.503 6  88877634.08606      2561.349 6        38.563    21704825.780 7  88877634.08807      2561.367 7        44.469
G32  23942905.421 6 125820810.04106     -1376.364 6        39.875    23942908.758 3  98042201.83503     -1072.487 3        22.469    23942908.811 6  98042198.84406     -1072.667 6        37.438
> 2022 02 14 14 40 32.0000000  0 10
G02  22441114.053 7 117928854.10407      1013.698 7        46.375    22441111.581 6  91892602.50206       789.899 6        36.094
G06  24029626.646 6 126276536.14906     -1236.091 6        40.250    24029628.499 6  98397309.48106      -963.183 6        38.625    24029629.899 6  98397313.47806      -963.023 6        40.063
G12  21737349.875 7 114230543.74107     -1252.059 7        46.156    21737348.742 8  89010809.10408      -975.623 8        48.156    21737349.711 7  89010794.10807      -975.641 7        43.375
G20  25347118.687 6 133200004.53706      4403.578 6        37.313    25347120.408 2 103792219.89402      3431.334 2        16.375
G22  23142412.512 6 121614195.89106      -226.237 6        41.500    23142411.201 4  94764303.66904      -176.285 4        26.219
G24  25771494.056 6 135430112.83706     -2392.756 6        37.156    25771498.834 4 105529978.49904     -1864.486 4        28.063    25771499.269 5 105529984.52605     -1864.544 5        34.125
G25  19944295.808 8 104807980.88208       955.164 8        49.125    19944297.269 9  81668560.86009       744.290 9        54.094    19944297.747 8  81668563.86608       744.233 8        48.031
G29  21163190.325 7 111213315.73307      3664.647 7        47.125    21163189.393 8  86659725.96508      2855.573 8        50.125    21163190.129 7  86659726.97007      2855.582 7        44.688
G31  21704201.282 8 114056349.50308      3285.947 8        48.000    21704200.107 6  88875073.25606      2560.484 6        38.594    21704200.523 7  88875073.25407      2560.504 7        44.500
G32  23943167.556 6 125822186.94406     -1377.215 6        39.906    23943170.679 3  98043274.74403     -1073.156 3        22.438    23943170.749 6  98043271.73906     -1073.192 6        37.063
> 2022 02 14 14 40 33.0000000  0 10
G02  22440921.098 7 117927840.87307      1012.586 7        46.375    22440918.756 6  91891812.97306       789.026 6        36.125
G06  24029861.784 6 126277772.61206     -1237.026 6        40.625    24029863.800 6  98398272.95706      -963.919 6        38.656    24029865.145 6  98398276.95506      -963.872 6        40.281
G12  21737588.323 7 114231796.17907     -1252.958 7        46.219    21737587.075 8  89011785.02808      -976.330 8        48.188    21737587.934 7  89011770.03207      -976.302 7        43.406
G20  25346280.853 6 133195601.20906      4403.007 6        37.250    25346282.449 2 103788788.73102      3430.884 2        16.500
G22  23142455.439 6 121614422.56306      -227.346 6        41.625    23142454.316 4  94764480.29404      -177.152 4        26.344
G24  25771949.665 6 135432505.95206     -2393.522 6        37.063    25771954.233 4 105531843.26504     -1865.080 4        28.313    25771954.930 5 105531849.29005     -1865.128 5        34.000
G25  19944114.168 8 104807026.16808       954.126 8        49.125    19944115.591 9  81667816.92809       743.474 9        54.125    19944116.032 8  81667819.93008       743.491 8        48.094
G29  21162493.090 7 111209651.53707      3663.569 7        47.156    21162492.115 8  86656870.75108      2854.725 8        50.156    21162492.861 7  86656871.75207      2854.736 7        44.688
G31  21703576.141 8 114053063.97008      3284.922 8        48.094    21703574.875 6  88872513.10106      2559.677 6        38.656    21703575.404 7  88872513.10507      2559.730 7        44.531
G32  23943429.435 6 125823564.44906     -1377.944 6        40.000    23943432.720 3  98044348.12203     -1073.737 3        22.313    23943433.061 6  98044345.12206     -1073.788 6        37.188
> 2022 02 14 14 40 34.0000000  0 10
G02  22440728.329 7 117926828.36107      1012.318 7        46.313    22440726.065 6  91891024.00206       788.815 6        36.125
G06  24030097.258 6 126279009.65806     -1237.264 6        40.438    24030099.217 6  98399236.89006      -964.103 6        38.594    24030100.453 6  98399240.89806      -963.956 6        40.125
G12  21737826.764 7 114233049.06207     -1252.945 7        46.188    21737825.488 8  89012761.30108      -976.322 8        48.188    21737826.343 7  89012746.30207      -976.326 7        43.438
G20  25345443.237 6 133191198.18506      4403.030 6        37.719    25345444.637 2 103785357.81402      3430.939 2        16.375
G22  23142498.806 6 121614649.88206      -227.378 6        41.469    23142497.561 4  94764657.42604      -177.187 4        26.375
G24  25772405.080 6 135434899.08906     -2393.052 6        37.281    25772409.628 4 105533708.04504     -1864.713 4        28.406    25772410.126 5 105533714.08205     -1864.798 5        34.156
G25  19943932.670 8 104806072.13508       953.821 8        49.125    19943934.048 9  81667073.52609       743.234 9        54.125    19943934.513 8  81667076.52708       743.271 8        48.031
G29  21161796.029 7 111205987.96607      3663.456 7        47.156    21161794.953 8  86654016.02008      2854.638 8        50.156    21161795.716 7  86654017.02307      2854.655 7        44.656
G31  21702951.016 8 114049779.13508      3284.698 8        48.031    21702949.778 6  88869953.49006      2559.500 6        38.688    21702950.311 7  88869953.49107      2559.470 7        44.531
G32  23943691.863 6 125824942.40306     -1377.897 6        39.938    23943694.994 3  98045421.85003     -1073.688 3        22.375    23943695.125 6  98045418.84606     -1073.852 6        37.188
> 2022 02 14 14 40 35.0000000  0 10
G02  22440535.758 7 117925816.24407      1011.879 7        46.344    22440533.454 6  91890235.33806       788.476 6        36.094
G06  24030332.914 6 126280246.93706     -1237.402 6        40.250    24030334.684 6  98400201.00306      -964.211 6        38.563    24030335.882 6  98400205.00706      -964.250 6        40.031
G12  21738065.341 7 114234302.06007     -1253.070 7        46.250    21738063.924 8  89013737.66008      -976.413 8        48.188    21738064.810 7  89013722.66007      -976.388 7        43.219
G20  25344605.681 6 133186795.11806      4403.120 6        38.219    25344606.824 2 103781926.84802      3431.008 2        16.219
G22  23142542.188 6 121614877.51206      -227.837 6        41.625    23142540.896 4  94764834.80404      -177.534 4        26.375
G24  25772860.264 6 135437292.00206     -2392.906 6        37.344    25772864.986 4 105535572.64804     -1864.599 4        28.438    25772865.755 5 105535578.63805     -1864.445 5        34.156
G25  19943751.147 8 104805118.42008       953.521 8        49.094    19943752.562 9  81666330.37109       743.003 9        54.094    19943753.094 7  81666333.38007       742.978 7        47.844
G29  21161098.947 7 111202324.68107      3663.159 7        47.063    21161097.836 8  86651161.51208      2854.407 8        50.156    21161098.644 7  86651162.51907      2854.339 7        44.563
G31  21702325.970 8 114046494.64808      3284.292 8        48.000    21702324.757 6  88867394.15206      2559.190 6        38.688    21702325.330 7  88867394.15507      2559.125 7        44.375
G32  23943954.055 6 125826320.44606     -1378.046 6        39.844    23943957.295 3  98046495.64403     -1073.794 3        22.250    23943957.324 6  98046492.65706     -1073.882 6        36.844
> 2022 02 14 14 40 36.0000000  0 10
G02  22440343.032 7 117924804.02007      1011.689 7        46.281    22440340.817 6  91889446.59306       788.330 6        36.031
G06  24030568.349 6 126281483.97406     -1237.475 6        40.344    24030570.097 6  98401164.92306      -964.266 6        38.500    24030571.155 6  98401168.93306      -964.211 6        40.156
G12  21738303.686 7 114235554.69007     -1253.025 7        46.219    21738302.288 8  89014713.73408      -976.381 8        48.156    21738303.222 7  89014698.73607      -976.390 7        43.344
G20  25343767.992 6 133182391.53206      4403.248 6        38.406    25343768.825 2 103778495.48402      3431.094 2        16.281
G22  23142585.530 6 121615104.95206      -227.928 6        41.469    23142584.185 4  94765012.02804      -177.607 4        26.313
G24  25773315.579 6 135439684.12106     -2392.057 6        37.188    25773320.184 4 105537436.63304     -1863.935 4        28.344    25773320.814 5 105537442.65305     -1864.095 5        34.219
G25  19943569.666 8 104804164.53708       953.411 8        49.156    19943571.046 9  81665587.08709       742.918 9        54.063    19943571.589 8  81665590.09008       742.925 8        48.000
G29  21160401.703 7 111198661.19007      3663.051 7        47.063    21160400.688 8  86648306.84508      2854.324 8        50.125    21160401.418 7  86648307.84607      2854.331 7        44.656
G31  21701700.962 8 114043210.02208      3284.151 8        48.000    21701699.705 6  88864834.70206      2559.082 6        38.656    21701700.139 7  88864834.70007      2559.107 7        44.500
G32  23944216.123 6 125827698.10806     -1378.068 6        40.094    23944219.431 3  98047569.15403     -1073.823 3        22.063    23944219.405 6  98047566.15706     -1073.975 6        37.219
> 2022 02 14 14 40 37.0000000  0 10
G02  22440150.561 7 117923792.42507      1011.210 7        46.281    22440148.300 6  91888658.33706       787.953 6        36.000
G06  24030803.741 6 126282721.47006     -1237.814 6        40.281    24030805.595 6  98402129.20706      -964.531 6        38.531    24030806.895 6  98402133.22506      -964.651 6        40.125
G12  21738542.041 7 114236807.66907     -1253.211 7        46.219    21738540.720 8  89015690.08108      -976.529 8        48.188    21738541.700 7  89015675.08207      -976.567 7        43.500
G20  25342930.010 6 133177988.13406      4403.325 6        38.500    25342930.829 2 103775064.25802      3431.149 2        16.500
G22  23142628.863 6 121615332.94706      -228.357 6        41.406    23142627.591 4  94765189.68404      -177.941 4        26.469
G24  25773770.709 6 135442076.25106     -2392.143 6        37.000    25773775.395 4 105539300.63304     -1864.006 4        28.438    25773775.981 5 105539306.64405     -1863.952 5        33.969
G25  19943388.273 8 104803211.22208       952.925 8        49.219    19943389.641 9  81664844.24509       742.538 9        54.063    19943390.142 7  81664847.24607       742.500 7        47.906
G29  21159704.640 7 111194998.22307      3662.661 7        46.938    21159703.642 8  86645452.58508      2854.018 8        50.125    21159704.272 7  86645453.58607      2854.059 7        44.656
G31  21701076.078 7 114039925.98507      3283.784 7        47.938    21701074.751 6  88862275.71206      2558.790 6        38.688    21701075.280 7  88862275.71607      2558.752 7        44.406
G32  23944478.410 6 125829076.11406     -1378.306 6        40.063    23944481.557 3  98048642.92103     -1073.996 3        22.125    23944481.787 6  98048639.90906     -1073.861 6        37.094
