     3.04           OBSERVATION DATA    G                   RINEX VERSION / TYPE
sbf2rin-15.9.0                          20240324 110252 UTC PGM / RUN BY / DATE 
ALT3                                                        MARKER NAME         
Unknown                                                     MARKER NUMBER       
Unknown             Unknown                                 OBSERVER / AGENCY   
3058190             SEPT ALTUS NR3      1.3.3-r81487        REC # / TYPE / VERS 
Altus NR3           SEPALTUS_NR3    NONE                    ANT # / TYPE        
  3509702.3046   779240.6127  5250781.9309                  APPROX POSITION XYZ 
        0.0000        0.0000        0.0000                  ANTENNA: DELTA H/E/N
G   12 C1C L1C D1C S1C C2W L2W D2W S2W C2L L2L D2L S2L      SYS / # / OBS TYPES 
SEPTENTRIO RECEIVERS OUTPUT ALIGNED CARRIER PHASES.         COMMENT             
NO FURTHER PHASE SHIFT APPLIED IN THE RINEX ENCODER.        COMMENT             
G L1C                                                       SYS / PHASE SHIFT   
G L2W                                                       SYS / PHASE SHIFT   
G L2L  0.00000                                              SYS / PHASE SHIFT   
     1.000                                                  INTERVAL            
  2024     2    29     8    37   27.0000000     GPS         TIME OF FIRST OBS   
  2024     2    29     8    54   21.0000000     GPS         TIME OF LAST OBS    
    48                                                      # OF SATELLITES     
DBHZ                                                        SIGNAL STRENGTH UNIT
    18                                                      LEAP SECONDS        
                                                            END OF HEADER       
> 2024 02 29 08 37 27.0000000  0 12
G02  25718112.548 4                       -91.795 4        26.563
G10  23762883.813 5 124874766.76605       270.180 5        31.969    23762882.164 1  97305033.45501       210.448 1         3.375    23762884.673 5                       211.274 5        32.781
G12  21506715.653 7 113018566.83107      4604.354 7        46.219    21506716.287 7  88066418.37307      3587.812 7        43.531    21506715.761 7  88066431.40907      3587.669 7        43.188
G13  24993054.263 4                     -2197.425 4        26.844
G14  25302493.972 4                     -1772.490 4        27.844                                                                    25302518.357 4                     -1381.550 4        24.219
G15  23415847.216 5                     -2054.356 5        30.219                                                                    23415854.975 6  95883935.79506     -1600.995 6        38.188
G17  22591315.270 5                      -149.717 5        31.094                                                                    22591319.178 5  92507666.78505      -117.039 5        34.313
G19  21273695.054 7 111794025.15907      2055.031 7        43.000    21273692.817 4  87112219.16404      1601.315 4        26.688
G22  23730938.585 4                     -1351.105 4        27.688
G23                                                                                                                                  24642229.611 4                     -1015.816 4        25.313
G24  20035837.164 8 105289026.07408      1089.147 8        49.219    20035839.185 8  82043398.83108       848.687 8        50.625    20035839.872 7  82043398.84907       848.741 7        46.688
G32  23946271.632 5 125838515.77905      4795.876 5        30.344    23946274.499 1  98055977.67301      3737.034 1        11.531    23946275.809 5  98056002.67605      3737.197 5        34.938
> 2024 02 29 08 37 28.0000000  0 12
G02  25718130.717 4                       -92.226 4        27.781
G10  23762832.411 5 124874495.93005       270.030 5        32.469    23762830.844 1  97304822.50901       210.406 1         2.594    23762833.831 5                       210.717 5        31.688
G12  21505839.599 7 113013962.28607      4604.398 7        45.563    21505840.041 7  88062830.41807      3587.841 7        43.563    21505839.677 7  88062843.45407      3587.749 7        43.344
G13  24993469.981 4                     -2197.865 4        29.094
G14  25302831.888 4                     -1772.833 4        26.438                                                                    25302857.641 4                     -1381.454 4        25.469
G15  23416238.309 4                     -2054.401 4        29.625                                                                    23416245.637 6  95885536.48106     -1600.739 6        38.375
G17  22591344.903 5                      -150.186 5        30.344                                                                    22591347.799 5  92507783.55105      -117.143 5        34.875
G19  21273303.871 7 111791969.89907      2054.857 7        42.656    21273301.738 4  87110617.66204      1601.188 4        26.656
G22  23731195.440 4                     -1351.824 4        26.750
G23                                                                                                                                  24642477.544 4                     -1016.869 4        26.625
G24  20035629.860 8 105287936.61808      1089.123 8        49.094    20035631.885 8  82042549.90908       848.669 8        50.781    20035632.484 7  82042549.92307       848.657 7        46.906
G32  23945358.797 5 125833719.63505      4796.150 5        31.906    23945361.863 1  98052240.44101      3737.190 1        11.750    23945363.654 5  98052265.46605      3737.138 5        35.031
> 2024 02 29 08 37 29.0000000  0 11
G02  25718147.941 5                       -92.751 5        31.000
G10  23762781.086 5 124874225.58905       270.618 5        32.000    23762779.313 1  97304611.79401       210.812 1         2.375    23762782.657 5                       210.670 5        31.406
G12  21504963.459 7 113009358.08607      4604.076 7        45.469    21504963.867 7  88059242.73707      3587.589 7        43.625    21504963.777 7  88059255.75307      3587.518 7        43.344
G14  25303170.407 4                     -1773.358 4        25.156                                                                    25303196.644 4                     -1382.257 4        24.000
G15  23416629.303 4                     -2054.484 4        29.563                                                                    23416636.454 6  95887137.31206     -1600.840 6        38.094
G17  22591373.938 5                      -150.689 5        30.344                                                                    22591376.623 5  92507900.65605      -117.236 5        35.094
G19  21272912.964 7 111789915.31207      2054.179 7        42.781    21272910.726 4  87109016.67904      1600.671 4        26.250
G22  23731453.645 5                     -1351.317 5        30.156
G23                                                                                                                                  24642727.593 4                     -1017.540 4        27.188
G24  20035422.721 8 105286847.69408      1088.601 8        49.094    20035424.692 8  82041701.39508       848.260 8        50.938    20035425.202 7  82041701.40207       848.328 7        47.156
G32  23944446.004 5 125828923.88305      4795.799 5        33.375    23944449.236 2  98048503.52402      3736.984 2        12.000    23944451.222 5  98048528.48305      3736.896 5        35.250
> 2024 02 29 08 37 30.0000000  0 11
G02  25718165.747 4                       -92.796 4        28.156
G10  23762730.387 5 124873955.32505       268.769 5        31.125    23762727.554 1  97304401.20501       209.437 1         3.375    23762730.710 5                       210.408 5        31.000
G12  21504087.332 7 113004753.65207      4603.888 7        45.781    21504087.661 7  88055654.86807      3587.439 7        43.594    21504087.572 7  88055667.89907      3587.458 7        43.750
G14  25303509.021 3                     -1772.879 3        23.188
G15  23417020.964 5                     -2053.737 5        30.906                                                                    23417027.662 6  95888737.73006     -1600.565 6        38.281
G17  22591403.526 5                      -150.445 5        30.031                                                                    22591405.428 5  92508017.72005      -117.589 5        35.469
G19  21272522.055 7 111787860.78807      2053.832 7        43.000    21272519.692 4  87107415.74604      1600.388 4        26.094
G22  23731710.074 4                     -1350.872 4        29.906
G23                                                                                                                                  24642975.442 4                     -1017.004 4        26.750
G24  20035215.414 8 105285758.73008      1088.362 8        48.938    20035217.491 8  82040852.85208       848.073 8        51.000    20035218.050 7  82040852.85107       848.066 7        46.750
G32  23943533.021 5 125824127.80605      4795.726 5        34.094    23943536.520 2  98044766.31502      3736.990 2        12.656    23943538.278 5  98044791.24205      3737.065 5        32.844
> 2024 02 29 08 37 31.0000000  0 11
G02  25718182.610 4                       -94.107 4        26.344
G10  23762680.998 5 124873686.17105       269.066 5        32.250    23762676.170 1  97304191.34001       209.521 1         2.594    23762678.907 5                       209.521 5        30.656
G12  21503211.242 7 113000150.41907      4603.439 7        46.031    21503211.693 7  88052067.93407      3587.107 7        43.594    21503211.555 7  88052080.95407      3586.986 7        43.719
G14  25303847.460 4                     -1771.438 4        24.188
G15  23417412.995 5                     -2054.753 5        30.375                                                                    23417418.686 6  95890338.94406     -1601.011 6        38.969
G17  22591431.474 5                      -151.586 5        30.594                                                                    22591434.080 5  92508135.75705      -118.350 5        35.188
G19  21272131.561 7 111785807.76607      2053.063 7        42.531    21272128.930 4  87105815.98904      1599.791 4        25.875
G22  23731966.969 4                     -1351.704 4        26.688
G23  24643229.915 3                     -1306.930 3        20.563                                                                    24643221.703 3                     -1017.625 3        23.750
G24  20035008.398 8 105284671.13908      1087.621 8        48.438    20035010.539 8  82040005.37908       847.503 8        50.938    20035011.017 7  82040005.37007       847.588 7        46.438
G32  23942620.518 5 125819332.80005      4795.147 5        33.438    23942624.054 2  98041029.90402      3736.476 2        12.531    23942625.814 5  98041054.92805      3736.518 5        34.156
> 2024 02 29 08 37 32.0000000  0 12
G02  25718199.843 4                       -94.164 4        28.281
G10  23762631.251 5 124873417.25505       267.495 5        32.000    23762625.073 1  97303981.80901       208.451 1         4.125    23762626.790 4                       209.311 4        29.531
G12  21502335.234 7 112995547.23507      4602.348 7        44.969    21502335.711 7  88048481.03407      3586.244 7        43.563    21502335.603 7  88048494.03107      3586.241 7        43.688
G13  24995133.134 4                     -2197.173 4        27.563
G14  25304184.375 4                     -1772.098 4        25.313
G15  23417804.616 5                     -2055.052 5        32.031                                                                    23417809.870 6  95891939.98806     -1601.726 6        39.094
G17  22591460.338 4                      -151.774 4        29.938                                                                    22591462.425 5  92508253.87705      -118.703 5        35.063
G19  21271741.181 7 111783755.08907      2051.682 7        42.594    21271738.249 4  87104216.49504      1598.710 4        25.719
G22  23732223.940 4                     -1350.753 4        24.688
G23                                                                                                                                  24643469.028 4                     -1018.431 4        24.781
G24  20034801.557 7 105283583.75107      1086.513 7        47.938    20034803.629 8  82039158.05908       846.635 8        50.781    20034804.013 7  82039158.05307       846.672 7        46.313
G32  23941708.732 5 125814537.85205      4794.324 5        33.813    23941711.597 1  98037293.60101      3735.867 1        11.750    23941713.589 5  98037318.56305      3735.597 5        34.000
> 2024 02 29 08 37 33.0000000  0 12
G02  25718217.283 4                       -94.205 4        24.375
G10  23762581.464 4 124873149.13604       268.030 4        28.906    23762574.083 1  97303772.88101       208.702 1         4.125    23762575.840 5                       208.713 5        31.313
G12  21501459.346 7 112990944.53007      4602.394 7        44.344    21501459.832 7  88044894.51107      3586.289 7        43.563    21501460.038 7  88044907.53507      3586.143 7        44.313
G13  24995549.522 5                     -2197.753 5        30.563
G14  25304522.322 3                     -1772.620 3        23.688
G15  23418196.419 6                     -2055.666 6        36.156                                                                    23418200.626 6  95893541.24506     -1601.545 6        38.844
G17  22591489.019 5                      -152.628 5        30.031                                                                    22591491.400 5  92508372.51805      -119.103 5        35.219
G19  21271350.771 7 111781703.25507      2051.326 7        42.719    21271347.751 4  87102617.66304      1598.444 4        25.625
G22  23732480.660 3                     -1352.050 3        22.469
G23                                                                                                                                  24643717.118 4                     -1017.788 4        26.063
G24  20034594.686 7 105282497.10507      1086.182 7        47.531    20034596.861 8  82038311.31908       846.381 8        50.531    20034597.344 7  82038311.31707       846.344 7        45.938
G32  23940796.417 5 125809743.37205      4793.719 5        34.438    23940799.203 1  98033557.63301      3735.376 1        11.469    23940801.103 5  98033582.58105      3735.503 5        33.313
> 2024 02 29 08 37 34.0000000  0 12
G02  25718234.141 4                       -94.606 4        26.000
G10  23762530.496 4 124872881.33204       266.997 4        28.094    23762523.111 1  97303564.35601       207.918 1         2.375    23762526.442 5                       208.632 5        30.156
G12  21500583.447 7 112986342.18207      4601.277 7        44.094    21500584.038 7  88041308.26407      3585.407 7        43.563    21500584.353 7  88041321.28307      3585.400 7        44.219
G13  24995965.624 5                     -2197.751 5        30.219
G14  25304861.857 3                     -1772.234 3        23.938
G15  23418588.460 5                     -2055.668 5        33.594                                                                    23418591.691 6  95895142.54906     -1602.187 6        38.875
G17  22591516.833 4                      -153.125 4        29.375                                                                    22591520.192 5  92508491.50705      -119.903 5        34.750
G19  21270960.382 7 111779652.01707      2050.109 7        42.469    21270957.338 4  87101019.29504      1597.502 4        25.375
G22  23732738.176 4                     -1351.710 4        25.594
G23  24643982.888 3                     -1306.395 3        23.781                                                                    24643964.573 4                     -1017.532 4        27.438
G24  20034388.048 7 105281410.91007      1085.026 7        47.625    20034390.178 8  82037464.93108       845.477 8        50.375    20034390.646 7  82037464.93507       845.451 7        46.250
G32  23939884.569 5 125804949.03705      4793.076 5        35.281    23939886.893 1  98029821.78801      3734.897 1        11.906    23939888.678 5  98029846.73305      3735.010 5        32.813
> 2024 02 29 08 37 35.0000000  0 12
G02  25718251.106 3                       -96.949 3        23.094
G10  23762481.738 4 124872614.36104       267.464 4        27.188    23762472.300 1  97303356.26701       208.520 1         2.000    23762475.546 4                       207.952 4        29.344
G12  21499707.477 7 112981740.43307      4602.091 7        44.719    21499708.373 7  88037722.49007      3586.048 7        43.406    21499708.684 7  88037735.49407      3586.055 7        43.656
G13  24996382.246 4                     -2198.257 4        27.844
G14  25305198.534 3                     -1774.744 3        22.000
G15  23418979.973 5                     -2054.868 5        31.875                                                                    23418982.282 6  95896744.18806     -1601.329 6        38.438
G17  22591545.733 5                      -153.727 5        31.156                                                                    22591549.270 5  92508611.02905      -119.555 5        34.813
G19  21270570.025 7 111777601.70507      2050.481 7        42.438    21270567.077 4  87099421.64104      1597.790 4        25.281
G22  23732995.670 4                     -1352.611 4        28.094
G23  24644231.040 3                     -1306.236 3        23.719                                                                    24644213.066 4                     -1017.744 4        26.656
G24  20034181.528 7 105280325.51907      1085.597 7        47.500    20034183.660 8  82036619.17108       845.917 8        50.250    20034184.231 7  82036619.17307       845.950 7        46.469
G32  23938972.404 5 125800155.31005      4794.306 5        35.313    23938974.723 1  98026086.44601      3735.815 1        11.156    23938976.193 5  98026111.37505      3735.617 5        32.469
> 2024 02 29 08 37 36.0000000  0 11
G10                                                                                                                                  23762425.692 5                       207.903 5        30.938
G12  21498831.703 7 112977138.56107      4602.110 7        44.000    21498832.655 7  88034136.61207      3586.069 7        43.469    21498832.952 7  88034149.63407      3586.030 7        43.750
G13  24996798.361 5                     -2197.027 5        32.938
G14  25305536.598 3                     -1773.019 3        21.281
G15  23419370.712 5                     -2054.286 5        35.156                                                                    23419373.334 6  95898345.54606     -1600.989 6        38.281
G17  22591575.639 5                      -153.612 5        33.406                                                                    22591578.602 5  92508730.59905      -119.614 5        34.406
G19  21270179.873 7 111775551.64007      2050.210 7        42.781    21270176.875 4  87097824.18804      1597.571 4        25.375
G22  23733253.745 4                     -1352.165 4        26.250
G23  24644482.019 3                     -1305.544 3        22.375                                                                    24644461.715 4                     -1018.256 4        26.375
G24  20033974.823 7 105279240.20207      1085.519 7        47.063    20033977.156 8  82035773.46908       845.863 8        50.094    20033977.788 7  82035773.47507       845.865 7        46.313
G32  23938060.745 5 125795361.47405      4794.355 5        33.000    23938062.521 1  98022351.01301      3735.768 1        11.250    23938063.894 5  98022375.93605      3735.789 5        32.469
> 2024 02 29 08 37 37.0000000  0 10
G10                                                                                                                                  23762375.261 5                       207.729 5        30.000
G12  21497955.886 7 112972536.87207      4602.401 7        44.563    21497956.973 7  88030550.88007      3586.290 7        43.375    21497957.212 7  88030563.90707      3586.219 7        43.906
G14  25305872.926 3                     -1769.187 3        21.281
G15  23419759.144 5 123071671.80615     -2054.425 5        34.563    23419762.267 4                     -1601.077 4        26.438    23419764.310 6  95899946.83506     -1600.659 6        38.250
G17  22591606.037 5                      -153.761 5        32.625                                                                    22591607.711 5  92508850.29805      -119.196 5        33.625
G19  21269789.870 7 111773501.99107      2050.141 7        42.344    21269786.770 4  87096227.05404      1597.515 4        25.438
G22  23733512.625 4                     -1351.459 4        29.875
G23                                                                                                                                  24644710.114 4                     -1017.376 4        25.031
G24  20033768.217 7 105278155.23507      1085.329 7        46.875    20033770.720 8  82034928.03908       845.713 8        49.875    20033771.461 7  82034928.04407       845.704 7        45.906
G32  23937148.822 5 125790567.66705      4794.463 5        33.063    23937150.296 1  98018615.57201      3735.940 1        10.219    23937151.903 5  98018640.50905      3735.917 5        33.563
> 2024 02 29 08 37 38.0000000  0 12
G02  25718307.802 3                       -96.493 3        22.656
G10                                                                                                                                  23762325.532 5                       207.348 5        30.438
G12  21497080.123 7 112967935.35607      4601.341 7        45.250    21497081.335 7  88026965.28607      3585.455 7        43.531    21497081.688 7  88026978.30707      3585.451 7        43.750
G13  24997630.749 5                     -2196.484 5        31.219
G14  25306208.772 3                     -1769.008 3        19.469
G15  23420150.370 6 123073726.73206     -2055.057 6        36.094    23420153.337 4  95901612.10514     -1601.350 4        26.875    23420155.343 6  95901548.13506     -1601.327 6        37.750
G17  22591635.854 5                      -154.029 5        31.688                                                                    22591636.583 5  92508970.27205      -119.997 5        34.094
G19  21269399.936 7 111771452.85607      2048.935 7        42.406    21269396.773 4  87094630.31904      1596.579 4        25.406
G22  23733770.432 5                     -1351.349 5        30.125
G23                                                                                                                                  24644959.268 4                     -1017.836 4        25.281
G24  20033561.855 7 105277070.61707      1084.203 7        47.063    20033564.345 8  82034082.88208       844.834 8        49.719    20033565.004 7  82034082.89207       844.946 7        45.875
G32  23936236.354 5 125785773.99805      4793.331 5        33.938    23936238.099 1  98014880.25301      3735.059 1        10.438    23936239.537 5  98014905.19705      3735.262 5        33.406
> 2024 02 29 08 37 39.0000000  0 12
G02  25718326.198 3                       -95.990 3        22.469
G10                                                                                                                                  23762275.879 5                       206.916 5        31.688
G12  21496204.551 7 112963334.26307      4601.426 7        44.938    21496205.787 7  88023380.02307      3585.523 7        43.594    21496206.128 7  88023393.03807      3585.496 7        43.219
G13  24998047.518 5                     -2196.301 5        30.031
G14  25306546.411 3                     -1772.360 3        20.063
G15  23420541.540 5 123075781.86505     -2054.637 5        34.969    23420544.465 4  95903213.49104     -1600.982 4        26.781    23420546.219 6  95903149.50906     -1600.942 6        37.063
G17  22591665.724 5                      -154.571 5        33.656                                                                    22591665.924 5  92509090.67005      -120.273 5        34.281
G19  21269010.212 7 111769404.42607      2048.729 7        42.188    21269006.906 4  87093034.13504      1596.425 4        25.281
G22  23734028.213 4                     -1351.298 4        29.156
G23                                                                                                                                  24645205.717 3                     -1017.141 3        23.156
G24  20033355.603 7 105275986.58307      1084.306 7        47.656    20033358.083 8  82033238.17808       844.914 8        49.719    20033358.727 7  82033238.19707       844.931 7        45.906
G32  23935323.540 5 125780980.68905      4793.588 5        33.938    23935325.964 1  98011145.19501      3735.216 1        10.719    23935327.086 5  98011170.18905      3735.306 5        32.969
> 2024 02 29 08 37 40.0000000  0 11
G02  25718344.321 3                       -96.460 3        19.313
G10                                                                                                                                  23762225.891 5                       205.916 5        31.219
G12  21495329.242 7 112958734.08807      4600.779 7        44.938    21495330.400 7  88019795.47407      3585.027 7        43.531    21495330.481 7  88019808.46907      3584.976 7        42.844
G13  24998464.050 4                     -2197.147 4        28.344
G15  23420933.078 6 123077837.72206     -2054.959 6        36.344    23420935.813 4  95904815.45104     -1601.261 4        26.906    23420937.277 6  95904751.46206     -1601.371 6        37.313
G17  22591694.929 5                      -154.744 5        34.469                                                                    22591695.534 5  92509211.85705      -120.798 5        33.813
G19  21268620.801 7 111767357.25307      2047.633 7        42.344    21268617.311 4  87091438.93504      1595.570 4        25.250
G22  23734284.682 5                     -1352.257 5        31.531
G23                                                                                                                                  24645453.588 3                     -1017.081 3        20.875
G24  20033149.648 7 105274903.68107      1083.355 7        47.813    20033152.035 8  82032394.36108       844.174 8        49.781    20033152.495 7  82032394.36507       844.184 7        46.219
G32  23934411.472 5 125776188.29605      4793.315 5        33.625    23934414.021 1  98007410.87801      3735.078 1        10.219    23934415.027 5  98007435.85005      3734.840 5        33.531
> 2024 02 29 08 37 41.0000000  0 11
G02  25718360.486 3                       -97.900 3        23.781
G10  23762192.540 5 124871020.19005       263.125 5        30.875    23762169.285 1  97302113.89701       204.962 1         3.375    23762175.863 5                       205.631 5        30.500
G12  21494453.954 7 112954134.38607      4598.658 7        44.875    21494455.080 7  88016211.28707      3583.371 7        43.469    21494455.106 7  88016224.29707      3583.375 7        43.469
G13  24998881.297 4                     -2197.421 4        26.156
G15  23421325.149 5 123079893.73405     -2056.588 5        33.313    23421327.192 4  95906417.54004     -1602.551 4        27.156    23421328.769 6  95906353.59506     -1602.898 6        36.969
G17  22591724.557 5                      -157.131 5        33.469                                                                    22591725.202 5  92509333.49505      -122.496 5        34.000
G19  21268231.470 7 111765310.85707      2045.119 7        42.406    21268227.806 4  87089844.34004      1593.588 4        25.063
G22  23734541.421 5                     -1352.683 5        31.219
G23                                                                                                                                  24645702.863 4                     -1018.463 4        24.156
G24  20032943.768 7 105273821.43607      1081.135 7        47.938    20032946.108 8  82031551.05208       842.446 8        49.938    20032946.543 7  82031551.05507       842.312 7        46.406
G32  23933499.367 5 125771396.33905      4790.694 5        33.406    23933502.199 1  98003676.89701      3733.019 1        10.813    23933502.717 5  98003701.85805      3733.265 5        33.313
> 2024 02 29 08 37 42.0000000  0 11
G02  25718379.920 4                       -98.559 4        24.969
G10  23762143.692 4 124870757.28204       262.481 4        29.625    23762119.476 1  97301909.09301       204.337 1         4.000    23762125.543 4                       204.542 4        28.656
G12  21493578.696 7 112949535.63307      4598.418 7        45.406    21493579.970 7  88012627.84607      3583.186 7        43.563    21493579.898 7  88012640.86907      3583.065 7        43.656
G13  24999298.732 4                     -2197.656 4        27.063
G15  23421716.232 5 123081950.57105     -2057.227 5        34.406    23421718.713 4  95908020.27304     -1603.032 4        26.656    23421720.572 6  95907956.28106     -1603.054 6        36.875
G17  22591754.034 5                      -157.883 5        32.656                                                                    22591755.174 5  92509455.96105      -122.776 5        34.063
G19  21267842.328 7 111763265.69807      2044.747 7        42.094    21267838.533 4  87088250.71004      1593.307 4        25.063
G22  23734799.205 5                     -1353.677 5        30.844
G23                                                                                                                                  24645951.239 4                     -1019.051 4        24.000
G24  20032738.147 8 105272740.29308      1080.560 8        48.000    20032740.404 8  82030708.59908       841.997 8        50.063    20032740.810 7  82030708.60607       842.000 7        46.469
G32  23932587.595 5 125766605.18405      4790.426 5        31.688    23932590.484 1  97999943.51601      3732.785 1        10.500    23932590.119 5  97999968.49205      3732.572 5        32.063
> 2024 02 29 08 37 43.0000000  0 11
G02  25718399.264 4                       -99.425 4        26.750
G10  23762094.661 4 124870495.35904       260.735 4        29.656    23762069.684 1  97301705.02501       203.137 1         3.000    23762074.473 5                       203.712 5        30.125
G12  21492703.616 7 112944937.61007      4596.983 7        46.063    21492704.994 7  88009044.97207      3582.068 7        43.563    21492704.882 7  88009057.98407      3582.057 7        43.438
G13  24999717.012 4                     -2199.171 4        26.500
G15  23422107.676 5 123084007.87205     -2058.501 5        35.344    23422110.311 4  95909623.36004     -1604.011 4        26.531    23422111.668 6  95909559.34106     -1603.736 6        37.063
G17  22591783.847 5 118720632.00515      -159.053 5        32.156                                                                    22591785.833 5  92509579.09005      -124.004 5        34.031
G19  21267453.546 7 111761221.58907      2043.010 7        42.250    21267449.520 4  87086657.90004      1591.954 4        24.906
G22  23735058.059 5                     -1353.754 5        30.969
G23                                                                                                                                  24646202.701 4                     -1020.269 4        26.281
G24  20032532.651 8 105271660.06108      1079.050 8        48.281    20032534.866 8  82029866.85808       840.819 8        50.094    20032535.252 7  82029866.86707       840.866 7        46.375
G32  23931676.225 5 125761814.73905      4789.370 5        32.281    23931678.913 1  97996210.67501      3732.026 1        10.000    23931678.073 5  97996235.65805      3732.080 5        32.406
> 2024 02 29 08 37 44.0000000  0 11
G02  25718418.801 3                      -100.502 3        22.625
G10  23762044.427 5 124870233.59105       261.936 5        31.125    23762020.058 1  97301500.90301       204.279 1         2.781    23762023.470 5                       203.585 5        30.688
G12  21491828.603 7 112940339.70207      4598.162 7        45.625    21491830.023 7  88005462.18907      3582.983 7        43.750    21491829.974 7  88005475.18107      3583.041 7        43.031
G13  25000135.439 4                     -2198.353 4        29.281
G15  23422498.806 6 123086064.97906     -2056.957 6        38.125    23422501.833 4  95911226.29004     -1602.830 4        27.188    23422503.157 6  95911162.36206     -1602.824 6        37.875
G17  22591814.560 5 118720790.26705      -158.376 5        32.813    22591812.623 3  92509695.42813      -123.445 3        21.906    22591816.493 5  92509702.35205      -122.666 5        33.406
G19  21267064.575 7 111759177.89107      2043.740 7        42.063    21267060.561 4  87085065.40504      1592.542 4        24.813
G22  23735315.409 4                     -1353.707 4        27.625
G23                                                                                                                                  24646454.020 4                     -1019.403 4        25.063
G24  20032327.173 7 105270580.13907      1080.118 7        47.844    20032329.390 8  82029025.36008       841.654 8        50.156    20032329.724 7  82029025.36507       841.622 7        46.156
G32  23930765.758 4 125757024.43404      4789.971 4        29.938    23930767.359 1  97992477.95001      3732.484 1         9.313    23930766.126 5  97992502.90005      3732.753 5        31.313
> 2024 02 29 08 37 45.0000000  0 10
G02  25718437.166 3                      -101.788 3        22.563
G10  23761993.777 4 124869972.24004       261.569 4        27.875    23761970.347 1  97301297.22401       203.605 1         2.375    23761972.708 5                       203.598 5        31.750
G12  21490953.687 7 112935742.01207      4596.765 7        45.344    21490955.083 7  88001879.56707      3581.896 7        43.750    21490955.067 7  88001892.56907      3581.821 7        43.344
G13  25000555.360 5                     -2197.633 5        30.813
G15  23422890.367 6 123088122.17906     -2058.022 6        37.969    23422893.400 4  95912829.30204     -1603.654 4        28.188    23422895.098 6  95912765.30506     -1603.770 6        37.844
G17  22591844.735 5 118720948.80205      -159.443 5        32.500    22591842.816 3  92509818.95503      -124.256 3        21.906    22591846.725 5  92509825.90605      -124.451 5        34.031
G19  21266675.494 6 111757134.74006      2042.046 6        41.750    21266671.704 4  87083473.33404      1591.214 4        25.000
G22  23735571.150 4                     -1353.259 4        28.094
G24  20032121.855 7 105269500.61207      1078.587 7        47.438    20032123.986 8  82028184.16908       840.456 8        50.188    20032124.258 7  82028184.17307       840.453 7        46.125
G32  23929853.674 5 125752234.10205      4788.832 5        31.313    23929855.810 1  97988745.27901      3731.529 1         8.844    23929855.013 5  97988770.27305      3732.061 5        31.438
> 2024 02 29 08 37 46.0000000  0 11
G02  25718459.824 3                      -102.340 3        21.688
G10  23761942.974 4 124869711.60804       260.361 4        29.250    23761920.882 1  97301094.23301       202.726 1         1.094    23761923.650 5                       202.882 5        33.469
G12  21490078.968 7 112931144.88407      4597.316 7        45.656    21490080.254 7  87998297.38907      3582.327 7        43.750    21490080.205 7  87998310.40207      3582.177 7        43.063
G13  25000975.894 5                     -2198.058 5        32.688
G15  23423282.291 6 123090179.65506     -2057.339 6        38.750    23423285.029 4  95914432.52604     -1603.122 4        28.938    23423286.705 6  95914368.54206     -1603.147 6        37.063
G17  22591874.767 5 118721108.02905      -158.944 5        32.813    22591873.232 3  92509943.03103      -123.856 3        21.750    22591877.411 5  92509949.98605      -124.137 5        34.688
G19  21266286.650 7 111755092.44107      2042.314 7        42.219    21266283.039 4  87081881.93004      1591.422 4        24.844
G22  23735828.103 4                     -1353.496 4        27.531
G23                                                                                                                                  24646955.342 4                     -1020.324 4        26.594
G24  20031916.376 7 105268421.85107      1078.660 7        47.594    20031918.734 8  82027343.57708       840.510 8        50.094    20031918.997 7  82027343.57707       840.648 7        46.125
G32  23928942.112 4 125747444.27404      4790.107 4        29.469    23928944.332 1  97985012.91101      3732.551 1         9.125    23928944.329 5  97985038.03205      3732.488 5        30.438
> 2024 02 29 08 37 47.0000000  0 10
G10  23761892.467 5 124869451.48605       260.069 5        30.250                                                                    23761874.247 5                       202.422 5        33.375
G12  21489204.283 7 112926548.26007      4596.594 7        46.000    21489205.502 7  87994715.60207      3581.766 7        43.656    21489205.540 7  87994728.62107      3581.687 7        42.906
G13  25001395.520 5                     -2197.942 5        32.375
G15  23423673.797 6 123092237.40006     -2057.732 6        38.750    23423676.689 4  95916035.95804     -1603.420 4        29.125    23423678.172 6  95915971.95906     -1603.498 6        37.625
G17  22591905.278 5 118721267.80505      -160.131 5        34.500    22591903.835 3  92510067.52803      -124.773 3        21.750    22591908.322 5  92510074.52405      -124.917 5        35.438
G19  21265897.979 7 111753050.98207      2041.188 7        42.250    21265894.531 4  87080291.19404      1590.531 4        24.844
G22  23736086.442 4                     -1354.104 4        28.063
G23                                                                                                                                  24647204.344 3                     -1019.269 3        22.906
G24  20031711.249 7 105267343.71407      1078.010 7        46.875    20031713.599 8  82026503.47008       840.007 8        49.938    20031713.769 7  82026503.48607       839.973 7        46.188
G32  23928029.969 4 125742655.09004      4789.940 4        28.938    23928033.002 1  97981281.11301      3732.345 1         8.563    23928033.268 5  97981306.11605      3731.998 5        30.406
> 2024 02 29 08 37 48.0000000  0 10
G10  23761840.945 4 124869191.41904       260.799 4        27.875                                                                    23761824.992 5  97300700.86115       202.729 5        34.750
G12  21488329.547 7 112921951.33207      4596.704 7        45.906    21488330.687 7  87991133.57907      3581.852 7        43.594    21488330.699 7  87991146.60107      3581.876 7        42.625
G13  25001815.558 5                     -2197.364 5        32.781
G15  23424065.300 6 123094294.58506     -2057.359 6        37.656    23424068.256 4  95917638.94804     -1603.134 4        29.406    23424069.497 6  95917574.95706     -1603.203 6        36.406
G17  22591935.608 5 118721427.46105      -160.073 5        33.281    22591934.444 3  92510191.94003      -124.703 3        21.625    22591938.899 5  92510198.83105      -124.375 5        34.781
G19  21265509.480 6 111751009.49506      2040.909 6        41.938    21265506.041 4  87078700.42004      1590.314 4        24.688
G22  23736347.107 4                     -1352.947 4        26.750
G23                                                                                                                                  24647453.213 4                     -1019.412 4        24.375
G24  20031506.117 7 105266265.48607      1077.926 7        47.000    20031508.445 8  82025663.29308       839.941 8        49.625    20031508.547 7  82025663.29107       839.924 7        46.219
G32  23927118.968 5 125737865.38505      4790.214 5        32.125    23927121.574 1  97977548.90501      3732.618 1         8.469    23927122.687 5  97977573.98705      3732.040 5        32.563
> 2024 02 29 08 37 49.0000000  0 10
G10  23761789.612 5 124868932.15205       260.074 5        30.969                                                                    23761776.100 5  97300498.91205       201.888 5        34.844
G12  21487455.006 7 112917355.18807      4596.593 7        46.500    21487456.025 7  87987552.17207      3581.761 7        43.469    21487455.855 7  87987565.19307      3581.781 7        42.531
G13  25002235.541 5                     -2197.735 5        32.531
G15  23424456.626 6 123096352.38006     -2057.284 6        37.469    23424459.966 4  95919242.42204     -1603.084 4        29.250    23424460.998 6  95919178.39106     -1602.701 6        37.219
G17  22591965.626 5 118721587.96805      -159.764 5        32.813    22591965.204 3  92510316.99703      -124.496 3        21.594    22591969.822 5  92510323.98605      -125.243 5        34.813
G19  21265121.136 7 111748969.07807      2040.656 7        42.188    21265117.810 4  87077110.48104      1590.126 4        24.844
G22  23736606.085 4                     -1353.484 4        29.500
G23                                                                                                                                  24647703.726 4                     -1020.104 4        24.875
G24  20031301.010 7 105265188.23107      1077.630 7        47.281    20031303.488 8  82024823.87408       839.709 8        49.531    20031303.621 7  82024823.87707       839.814 7        46.688
G32  23926206.723 5 125733076.45805      4789.559 5        32.438    23926210.297 1  97973817.26801      3732.122 1         8.656    23926212.371 5  97973842.34105      3731.924 5        31.625
> 2024 02 29 08 37 50.0000000  0 10
G10  23761738.714 5 124868673.67805       257.617 5        30.531                                                                    23761726.599 5  97300297.47905       200.623 5        34.344
G12  21486580.623 7 112912759.59007      4594.739 7        46.938    21486581.469 7  87983971.18707      3580.322 7        43.594    21486581.430 7  87983984.20607      3580.459 7        43.188
G13  25002655.056 5                     -2198.071 5        32.188
G15  23424848.434 6 123098410.42906     -2058.658 6        36.594    23424851.702 4  95920846.08504     -1604.137 4        28.969    23424852.779 6  95920782.09906     -1604.132 6        36.656
G17  22591996.134 5 118721749.14405      -161.629 5        34.000    22591996.076 3  92510442.59003      -125.931 3        21.281    22592000.581 5  92510449.54505      -126.160 5        34.563
G19  21264733.074 7 111746929.55607      2038.619 7        42.469    21264729.723 4  87075521.23604      1588.531 4        24.875
G22  23736863.422 4                     -1352.980 4        28.281
G23                                                                                                                                  24647953.435 4                     -1020.416 4        28.594
G24  20031096.130 7 105264111.70407      1075.725 7        47.875    20031098.670 8  82023985.02508       838.226 8        49.719    20031098.827 7  82023985.02707       838.164 7        46.750
G32  23925295.443 5 125728288.08705      4787.646 5        34.531    23925299.101 1  97970086.07901      3730.629 1         8.375    23925301.231 5  97970111.10805      3730.539 5        32.656
> 2024 02 29 08 37 51.0000000  0 10
G10  24061480.107 4 126443835.86304       258.472 4        28.875                                                                    24061468.791 5  98527696.48005       201.741 5        31.000
G12  21785499.551 7 114483588.72707      4595.145 7        46.656    21785500.302 7  89207993.89307      3580.629 7        43.875    21785500.363 7  89208006.92307      3580.596 7        43.563
G13  25302867.126 5                     -2197.705 5        32.531
G15  23725032.280 6 124675886.29906     -2057.856 6        37.156    23725035.427 4  97150048.06404     -1603.521 4        28.719    23725036.457 6  97149984.11706     -1603.868 6        36.969
G17  22891819.213 5 120297330.50405      -161.979 5        33.594    22891819.509 3  93738168.33103      -126.214 3        21.250    22891823.679 5  93738175.21105      -126.119 5        35.063
G19  21564138.024 7 113320312.50307      2038.734 7        43.219    21564134.505 4  88301533.92404      1588.623 4        25.063
G22  24036913.272 4                     -1353.698 4        29.219
G23                                                                                                                                  24947996.085 5                     -1020.402 5        30.188
G24  20330684.012 7 106838456.57407      1075.578 7        47.719    20330686.565 8  83250747.26008       838.110 8        49.688    20330686.818 7  83250747.24907       838.248 7        46.813
G32  24224179.285 5 127298924.63705      4788.156 5        30.813    24224181.289 1  99193958.74601      3731.024 1         8.469    24224183.280 5  99193983.68105      3731.216 5        31.875
> 2024 02 29 08 37 52.0000000  0 10
G10  24061429.336 4 126443578.09904       257.674 4        26.750                                                                    24061418.224 5  98527495.83805       200.330 5        33.781
G12  21784625.138 7 114478993.76207      4594.922 7        46.656    21784625.916 7  89204413.40107      3580.460 7        43.938    21784626.120 7  89204426.43707      3580.407 7        42.188
G13  25303287.257 5                     -2197.702 5        33.500
G15  23725424.139 6 124677944.52406     -2058.102 6        37.656    23725427.119 4  97151651.87304     -1603.725 4        28.531    23725427.792 6  97151587.95006     -1603.955 6        36.125
G17  22891849.612 5 120297492.46305      -162.270 5        34.250    22891850.605 3  93738294.52103      -126.405 3        21.594    22891854.578 5  93738301.45505      -126.269 5        35.406
G19  21563750.333 7 113318274.24707      2038.049 7        42.938    21563746.569 4  88299945.67404      1588.094 4        25.313
G22  24037168.525 4                     -1354.308 4        28.406
G23  24948231.139 3                     -1309.003 3        19.719                                                                    24948245.548 4                     -1021.191 4        25.063
G24  20330479.236 7 106837380.99507      1075.358 7        47.188    20330481.917 8  83249909.14408       837.941 8        49.688    20330482.270 7  83249909.15707       838.008 7        46.719
G32  24223267.905 5 127294136.76105      4787.706 5        30.188    24223270.182 1  99190227.94101      3730.698 1         8.844    24223272.669 5  99190252.85105      3730.999 5        35.250
> 2024 02 29 08 37 53.0000000  0 11
G02  26018384.498 3                      -102.970 3        23.438
G10                                                                                                                                  24061369.377 5  98527295.68205       200.590 5        32.469
G12  21783750.939 7 114474399.29607      4594.157 7        45.781    21783751.566 7  89200833.30007      3579.864 7        43.844    21783751.716 7  89200846.30907      3580.002 7        42.281
G13  25303706.065 5                     -2197.869 5        31.813
G15  23725815.918 5 124680003.03905     -2058.505 5        35.719    23725818.842 4  97153255.92604     -1604.046 4        28.344    23725819.197 5  97153191.93405     -1603.899 5        35.750
G17  22891879.883 5 120297655.08805      -163.128 5        33.000    22891881.790 3  93738421.23503      -127.092 3        21.719    22891885.368 5  93738428.16805      -126.833 5        34.531
G19  21563362.831 7 113316236.75007      2037.104 7        42.875    21563358.790 4  88298358.01304      1587.343 4        25.594
G22  24037425.760 4                     -1354.713 4        29.000
G23  24948480.083 3                     -1309.517 3        22.094                                                                    24948496.522 4                     -1020.852 4        28.219
G24  20330274.679 7 106836306.13407      1074.596 7        47.406    20330277.407 8  83249071.59308       837.348 8        49.531    20330277.839 7  83249071.59607       837.433 7        46.688
G32  24222355.323 4 127289349.27604      4787.875 4        27.313    24222359.139 1  99186497.41001      3730.876 1         8.656    24222361.701 5  99186522.38405      3730.363 5        32.625
> 2024 02 29 08 37 54.0000000  0 11
G02  26018402.255 3                       -97.141 3        19.125
G10  24061327.473 4 126443064.83504       255.506 4        27.281                                                                    24061320.441 5  98527095.83905       199.178 5        31.031
G12  21782876.685 7 114469805.07907      4593.433 7        46.813    21782877.248 7  89197253.38807      3579.296 7        43.781    21782877.311 7  89197266.42807      3579.217 7        42.750
G13  25304125.950 4                     -2197.639 4        29.625
G15  23726207.319 6 124682061.54706     -2058.956 6        36.719    23726210.565 4  97154859.96104     -1604.393 4        27.938    23726211.224 5  97154795.97005     -1604.491 5        35.813
G17  22891911.012 5 120297818.09305      -163.791 5        34.781    22891913.064 3  93738548.23703      -127.610 3        22.219    22891916.392 5  93738555.17605      -127.942 5        34.969
G19  21562975.440 7 113314199.82307      2036.112 7        42.281    21562971.132 4  88296770.80004      1586.574 4        25.719
G22  24037683.826 3                     -1354.551 3        22.375
G23  24948732.023 3                     -1311.123 3        21.063                                                                    24948747.492 4                     -1020.996 4        29.688
G24  20330070.183 7 106835231.72307      1073.687 7        47.813    20330072.987 8  83248234.39108       836.643 8        49.688    20330073.358 7  83248234.38107       836.583 7        46.875
G32  24221443.851 4 127284562.07804      4786.289 4        29.250    24221448.148 1  99182767.08801      3729.468 1         9.031    24221450.780 5  99182792.05305      3730.040 5        34.031
> 2024 02 29 08 37 55.0000000  0 10
G02  26018421.076 3                      -103.702 3        22.531
G10                                                                                                                                  24061271.298 5  98526896.49305       199.196 5        32.844
G12  21782002.580 7 114465211.44107      4593.558 7        47.656    21782003.059 7  89193673.93507      3579.389 7        43.938    21782002.936 6  89193686.97906      3579.414 6        41.938
G15  23726598.848 6 124684120.42406     -2058.727 6        36.406    23726602.391 4  97156464.27604     -1604.197 4        27.406    23726602.991 5  97156400.23005     -1603.947 5        35.313
G17  22891942.168 5 120297981.75305      -163.474 5        34.875    22891944.433 3  93738675.76503      -127.374 3        22.375    22891947.041 5  93738682.71805      -127.586 5        35.625
G19  21562588.000 7 113312163.80707      2035.925 7        42.813    21562583.630 4  88295184.29704      1586.435 4        25.813
G22  24037939.160 4                     -1354.373 4        27.781
G23  24948981.119 3                     -1314.021 3        22.281                                                                    24948997.956 4                     -1021.623 4        26.781
G24  20329865.888 8 106834158.03408      1073.583 8        48.094    20329868.692 8  83247397.74908       836.556 8        49.969    20329868.964 7  83247397.74207       836.612 7        46.594
G32  24220532.924 4 127279775.30704      4786.272 4        29.688    24220537.248 1  99179037.14001      3729.550 1         9.219    24220539.800 5  99179062.17105      3729.971 5        35.469
> 2024 02 29 08 37 56.0000000  0 11
G02  26018438.708 3                      -103.771 3        21.281
G10                                                                                                                                  24061222.233 5  98526697.63705       198.153 5        31.094
G12  21781128.643 7 114460618.19207      4592.453 7        47.313    21781128.920 7  89190094.78507      3578.530 7        43.938    21781128.417 7  89190107.81807      3578.432 7        42.281
G14  25612070.979 3                     -1776.561 3        20.594
G15  23726990.474 6 124686179.44106     -2059.877 6        36.281    23726994.132 4  97158068.69504     -1605.104 4        26.781    23726994.300 5  97158004.69305     -1604.994 5        33.625
G17  22891973.017 5 120298145.94105      -165.277 5        34.750    22891975.886 3  93738803.69903      -128.769 3        22.469    22891977.461 5  93738810.63805      -128.474 5        34.250
G19  21562200.884 7 113310128.49307      2034.197 7        42.781    21562196.289 4  88293598.33104      1585.110 4        25.781
G22  24038196.341 5                     -1354.388 5        31.844
G23  24949230.792 3                     -1310.322 3        23.500                                                                    24949249.002 4                     -1021.636 4        26.563
G24  20329661.759 8 106833084.93508      1072.137 8        48.344    20329664.495 8  83246561.56508       835.431 8        50.188    20329664.721 7  83246561.56307       835.445 7        46.844
G32  24219622.088 4 127274988.93704      4787.239 4        26.250    24219626.445 1  99175307.47801      3730.420 1         9.500    24219628.539 6  99175332.57106      3729.037 6        36.469
> 2024 02 29 08 37 57.0000000  0 12
G02  26018461.102 4                      -106.453 4        24.625
G10                                                                                                                                  24061173.811 5  98526499.23405       198.050 5        32.156
G12  21780254.584 7 114456025.36607      4592.684 7        47.250    21780254.860 7  89186515.96307      3578.711 7        44.000    21780254.404 7  89186529.01307      3578.661 7        42.813
G13  25305387.793 4                     -2197.006 4        24.813
G14  25612410.366 3                     -1778.293 3        18.688
G15  23727382.686 5 124688238.59405     -2059.152 5        35.938    23727385.927 4  97159673.22804     -1604.551 4        26.281    23727386.219 5  97159609.23605     -1604.763 5        34.156
G17  22892004.780 5 120298310.64605      -165.062 5        35.406    22892007.349 3  93738932.03403      -128.607 3        22.375    22892008.650 5  93738938.95905      -128.701 5        33.406
G19  21561813.761 7 113308093.89807      2034.248 7        42.281    21561809.127 4  88292012.92404      1585.131 4        25.781
G22  24038453.898 4                     -1355.229 4        27.469
G23  24949481.968 3                     -1311.390 3        22.469
G24  20329457.747 8 106832012.41208      1072.213 8        48.625    20329460.406 8  83245725.83008       835.495 8        50.406    20329460.560 7  83245725.83407       835.565 7        47.188
G32  24218710.425 4 127270202.93204      4785.990 4        28.094    24218715.692 1  99171578.13201      3729.347 1         9.594    24218718.006 5  99171603.19405      3729.250 5        35.906
> 2024 02 29 08 37 58.0000000  0 12
G02  26018484.149 4                      -105.551 4        26.000
G10                                                                                                                                  24061125.588 5  98526300.87005       198.589 5        32.781
G12  21779380.662 7 114451432.46507      4592.919 7        46.938    21779380.801 7  89182937.08207      3578.894 7        44.188    21779380.389 7  89182950.10707      3579.003 7        42.563
G13  25305807.638 4                     -2197.476 4        27.156
G14  25612750.621 3                     -1770.011 3        21.781
G15  23727774.197 5 124690297.47905     -2058.512 5        35.875    23727777.623 4  97161277.54504     -1604.026 4        26.000    23727777.783 5  97161213.55605     -1604.055 5        34.469
G17  22892036.468 5 120298475.38805      -164.894 5        35.500    22892038.708 3  93739060.39103      -128.497 3        22.375    22892040.077 5  93739067.28005      -128.071 5        34.781
G19  21561426.771 7 113306059.52007      2034.111 7        42.438    21561422.023 4  88290427.68604      1585.020 4        25.844
G22  24038711.812 5                     -1354.407 5        30.469
G23  24949734.440 4                     -1310.939 4        26.719                                                                    24949751.966 4                     -1021.077 4        26.250
G24  20329253.694 8 106830940.00908      1072.458 8        48.281    20329256.348 8  83244890.19008       835.682 8        50.531    20329256.505 7  83244890.18507       835.721 7        46.844
G32  24217798.594 5 127265416.79905      4786.351 5        30.875    24217804.934 1  99167848.70201      3729.631 1         9.313    24217807.105 5  99167873.71705      3729.399 5        35.125
> 2024 02 29 08 37 59.0000000  0 12
G02  26018504.472 3                      -105.903 3        23.406
G10                                                                                                                                  24061077.330 5  98526103.31005       198.007 5        30.750
G12  21778506.839 7 114446840.36307      4593.086 7        46.250    21778506.890 7  89179358.82507      3579.028 7        44.313    21778506.726 7  89179371.85007      3579.110 7        43.094
G13  25306227.139 4                     -2198.157 4        26.906
G14  25613088.993 3                     -1770.865 3        22.344
G15  23728166.043 6 124692356.94006     -2058.310 6        36.531    23728169.400 4  97162882.30904     -1603.877 4        25.844    23728169.818 5  97162818.31505     -1604.111 5        35.813
G17  22892068.360 5 120298641.01105      -164.997 5        34.094    22892070.331 3  93739189.44003      -128.554 3        22.031    22892071.633 5  93739196.34905      -128.202 5        34.313
G19  21561039.753 7 113304026.25207      2033.983 7        42.000    21561035.156 4  88288843.31704      1584.940 4        25.875
G22  24038970.191 5                     -1354.783 5        30.656
G23  24949986.170 4                     -1311.321 4        24.406                                                                    24950002.511 4                     -1021.790 4        28.563
G24  20329049.847 8 106829868.59008      1072.264 8        48.406    20329052.469 8  83244055.31808       835.527 8        50.594    20329052.637 7  83244055.30907       835.650 7        46.938
G32  24216888.615 5 127260631.40505      4786.334 5        31.594    24216894.311 1  99164119.82701      3729.625 1        10.219    24216896.768 5  99164144.83805      3729.603 5        34.875
> 2024 02 29 08 38  0.0000000  0 11
G10  24061023.456 5 126441537.51405       253.040 5        30.031                                                                    24061029.174 5  98525905.76605       196.801 5        30.719
G12  21777632.809 7 114442248.35107      4591.348 7        47.188    21777633.014 7  89175780.63207      3577.674 7        44.406    21777633.097 7  89175793.65407      3577.564 7        43.094
G13  25306647.606 4                     -2197.485 4        28.063
G14  25613424.427 3                     -1771.686 3        22.625
G15  23728558.062 5 124694416.19305     -2059.667 5        35.406    23728561.234 4  97164486.91404     -1604.937 4        25.906    23728561.365 5  97164422.93905     -1605.250 5        33.813
G17  22892099.775 5 120298806.80805      -166.818 5        35.094    22892102.084 3  93739318.61803      -129.992 3        22.156    22892102.565 5  93739325.57605      -129.935 5        34.750
G19  21560652.735 7 113301993.37807      2032.053 7        42.594    21560648.352 4  88287259.25504      1583.418 4        25.906
G22  24039228.481 5                     -1354.738 5        31.313
G23  24950237.220 4                     -1311.957 4        24.875                                                                    24950254.116 4                     -1021.663 4        25.844
G24  20328846.116 8 106828797.40408      1070.375 8        48.063    20328848.630 8  83243220.62708       834.052 8        50.625    20328848.596 7  83243220.64107       834.092 7        47.031
G32  24215978.474 5 127255846.13405      4784.395 5        30.656    24215983.696 1  99160391.01601      3728.078 1        10.125    24215985.818 5  99160415.94105      3728.355 5        35.031
> 2024 02 29 08 38  1.0000000  0 12
G02  26018541.949 3                      -107.336 3        23.281
G10  24060974.568 4 126441284.80104       252.572 4        26.906                                                                    24060980.559 5  98525708.91405       196.651 5        32.438
G12  21776758.935 7 114437656.90407      4591.186 7        46.969    21776759.263 7  89172202.88507      3577.550 7        44.469    21776759.605 7  89172215.91507      3577.596 7        42.938
G13  25307066.145 4                     -2197.347 4        27.750
G14  25613760.081 3                     -1773.135 3        23.156
G15  23728950.076 5 124696475.85905     -2059.962 5        35.563    23728953.132 4  97166091.84304     -1605.159 4        25.938    23728953.170 5  97166027.87205     -1605.006 5        34.219
G17  22892131.249 5 120298973.31605      -167.005 5        35.281    22892133.895 3  93739448.36703      -130.137 3        22.375    22892133.786 5  93739455.33405      -130.269 5        35.188
G19  21560265.846 7 113299961.39407      2031.609 7        42.906    21560261.690 4  88285675.88904      1583.070 4        25.875
G22  24039486.748 5                     -1355.058 5        30.531
G23  24950487.864 4                     -1311.318 4        26.188
G24  20328642.407 8 106827727.00008      1069.857 8        48.156    20328644.943 8  83242386.54808       833.661 8        50.625    20328644.917 7  83242386.55407       833.714 7        46.875
G32  24215069.127 5 127251061.13805      4784.013 5        30.344    24215073.126 1  99156662.43601      3727.810 1        10.219    24215075.188 5  99156687.46505      3728.266 5        35.875
> 2024 02 29 08 38  2.0000000  0 12
G02  26018561.745 3                      -109.015 3        21.969
G10                                                                                                                                  24060932.531 5  98525512.62305       196.594 5        31.250
G12  21775885.247 7 114433066.01807      4590.966 7        47.063    21775885.611 7  89168625.57307      3577.375 7        44.531    21775885.940 7  89168638.60607      3577.355 7        42.469
G13  25307485.150 4                     -2197.793 4        25.563
G14  25614095.108 4                     -1774.485 4        25.719
G15  23729341.960 5 124698535.74005     -2059.928 5        35.094    23729345.083 4  97167696.93604     -1605.141 4        25.750    23729344.989 6  97167632.98206     -1604.824 6        36.219
G17  22892162.882 6 120299140.44206      -167.158 6        36.500    22892165.796 3  93739578.60603      -130.263 3        22.563    22892165.667 5  93739585.57605      -130.350 5        33.594
G19  21559879.436 7 113297930.25307      2031.127 7        42.469    21559875.235 4  88284093.17304      1582.707 4        25.969
G22  24039744.918 5                     -1355.331 5        32.406
G23  24950738.230 4                     -1312.172 4        25.969
G24  20328438.938 8 106826657.32008      1069.698 8        48.563    20328441.390 8  83241553.03208       833.529 8        50.688    20328441.309 7  83241553.03607       833.513 7        46.875
G32  24214159.120 4 127246276.88304      4784.881 4        28.344    24214162.704 1  99152934.45101      3728.445 1        11.094    24214164.523 5  99152959.40105      3728.318 5        35.250
> 2024 02 29 08 38  3.0000000  0 11
G02  26018580.199 4                      -107.097 4        24.406
G10                                                                                                                                  24060884.329 5  98525316.51305       196.127 5        31.656
G12  21775011.643 7 114428475.28007      4591.182 7        47.469    21775011.972 7  89165048.37507      3577.540 7        44.563    21775012.400 7  89165061.40307      3577.518 7        42.500
G13  25307902.267 4                     -2197.735 4        26.844
G15  23729733.800 5 124700595.59905     -2058.701 5        33.219    23729737.106 4  97169302.02804     -1604.166 4        25.594    23729737.756 6  97169238.04906     -1604.319 6        37.281
G17  22892194.565 6 120299307.79906      -166.767 6        37.156    22892197.764 3  93739709.01503      -129.937 3        22.688    22892197.591 5  93739715.96505      -130.136 5        34.188
G19  21559493.180 6 113295899.56506      2030.961 6        41.750    21559488.891 4  88282510.81904      1582.560 4        25.938
G22  24040004.182 5                     -1355.057 5        33.813
G23  24950987.867 3                     -1312.181 3        23.500                                                                    24951009.301 4                     -1021.971 4        28.313
G24  20328235.365 8 106825587.95208      1069.683 8        48.750    20328237.904 8  83240719.75908       833.520 8        50.813    20328237.807 7  83240719.75407       833.565 7        47.250
G32  24213248.528 4 127241492.52104      4784.954 4        29.781    24213252.286 1  99149206.38701      3728.539 1        10.875    24213254.310 5  99149231.40705      3728.369 5        35.063
> 2024 02 29 08 38  4.0000000  0 11
G02  26018600.688 3                      -108.540 3        23.656
G10  24060833.457 4                       250.710 4        26.531                                                                    24060836.896 5  98525120.66505       196.122 5        30.719
G12  21774138.112 7 114423884.68307      4590.951 7        47.750    21774138.360 7  89161471.29107      3577.360 7        44.688    21774138.831 7  89161484.31307      3577.305 7        42.750
G13  25308319.648 4                     -2196.683 4        26.469
G15  23730125.536 5 124702655.40705     -2059.156 5        34.281    23730129.169 4  97170907.06404     -1604.515 4        25.438    23730130.499 6  97170843.04906     -1604.779 6        36.563
G17  22892226.848 6 120299475.48906      -167.607 6        38.031    22892229.745 3  93739839.68003      -130.584 3        22.813    22892229.465 5  93739846.61505      -130.672 5        33.063
G19  21559106.604 6 113293869.33406      2030.419 6        41.844    21559102.619 4  88280928.82404      1582.153 4        25.750
G22  24040262.562 5                     -1355.224 5        34.313
G23  24951238.144 3                     -1311.311 3        22.656                                                                    24951259.332 4                     -1022.076 4        28.500
G24  20328031.987 8 106824518.91308      1069.227 8        48.625    20328034.481 8  83239886.74108       833.169 8        50.906    20328034.391 7  83239886.74607       833.172 7        47.156
G32  24212337.913 4 127236708.42104      4784.046 4        29.969    24212341.899 1  99145478.50701      3727.868 1        11.406    24212343.818 5  99145503.44805      3728.142 5        34.375
> 2024 02 29 08 38  5.0000000  0 12
G02  26018622.165 3                      -108.916 3        21.000
G10                                                                                                                                  24060789.934 5  98524925.52705       194.245 5        30.188
G12  21773264.795 7 114419294.83407      4588.866 7        47.688    21773264.910 7  89157894.78407      3575.745 7        44.781    21773265.480 7  89157907.80907      3575.747 7        42.531
G13  25308738.291 4                     -2196.371 4        24.375
G14  25615100.047 3                     -1773.455 3        22.219
G15  23730517.416 5 124704715.69105     -2061.644 5        35.031    23730521.294 4  97172512.45304     -1606.459 4        25.250    23730522.905 6  97172448.45206     -1606.358 6        36.281
G17  22892259.331 6 120299643.97306      -169.668 6        37.938    22892261.815 3  93739970.96303      -132.198 3        23.000    22892260.886 5  93739977.86805      -131.960 5        32.469
G19  21558720.240 7 113291840.15707      2028.095 7        42.313    21558716.566 4  88279347.65904      1580.333 4        25.500
G22  24040520.565 5                     -1356.386 5        33.375
G23  24951490.267 3                     -1311.373 3        18.656                                                                    24951509.729 4                     -1022.594 4        29.156
G24  20327828.729 8 106823450.80608      1067.017 8        48.750    20327831.242 8  83239054.44808       831.444 8        51.000    20327831.162 7  83239054.44607       831.399 7        47.000
G32  24211428.090 5 127231924.90305      4782.621 5        31.250    24211431.633 2  99141751.10602      3726.748 2        12.000    24211433.747 5  99141776.06705      3726.775 5        35.125
> 2024 02 29 08 38  6.0000000  0 11
G02  26018645.033 3                      -110.881 3        23.906
G10  24060743.810 4                       249.453 4        27.500                                                                    24060742.979 4  98524731.10804       194.448 4        29.906
G12  21772391.718 7 114414705.74807      4589.162 7        47.688    21772391.602 7  89154318.87007      3575.971 7        44.844    21772392.213 7  89154331.89407      3575.968 7        42.875
G13  25309155.600 3                     -2197.458 3        23.844
G15  23730909.228 5 124706776.45005     -2060.913 5        32.969    23730913.558 4  97174118.24204     -1605.919 4        25.156    23730915.073 6  97174054.25206     -1605.774 6        36.594
G17  22892291.793 6 120299813.32806      -169.433 6        38.219    22892293.997 3  93740102.91203      -132.025 3        23.344    22892292.691 5  93740109.87605      -132.408 5        32.969
G19  21558334.361 7 113289812.06307      2027.806 7        42.563    21558330.719 4  88277767.32704      1580.111 4        25.594
G22  24040778.059 5                     -1355.673 5        32.813
G23                                                                                                                                  24951759.411 4                     -1023.408 4        29.938
G24  20327625.619 8 106822383.63508      1067.162 8        48.750    20327628.172 8  83238222.88408       831.556 8        51.031    20327628.028 7  83238222.88907       831.491 7        46.875
G32  24210519.148 5 127227142.10505      4782.900 5        32.719    24210521.506 2  99138024.20202      3726.925 2        12.156    24210523.675 5  99138049.22205      3726.719 5        35.313
> 2024 02 29 08 38  7.0000000  0 11
G02  26018666.734 4                      -108.936 4        28.156
G10  24060697.041 4 126439779.35704       250.991 4        25.344                                                                    24060695.568 4  98524535.85104       196.380 4        28.188
G12  21771518.078 7 114410114.82207      4591.960 7        46.875    21771517.967 7  89150741.52507      3578.123 7        44.938    21771518.652 7  89150754.66607      3577.778 7        45.125
G14  25615771.104 4                     -1771.080 4        26.813                                                                    25615789.444 3                     -1380.532 3        22.063
G15  23731300.776 6 124708836.51606     -2056.828 6        36.906    23731305.670 4  97175723.49604     -1602.696 4        25.094    23731307.092 6  97175659.33506     -1604.510 6        36.469
G17  22892324.566 6                      -168.311 6        36.813                                                                    22892324.611 5  93740241.41105      -131.726 5        33.000
G19  21557948.619 6 113287783.24906      2028.616 6        37.531    21557944.719 4  88276186.45004      1580.717 4        24.969
G22  24041037.060 6 126336499.34516     -1355.032 6        37.406
G23                                                                                                                                  24952008.977 4                     -1022.619 4        24.781
G24  20327422.270 7 106821314.63607      1069.932 7        47.531    20327424.749 8  83237389.89108       833.735 8        50.906    20327424.640 7  83237389.89907       833.048 7        47.000
G32  24209608.743 5 127222357.52105      4785.171 5        30.469    24209611.030 1  99134295.96301      3728.648 1        11.750
> 2024 02 29 08 38  8.0000000  0 11
G02  26018689.347 4                      -110.928 4        29.969
G10                                                                                                                                  24060647.996 4  98524342.33704       194.390 4        27.250
G12  21770644.711 7 114405525.40407      4590.524 7        45.406    21770644.633 7  89147165.38307      3577.023 7        44.813    21770645.604 7  89147178.48007      3576.290 7        44.844
G13  25309987.496 5                     -2196.522 5        33.125
G14  25616108.702 4                     -1771.653 4        25.188                                                                    25616125.884 4                     -1381.990 4        26.063
G15  23731693.473 6 124710896.53906     -2059.365 6        39.781    23731697.639 4  97177328.63004     -1604.662 4        25.625    23731699.175 6  97177264.57606     -1604.855 6        37.156
G17  22892357.651 5                      -171.352 5        34.094    22892361.014 3                      -133.452 3        23.500    22892356.963 5  93740374.84705      -134.122 5        30.938
G19  21557561.844 6 113285756.63106      2027.007 6        40.281    21557559.136 3  88274607.29603      1579.485 3        23.875
G22  24041292.400 5 126337855.96405     -1354.918 5        32.125    24041297.391 1                     -1055.283 1         7.500
G23                                                                                                                                  24952261.230 3                     -1022.644 3        22.969
G24  20327219.090 8 106820248.03408      1066.952 8        48.813    20327221.777 8  83236558.77008       831.383 8        51.219    20327221.529 8  83236558.81508       831.091 8        48.094
> 2024 02 29 08 38  9.0000000  0 10
G02  26018708.722 4                      -112.479 4        25.781
G10  24060602.408 4                       249.220 4        26.406                                                                    24060599.574 3  98524148.61203       194.198 3        23.531
G12  21769771.399 7 114400937.19507      4589.238 7        43.594    21769771.535 7  89143590.16607      3576.040 7        44.656    21769772.633 7  89143603.19307      3575.742 7        45.781
G14  25616447.897 4                     -1773.419 4        28.875                                                                    25616463.174 4                     -1381.718 4        24.781
G15  23732085.562 6 124712957.06506     -2060.157 6        39.063    23732089.658 4  97178934.22104     -1605.318 4        26.781    23732090.579 5  97178870.13805     -1604.517 5        35.969
G17  22892389.233 5                      -172.349 5        33.813    22892393.500 3                      -134.308 3        22.656    22892389.002 5  93740507.80105      -133.990 5        31.781
G19  21557176.617 6 113283730.39506      2024.727 6        36.719    21557173.557 3  88273028.43803      1577.648 3        22.375
G22  24041550.010 5 126339211.81305     -1356.262 5        34.813    24041555.390 1  98446150.59711     -1056.793 1        10.000
G23  24952473.564 4                     -1312.607 4        26.094                                                                    24952507.939 5                     -1023.518 5        30.219
G24  20327016.246 7 106819182.27907      1065.918 7        47.844    20327018.967 8  83235728.32108       830.582 8        51.219    20327018.774 7  83235728.32807       830.450 7        47.031
> 2024 02 29 08 38 10.0000000  0 11
G02  26018730.946 5                      -112.016 5        30.313
G10  24060555.255 5                       245.984 5        30.594                                                                    24060551.920 3  98523956.31503       191.272 3        22.625
G12  21768898.042 7 114396349.91207      4585.910 7        47.469    21768898.598 7  89140015.66307      3573.439 7        44.969    21768899.824 7  89140028.70107      3573.398 7        45.875
G14  25616784.986 4                     -1774.436 4        28.563                                                                    25616800.795 3                     -1384.451 3        22.875
G15  23732478.101 6 124715018.83106     -2062.784 6        39.438    23732481.882 4  97180540.76904     -1607.337 4        28.281    23732482.932 6  97180476.78706     -1607.695 6        36.406
G17  22892421.134 5                      -172.895 5        34.469    22892426.134 3                      -134.738 3        22.313    22892422.551 5  93740641.53105      -134.660 5        35.500
G19  21556791.229 5 113281705.32405      2023.741 5        35.781    21556788.094 3  88271450.45103      1576.923 3        20.781
G22  24041808.855 4 126340568.49304     -1356.962 4        28.031    24041813.550 1  98447207.73901     -1057.285 1         9.031
G23  24952724.122 3                     -1314.098 3        23.813                                                                    24952757.728 5                     -1024.440 5        31.219
G24  20326813.358 8 106818117.65608      1063.104 8        49.781    20326816.376 8  83234898.74308       828.389 8        51.250    20326816.245 7  83234898.77707       828.436 7        46.594
G32  24206880.817 4                      4781.202 4        28.938
> 2024 02 29 08 38 11.0000000  0 12
G02  26018752.146 4                      -112.236 4        27.875
G10  24060506.040 5                       246.596 5        32.313
G12  21768025.026 8 114391762.65708      4587.105 8        48.313    21768025.648 7  89136441.18407      3574.365 7        45.594    21768026.945 7  89136454.17007      3574.340 7        45.969
G13  25311234.498 4                     -2197.178 4        28.063
G14  25617122.634 4                     -1774.098 4        25.188                                                                    25617140.070 3                     -1382.195 3        22.625
G15  23732870.362 6 124717080.19106     -2061.488 6        41.188    23732874.070 4  97182147.00204     -1606.342 4        29.219    23732874.908 6  97182082.97106     -1606.459 6        38.094
G17  22892452.554 6                      -171.875 6        36.094    22892458.866 3                      -133.930 3        22.688    22892455.881 5  93740775.55105      -133.947 5        34.344
G19  21556405.721 6 113279680.89606      2024.557 6        36.813    21556402.819 3  88269873.00003      1577.552 3        19.344
G22  24042065.263 4 126341925.06204     -1356.288 4        27.750    24042071.661 1  98448264.76001     -1056.650 1         7.875
G23  24952973.393 4                     -1313.799 4        25.438                                                                    24953005.523 4                     -1024.164 4        27.906
G24  20326610.703 8 106817053.23208      1064.162 8        50.375    20326613.829 8  83234069.32808       829.207 8        51.313    20326613.774 7  83234069.32807       829.230 7        46.406
G32  24205970.734 4                      4781.034 4        29.156                                                                    24205989.150 4                      3725.353 4        25.156
> 2024 02 29 08 38 12.0000000  0 11
G02  26018773.789 5                      -112.490 5        30.438
G10  24060457.894 4                       243.638 4        28.750                                                                    24060466.097 3                       190.560 3        23.781
G12  21767152.699 7 114387176.73407      4584.688 7        44.594    21767152.926 7  89132867.73207      3572.478 7        46.188    21767154.217 7  89132880.73807      3572.775 7        46.281
G14  25617461.641 4                     -1773.615 4        29.000                                                                    25617478.460 3                     -1382.654 3        23.688
G15  23733263.139 6 124719142.78006     -2063.139 6        38.781    23733266.499 5  97183754.20305     -1607.632 5        30.000    23733267.688 5  97183690.21805     -1607.081 5        35.375
G17  22892485.146 5                      -173.507 5        35.938    22892491.670 3                      -135.189 3        23.406    22892489.522 5  93740910.01505      -135.541 5        33.563
G19  21556020.370 6 113277657.19006      2022.494 6        38.656    21556017.902 3  88268296.07203      1575.965 3        18.313
G22  24042323.256 5 126343281.57305     -1357.473 5        31.906    24042329.665 1  98449321.69101     -1057.776 1         8.094
G23  24953224.273 4                     -1314.014 4        25.594                                                                    24953254.100 5                     -1024.533 5        31.063
G24  20326408.583 8 106815990.09008      1062.159 8        48.813    20326411.510 8  83233240.90508       827.659 8        51.250    20326411.398 7  83233240.90907       827.823 7        46.281
G32  24205061.322 4                      4780.669 4        28.344                                                                    24205078.517 5                      3724.870 5        30.750
> 2024 02 29 08 38 13.0000000  0 11
G02  26018795.570 5                      -113.252 5        30.688
G10  24060411.153 5 126438297.81005       245.437 5        31.969                                                                    24060421.967 4                       191.131 4        26.438
G12  21766279.745 7 114382590.56007      4585.890 7        47.469    21766280.195 7  89129294.10007      3573.411 7        45.813    21766281.620 7  89129307.09307      3573.374 7        46.031
G14  25617801.153 4                     -1774.031 4        27.000                                                                    25617815.397 3                     -1382.131 3        23.000
G15  23733655.609 6 124721204.75906     -2062.462 6        39.781    23733658.857 5  97185360.93705     -1607.102 5        30.000    23733659.638 6  97185296.92706     -1607.126 6        37.531
G17  22892517.810 5 120301012.79005      -173.313 5        35.594    22892524.684 3  93741061.21513      -135.059 3        23.219    22892523.089 5  93741045.17205      -135.075 5        34.156
G19  21555635.522 6 113275634.60406      2022.827 6        36.469    21555633.065 2  88266720.02402      1576.222 2        17.375
G22  24042581.960 4 126344638.95204     -1357.105 4        29.094    24042588.138 1  98450379.45301     -1057.485 1         8.375
G23  24953474.885 3                     -1314.998 3        23.563                                                                    24953503.121 4                     -1024.401 4        29.313
G24  20326206.288 8 106814927.28108      1062.586 8        49.906    20326209.250 8  83232412.74208       827.985 8        51.063    20326209.208 7  83232412.75707       827.911 7        46.063
G32  24204151.692 4                      4779.868 4        28.781                                                                    24204169.271 4                      3724.769 4        25.688
> 2024 02 29 08 38 14.0000000  0 12
G02  26018817.271 4                      -113.052 4        28.219
G10  24060361.424 4                       243.056 4        27.906
G12  21765407.256 7 114378005.64007      4582.121 7        44.406    21765407.705 7  89125721.44707      3570.477 7        46.375    21765409.003 7  89125734.28007      3571.782 7        45.406
G13  25312480.091 4                     -2198.433 4        28.063
G14  25618138.864 4                     -1773.862 4        28.125                                                                    25618153.581 4                     -1381.959 4        24.344
G15  23734048.240 6 124723267.75806     -2063.076 6        38.563    23734051.367 5  97186968.45505     -1607.591 5        30.406    23734051.961 6  97186904.50406     -1608.381 6        37.438
G17  22892551.142 6 120301185.90906      -172.594 6        36.094    22892557.573 3  93741196.11303      -134.497 3        23.344    22892556.367 5  93741180.19105      -134.770 5        33.813
G19  21555250.612 6 113273612.19006      2021.318 6        40.781    21555248.121 3  88265144.14103      1575.047 3        18.000
G22  24042839.758 5 126345995.64405     -1357.381 5        34.906    24042846.455 1  98451436.67601     -1057.843 1         7.875
G23  24953726.114 3                     -1319.429 3        21.500
G24  20326004.184 8 106813865.13908      1060.872 8        49.063    20326007.110 8  83231585.10308       826.653 8        51.313    20326006.895 7  83231585.09507       826.761 7        46.750
G32  24203242.526 4                      4779.834 4        27.125                                                                    24203259.278 5                      3723.895 5        30.438
> 2024 02 29 08 38 15.0000000  0 12
G02  26018839.128 5                      -114.381 5        30.781
G10  24060313.443 5                       243.885 5        31.594                                                                    24060322.513 4                       189.653 4        29.500
G12  21764535.015 7 114373421.57307      4585.276 7        44.375    21764535.359 7  89122149.43707      3572.931 7        45.594    21764536.692 6  89122162.43406      3573.135 6        41.344
G13  25312899.717 3                     -2200.077 3        23.844
G14  25618476.230 3                     -1772.780 3        18.781                                                                    25618490.880 4                     -1382.850 4        28.406
G15  23734441.057 6 124725331.84206     -2062.882 6        37.188    23734444.182 5  97188576.83205     -1607.380 5        30.281    23734445.457 6  97188512.79006     -1608.035 6        36.688
G17  22892584.182 6 120301360.65306      -175.796 6        38.281    22892590.712 3  93741332.26403      -136.909 3        23.875    22892589.298 5  93741316.24005      -137.290 5        35.281
G19  21554866.497 6 113271591.46006      2019.773 6        37.000    21554863.557 3  88263569.55003      1573.832 3        19.750
G22  24043098.065 6 126347353.23006     -1358.761 6        38.031    24043104.682 1  98452494.54701     -1058.803 1        10.875
G23  24953978.940 3                     -1317.435 3        19.594
G24  20325802.529 7 106812804.49307      1061.100 7        45.563    20325805.248 8  83230758.62208       826.814 8        50.719    20325804.989 7  83230758.65007       826.972 7        46.500
G32  24202333.812 5                      4778.533 5        31.094                                                                    24202348.538 5                      3723.501 5        32.125
> 2024 02 29 08 38 16.0000000  0 12
G02  26018861.728 5                      -115.564 5        32.313
G10  24060271.750 3                       241.560 3        21.219                                                                    24060274.278 4                       189.573 4        26.938
G12  21763662.823 6 114368836.18106      4584.466 6        41.719    21763662.771 7  89118576.40507      3572.334 7        44.438    21763663.918 6  89118589.44606      3572.899 6        41.188
G13  25313321.315 4                     -2199.355 4        27.250
G14                                                                                                                                  25618827.723 4                     -1383.003 4        26.656
G15  23734833.766 6 124727394.27606     -2062.262 6        40.094    23734836.777 4  97190183.90004     -1606.940 4        29.906    23734838.385 6  97190119.87806     -1607.277 6        37.469
G17  22892618.120 6 120301536.44506      -174.881 6        39.438    22892623.891 4  93741469.22804      -136.327 4        25.125    22892621.939 5  93741453.25705      -136.051 5        32.313
G19  21554481.891 6 113269571.46406      2020.546 6        41.313    21554479.176 3  88261995.52203      1574.451 3        20.281
G22  24043356.997 5 126348711.37005     -1357.405 5        30.406    24043362.663 1  98453552.83001     -1057.682 1         9.875
G23  24954230.849 3                     -1313.675 3        21.688
G24  20325600.451 7 106811743.39907      1061.022 7        47.844    20325603.296 8  83229931.80708       826.752 8        50.656    20325603.128 7  83229931.84907       826.760 7        47.281
G32  24201423.756 5                      4778.041 5        31.813                                                                    24201437.302 4                      3722.669 4        27.188
> 2024 02 29 08 38 17.0000000  0 12
G02  26018884.770 5                      -115.580 5        33.156
G10  24060222.651 4                       243.030 4        26.406                                                                    24060226.570 5                       189.138 5        30.125
G12  21762790.129 7 114364252.08607      4584.653 7        45.406    21762790.442 7  89115004.38407      3572.478 7        43.531    21762790.960 6  89115017.36406      3572.295 6        41.594
G13  25313740.332 5                     -2198.487 5        32.500
G14  25619156.891 4                     -1774.591 4        27.094
G15  23735226.153 6 124729457.54406     -2062.526 6        37.125    23735229.515 5  97191791.64805     -1607.185 5        30.031    23735231.934 6  97191727.63206     -1607.050 6        37.156
G17  22892651.484 6 120301712.37806      -175.089 6        39.719    22892657.169 4  93741606.33804      -136.417 4        25.844    22892655.059 5  93741590.20705      -135.938 5        33.469
G19  21554098.162 6 113267552.10506      2020.334 6        38.594    21554094.862 3  88260421.99003      1574.291 3        20.031
G22  24043614.351 4                     -1357.533 4        25.281
G23  24954480.240 4                     -1316.062 4        29.344
G24  20325398.843 7 106810683.28007      1060.887 7        46.344    20325401.536 8  83229105.76508       826.643 8        50.281    20325401.367 7  83229105.79307       826.727 7        45.156
G32  24200513.477 4                      4778.455 4        26.969
> 2024 02 29 08 38 18.0000000  0 12
G02  26018906.502 5                      -114.734 5        31.531
G10  24060175.525 4                       240.910 4        29.000                                                                    24060179.806 4                       188.798 4        25.906
G12  21761917.891 7 114359669.01907      4581.277 7        44.031    21761918.199 7  89111433.15307      3569.818 7        42.906    21761918.822 6  89111446.26306      3569.541 6        40.219
G13  25314158.657 5                     -2200.269 5        34.813
G14  25619494.879 3                     -1773.050 3        23.313
G15  23735619.059 6 124731521.47306     -2065.090 6        39.469    23735622.436 4  97193399.90304     -1609.200 4        28.969    23735624.849 5  97193336.15105     -1608.336 5        30.313
G17  22892685.358 6 120301887.53906      -177.059 6        39.375    22892690.545 4  93741742.79004      -137.878 4        25.531    22892688.249 5  93741726.74005      -137.967 5        33.844
G19  21553712.136 5 113265532.48005      2017.749 5        33.844    21553710.424 3  88258848.24703      1572.343 3        18.500
G22  24043873.808 5                     -1356.134 5        35.719
G23  24954732.095 4                     -1315.181 4        25.281
G24  20325197.028 7 106809623.76907      1057.870 7        45.938    20325199.853 8  83228280.18808       824.316 8        49.688    20325199.757 7  83228280.14507       824.479 7        47.156
G32  24199603.837 5                      4776.177 5        35.000
> 2024 02 29 08 38 19.0000000  0 12
G02  26018927.519 5                      -116.512 5        31.313
G10  24060128.779 4                       241.581 4        28.969                                                                    24060133.399 3                       188.257 3        22.875
G12  21761045.768 7 114355084.98107      4584.485 7        44.031    21761045.888 7  89107861.19107      3572.325 7        42.250    21761046.246 6  89107874.19106      3572.741 6        41.375
G13  25314577.250 5 133028999.52115     -2196.326 5        32.188
G14  25619832.316 4                     -1773.824 4        26.281
G15  23736012.101 6 124733584.45406     -2063.278 6        37.781    23736015.139 4  97195007.45704     -1607.665 4        27.875    23736016.716 5  97194943.45305     -1607.487 5        31.250
G17  22892719.530 6 120302064.65706      -175.108 6        37.406    22892724.074 4  93741880.75604      -136.400 4        26.188    22892721.484 5  93741864.63705      -135.235 5        31.563
G19  21553328.092 6 113263514.53406      2019.495 6        39.031    21553326.240 3  88257275.78703      1573.673 3        18.000
G22  24044131.611 4 126352768.70314     -1359.196 4        29.906
G23  24954983.655 4                     -1314.982 4        26.406
G24  20324995.361 7 106808564.17107      1061.373 7        46.594    20324998.192 8  83227454.51308       827.042 8        49.563    20324998.237 7  83227454.54107       827.296 7        46.031
G32  24198694.586 5 127164997.60515      4780.136 5        32.031
> 2024 02 29 08 38 20.0000000  0 12
G02  26018947.512 4                      -116.875 4        27.406
G10  24060082.989 4                       239.483 4        28.875                                                                    24060089.578 4                       186.629 4        27.313
G12  21760174.049 6 114350503.37106      4581.345 6        41.906    21760174.038 7  89104291.10907      3569.881 7        42.000    21760174.312 6  89104304.17406      3570.648 6        40.063
G13  25314996.170 5                     -2198.525 5        34.688
G14  25620168.430 3                     -1772.696 3        22.469
G15  23736405.046 6 124735649.00406     -2064.569 6        38.094    23736407.957 4  97196616.18904     -1608.801 4        26.906    23736409.732 5  97196552.34305     -1608.256 5        34.688
G17  22892753.496 6 120302241.29506      -176.708 6        41.000    22892757.414 4  93742018.38104      -137.740 4        25.156    22892755.667 5  93742002.41005      -137.788 5        31.281
G19  21552944.052 6 113261496.80206      2017.395 6        40.063    21552942.181 3  88255703.48803      1572.015 3        18.000
G22  24044392.078 5                     -1357.355 5        35.094
G23  24955235.627 4                     -1317.142 4        24.156
G24  20324794.226 7 106807506.56307      1057.862 7        46.094    20324796.924 8  83226630.42008       824.309 8        49.500    20324796.910 7  83226630.37907       824.402 7        47.469
G32                                                                                                                                  24197790.877 5                      3721.694 5        31.969
> 2024 02 29 08 38 21.0000000  0 12
G02  26018970.688 5                      -115.877 5        34.156
G10  24060038.344 4                       238.571 4        24.188                                                                    24060042.907 3                       186.207 3        22.719
G12  21759301.734 6 114345922.30706      4581.080 6        39.594    21759302.273 6  89100721.47806      3569.632 6        40.750    21759302.860 6  89100734.79206      3569.568 6        37.625
G13  25315412.836 5                     -2199.681 5        34.188
G14  25620505.600 3                     -1775.325 3        21.281
G15  23736798.478 5 124737714.87205     -2064.924 5        31.969    23736801.017 4  97198225.97604     -1608.915 4        26.500
G17  22892787.778 6 120302419.24306      -178.150 6        40.719    22892791.103 4  93742157.04504      -138.815 4        25.500    22892788.920 6  93742141.01606      -139.098 6        38.000
G19  21552560.668 6 113259480.77306      2016.224 6        40.750    21552558.560 3  88254132.57503      1571.029 3        19.281
G22  24044648.624 6                     -1358.705 6        38.750
G23  24955486.972 3                     -1322.394 3        19.938
G24  20324593.327 7 106806450.29607      1056.704 7        46.406    20324595.898 8  83225807.33308       823.440 8        49.438    20324596.006 7  83225807.36507       823.560 7        45.781
G32  24196878.682 5                      4776.112 5        31.531                                                                    24196880.111 5                      3721.630 5        33.406
> 2024 02 29 08 38 22.0000000  0 11
G02  26018994.057 5                      -117.748 5        32.656
G10  24059995.810 4                       239.559 4        29.031                                                                    24059995.499 3                       185.220 3        20.469
G12  21758430.247 7                      4582.209 7        43.344    21758431.442 4                      3570.406 4        27.250    21758431.158 6  89097163.60106      3570.590 6        41.594
G14  25620843.220 3                     -1775.138 3        21.781                                                                    25620844.125 4                     -1383.475 4        24.031
G15  23737190.788 6 124739777.63806     -2064.595 6        36.063    23737193.518 4  97199833.29404     -1608.756 4        25.094    23737198.031 5  97199770.30105     -1608.399 5        35.406
G17  22892822.017 6 120302598.65606      -178.602 6        41.625    22892825.047 4  93742296.84004      -139.166 4        28.156    22892823.548 5  93742280.96605      -139.599 5        32.406
G19  21552178.051 6 113257465.37506      2016.042 6        39.438    21552175.298 3  88252562.17603      1570.973 3        19.531
G22  24044907.401 5                     -1359.621 5        32.156
G23  24955740.003 3                     -1316.869 3        22.594                                                                    24955726.639 3                     -1026.099 3        23.844
G24  20324391.848 7 106805392.60207      1057.019 7        47.781    20324394.630 8  83224983.14708       823.645 8        49.375    20324394.900 7  83224983.17707       823.594 7        46.813
G32  24195969.825 5                      4776.482 5        32.375                                                                    24195971.441 4  99078457.53514      3721.134 4        28.719
> 2024 02 29 08 38 23.0000000  0 12
G02  26019017.734 5                      -119.996 5        32.750
G10  24059950.298 5                       239.768 5        30.438                                                                    24059951.047 4                       186.625 4        28.156
G12  21757558.169 7                      4582.186 7        44.438    21757559.435 5                      3570.496 5        33.031    21757559.265 7  89093593.03107      3571.077 7        43.656
G13  25316247.347 5                     -2197.838 5        31.688
G14  25621179.594 4                     -1775.537 4        26.750                                                                    25621183.790 3                     -1383.491 3        20.188
G15  23737583.499 6 124741841.26806     -2064.327 6        36.281    23737586.087 4  97201441.31004     -1608.569 4        26.094    23737589.759 5  97201378.31105     -1609.731 5        33.844
G17  22892855.936 6 120302778.51906      -179.516 6        38.531    22892859.126 4  93742437.02304      -139.911 4        28.000
G19  21551795.396 6 113255450.99906      2013.986 6        39.188    21551792.142 3  88250992.50303      1569.361 3        18.906
G22  24045167.414 5                     -1357.698 5        31.656    24045169.990 1                     -1058.016 1         9.125
G23  24955989.015 4                     -1317.262 4        27.531                                                                    24955977.140 4                     -1026.164 4        26.688
G24  20324190.919 8 106804336.12308      1056.812 8        49.813    20324193.572 8  83224159.93108       823.486 8        49.438    20324193.414 7  83224159.92907       823.502 7        44.219
G32  24195060.628 5                      4776.344 5        30.719
> 2024 02 29 08 38 24.0000000  0 11
G02  26019039.180 5                      -118.164 5        30.781
G10  24059903.673 5                       239.628 5        31.188                                                                    24059908.392 4                       186.487 4        25.563
G12  21756686.074 7                      4580.984 7        47.906    21756687.169 6                      3569.552 6        37.313    21756687.120 7  89090022.73707      3569.377 7        44.469
G13  25316665.926 4                     -2197.075 4        29.406
G14  25621514.496 4                     -1774.427 4        24.719
G15  23737975.875 5 124743904.89905     -2065.383 5        34.781    23737978.905 4  97203049.30304     -1609.360 4        25.875    23737981.634 6  97202986.33106     -1608.663 6        36.219
G17                                                                                                                                  22892892.763 4  93742560.67204      -138.964 4        28.156
G19  21551412.190 6 113253435.88906      2016.763 6        36.438    21551408.665 3  88249422.27803      1571.549 3        18.375
G23  24956238.263 4                     -1316.077 4        25.000                                                                    24956229.040 4                     -1025.847 4        26.500
G24  20323989.900 8 106803279.42708      1056.854 8        49.250    20323992.425 8  83223336.51908       823.554 8        49.438    20323992.123 7  83223336.47907       823.326 7        44.781
G32  24194150.917 4                      4776.933 4        27.469
> 2024 02 29 08 38 25.0000000  0 11
G02  26019061.641 5 136731086.40115      -119.242 5        34.063
G10  24059859.770 4                       237.691 4        29.188                                                                    24059864.387 5                       185.779 5        32.063
G12  21755814.682 7 114327595.42907      4580.745 7        44.219    21755815.288 6  89086429.75316      3569.415 6        40.063    21755815.693 7  89086453.75507      3569.278 7        44.938
G13  25317085.853 3                     -2199.280 3        23.656
G14  25621851.983 4                     -1773.696 4        25.719                                                                    25621864.214 3                     -1381.792 3        21.781
G15  23738368.088 6 124745970.11006     -2064.662 6        37.781    23738371.992 4  97204658.55304     -1608.775 4        26.031    23738373.838 5  97204595.70905     -1609.658 5        33.219
G17  22892924.618 6 120303137.35906      -180.091 6        38.094    22892926.951 3                      -140.152 3        19.125    22892927.648 4  93742699.77504      -140.790 4        27.656
G19  21551029.154 6 113251421.33906      2013.627 6        40.000    21551025.326 3  88247852.47603      1569.090 3        18.000
G23  24956485.655 4                     -1317.594 4        28.375                                                                    24956483.046 4                     -1026.945 4        29.063
G24  20323789.114 8 106802223.99408      1055.124 8        50.125    20323791.542 8  83222514.09308       822.160 8        49.750    20323791.478 7  83222514.13607       822.149 7        44.313
G32  24193242.480 4                      4776.198 4        24.406                                                                    24193252.726 4  99067293.69804      3720.360 4        27.188
> 2024 02 29 08 38 26.0000000  0 11
G10  24059816.319 4                       237.168 4        29.656                                                                    24059819.460 4  98520939.16814       183.958 4        29.594
G12  21754943.267 7 114323015.91007      4579.780 7        42.906    21754943.778 6  89082861.30706      3568.653 6        40.531    21754944.469 7  89082885.26007      3568.670 7        43.031
G13  25317506.024 5                     -2199.624 5        32.531
G14  25622187.176 4                     -1772.448 4        25.375
G15  23738760.994 6 124748035.42206     -2065.032 6        39.719    23738764.994 4  97206267.88404     -1609.116 4        26.000    23738766.133 5  97206204.89505     -1609.355 5        34.344
G17  22892958.596 7 120303317.09807      -181.799 7        42.719    22892961.123 3  93742848.88713      -141.736 3        20.375    22892961.853 5  93742840.02905      -141.420 5        33.781
G19  21550646.215 6 113249407.77806      2011.360 6        41.469    21550642.238 3  88246283.49103      1567.246 3        18.125
G22  24045945.894 4                     -1361.397 4        24.406
G23  24956736.133 4                     -1317.617 4        28.313                                                                    24956735.048 4                     -1027.524 4        25.375
G24  20323588.506 8 106801169.40008      1053.117 8        49.656    20323590.838 8  83221692.34708       820.613 8        50.219    20323590.910 7  83221692.30607       820.787 7        46.563
G32  24192332.916 4                      4775.713 4        28.469                                                                    24192339.035 4  99063572.90504      3721.866 4        26.906
> 2024 02 29 08 38 27.0000000  0 12
G02  26019107.448 4                      -119.625 4        29.031
G10  24059771.049 4                       237.220 4        29.250                                                                    24059777.109 4  98520753.64804       183.515 4        28.875
G12  21754071.506 7 114318435.23307      4581.125 7        43.813    21754072.124 6  89079291.93706      3569.739 6        40.500    21754072.680 7  89079315.88107      3569.224 7        43.719
G13  25317923.705 5                     -2198.573 5        32.750
G14  25622525.177 3                     -1775.499 3        23.063
G15  23739154.524 6 124750099.59606     -2064.008 6        38.250    23739157.723 4  97207876.32604     -1608.361 4        26.875    23739158.183 5  97207813.28905     -1608.542 5        35.313
G17  22892993.344 6 120303498.12206      -179.989 6        39.594    22892995.631 4  93742989.99904      -140.277 4        24.531    22892996.831 5  93742980.98105      -140.678 5        33.750
G19  21550263.092 7 113247395.49107      2012.870 7        42.688    21550259.288 3  88244715.51103      1568.430 3        19.531
G22  24046201.559 5                     -1358.497 5        30.563
G23  24956985.341 4                     -1317.707 4        27.625
G24  20323388.024 8 106800114.97008      1054.951 8        50.438    20323390.147 8  83220870.70308       822.033 8        50.563    20323390.316 7  83220870.72107       822.065 7        46.563
G32  24191425.261 4                      4774.377 4        28.906                                                                    24191429.068 5  99059852.24105      3721.718 5        31.281
> 2024 02 29 08 38 28.0000000  0 12
G02  26019130.960 4                      -120.177 4        26.250
G10  24059725.698 4                       236.081 4        27.063                                                                    24059730.323 5  98520568.44005       185.057 5        30.219
G12  21753199.632 7 114313854.46907      4580.138 7        43.781    21753200.395 6  89075722.50806      3568.901 6        41.156    21753200.999 7  89075746.55507      3568.934 7        44.469
G13  25318341.256 4                     -2197.808 4        28.406
G14  25622862.771 4                     -1773.236 4        26.188
G15  23739547.487 6 124752163.83906     -2062.912 6        38.750    23739550.573 4  97209484.81604     -1607.422 4        27.219    23739551.098 5  97209421.77105     -1607.990 5        34.438
G17  22893027.885 6 120303678.47206      -178.247 6        36.094    22893030.125 4  93743130.54104      -138.848 4        24.188    22893029.482 4  93743121.42704      -139.701 4        27.219
G19  21549879.798 6 113245383.01006      2014.357 6        38.375    21549876.486 3  88243147.33803      1569.712 3        19.125
G22  24046459.602 5                     -1357.673 5        31.063
G23  24957235.918 4                     -1317.779 4        26.031
G24  20323187.468 8 106799060.33608      1055.204 8        48.469    20323189.434 8  83220048.91008       822.217 8        50.781    20323189.865 7  83220048.97207       822.175 7        44.563
G32  24190516.203 4                      4774.205 4        25.531
> 2024 02 29 08 38 29.0000000  0 12
G02  26019153.895 3                      -119.359 3        23.000
G10  24059681.692 3                       235.717 3        22.188                                                                    24059683.800 4  98520384.14204       186.627 4        24.469
G12  21752327.778 7 114309274.10007      4581.640 7        44.844    21752328.782 6  89072153.40706      3570.107 6        41.375    21752329.569 7  89072177.46707      3569.975 7        44.094
G13  25318758.311 5                     -2197.301 5        33.688
G14  25623198.956 4                     -1774.157 4        25.625
G15  23739940.542 6 124754227.71006     -2062.038 6        39.563    23739943.343 4  97211093.01404     -1606.886 4        26.188    23739944.625 5  97211031.06905     -1604.480 5        30.531
G17  22893062.370 5 120303859.56805      -179.497 5        33.719    22893064.373 4  93743271.59804      -139.825 4        24.094    22893063.959 4  93743262.65704      -140.913 4        29.625
G19  21549496.766 6 113243371.27306      2011.933 6        38.281    21549493.800 2  88241579.74502      1567.734 2        17.469
G22  24046716.672 4                     -1360.682 4        27.188
G23  24957484.643 4                     -1317.601 4        25.219                                                                    24957493.628 3                     -1027.049 3        21.188
G24  20322987.026 7 106798006.30007      1054.221 7        47.906    20322988.828 8  83219227.60608       821.452 8        50.313    20322989.294 7  83219227.55407       821.859 7        44.719
G32  24189606.746 5                      4774.738 5        30.063                                                                    24189612.879 4  99052410.46804      3720.925 4        29.906
> 2024 02 29 08 38 30.0000000  0 12
G02  26019174.898 4                      -120.021 4        28.156
G10  24059635.438 4                       235.192 4        27.500                                                                    24059641.306 3                       182.436 3        22.406
G12  21751456.333 7 114304695.32707      4577.897 7        47.563    21751457.473 7  89068585.55407      3567.170 7        42.531    21751458.084 7  89068609.59207      3567.323 7        45.813
G13  25319174.181 4                     -2197.911 4        26.406
G14  25623536.841 4                     -1773.644 4        26.219
G15  23740333.983 7 124756292.78207     -2065.945 7        42.344    23740336.287 4  97212702.18504     -1609.838 4        28.031    23740336.983 6  97212640.20006     -1609.718 6        37.969
G17  22893096.239 6 120304041.04806      -182.111 6        36.750    22893098.881 3  93743413.03903      -141.959 3        22.750    22893097.892 5  93743404.14705      -141.864 5        31.688
G19  21549113.735 6 113241359.88206      2010.404 6        38.063    21549111.011 2  88240012.41702      1566.510 2        17.500
G22  24046974.561 5                     -1359.065 5        33.281
G23  24957735.224 4                     -1318.274 4        27.625                                                                    24957743.462 3                     -1028.894 3        22.375
G24  20322786.437 8 106796953.31208      1052.256 8        50.063    20322788.405 8  83218407.09408       819.952 8        50.375    20322788.925 7  83218407.08607       820.033 7        46.719
G32  24188698.265 4                      4774.723 4        28.313                                                                    24188706.820 4  99048690.22904      3718.833 4        27.469
> 2024 02 29 08 38 31.0000000  0 12
G02  26019197.641 4                      -121.288 4        28.906
G10  24059590.427 4                       235.030 4        29.094                                                                    24059598.473 4                       182.383 4        24.125
G12  21750585.494 7 114300118.17507      4579.837 7        43.844    21750586.445 7  89065018.95307      3568.720 7        43.156    21750587.260 7  89065042.94107      3568.208 7        42.250
G13  25319591.066 5                     -2198.413 5        32.500
G14  25623876.733 3                     -1773.909 3        22.906
G15  23740727.291 6 124758358.88406     -2064.345 6        40.875    23740729.481 5  97214312.14005     -1608.600 5        30.156    23740729.811 6  97214250.19406     -1608.342 6        38.000
G17  22893130.911 5 120304222.93305      -182.910 5        32.906    22893133.437 3  93743554.80403      -142.454 3        22.625    22893131.621 4  93743545.65204      -144.406 4        29.750
G19  21548731.129 6 113239349.64106      2010.418 6        39.625    21548728.634 3  88238446.04203      1566.483 3        18.688
G22  24047233.298 6 126369070.37506     -1358.505 6        36.063
G23  24957985.831 3                     -1317.891 3        21.250                                                                    24957994.396 3                     -1027.904 3        21.188
G24  20322586.161 8 106795901.68308      1052.896 8        49.438    20322588.282 8  83217587.63708       820.465 8        50.625    20322588.870 7  83217587.62507       820.342 7        43.375
G32  24187791.236 5                      4773.854 5        32.781
> 2024 02 29 08 38 32.0000000  0 12
G02  26019219.632 4                      -121.905 4        25.219
G10  24059546.949 3                       233.506 3        21.500                                                                    24059553.332 4                       183.644 4        25.156
G12  21749714.162 7 114295539.34207      4578.944 7        45.125    21749715.109 7  89061451.02307      3568.014 7        42.750    21749715.936 6  89061474.96806      3568.182 6        41.750
G13  25320007.911 5                     -2198.670 5        34.531
G14  25624214.793 3                     -1774.411 3        22.219                                                                    25624243.515 4                     -1381.511 4        24.094
G15  23741120.171 6 124760423.93506     -2064.029 6        38.156    23741122.536 5  97215921.28905     -1608.357 5        30.438    23741122.490 6  97215859.31606     -1608.475 6        38.469
G17  22893165.837 5 120304405.33905      -183.279 5        31.313    22893168.052 3  93743696.88203      -142.862 3        21.375    22893165.561 4  93743688.05304      -144.076 4        26.438
G19  21548348.606 6 113237339.93506      2009.508 6        40.438    21548346.364 3  88236880.03903      1565.819 3        20.656
G22  24047491.701 6 126370429.16406     -1359.120 6        40.469
G23  24958237.096 4                     -1321.140 4        24.531                                                                    24958247.995 3                     -1028.202 3        21.406
G24  20322385.958 7 106794849.42807      1052.087 7        47.438    20322388.025 8  83216767.67408       819.836 8        49.844    20322388.600 7  83216767.64907       819.906 7        42.500
G32  24186880.568 4                      4773.453 4        25.594                                                                    24186890.887 4  99041250.65404      3719.965 4        28.406
> 2024 02 29 08 38 33.0000000  0 12
G02  26019241.315 4                      -120.531 4        28.188
G10  24059502.626 4                       235.321 4        26.531                                                                    24059508.030 4                       182.734 4        28.813
G12  21748843.157 7 114290961.29007      4578.343 7        45.031    21748843.917 7  89057883.70007      3567.531 7        42.313    21748844.746 6  89057907.73406      3567.090 6        39.625
G13  25320427.067 5                     -2196.154 5        30.656
G14  25624552.910 4                     -1772.794 4        26.750                                                                    25624581.722 3                     -1381.914 3        23.406
G15  23741512.880 5 124762489.66905     -2065.630 5        34.094    23741515.699 4  97217530.94404     -1609.484 4        29.875    23741515.737 5  97217468.96805     -1608.465 5        35.000
G17  22893199.418 6 120304587.62106      -183.178 6        40.250    22893202.622 3  93743838.96103      -142.752 3        21.781    22893200.439 4  93743829.95304      -142.867 4        29.656
G19  21547966.335 6 113235330.30506      2007.855 6        38.125    21547964.232 3  88235314.11903      1564.544 3        21.469
G22  24047750.813 6 126371787.32906     -1359.105 6        36.344    24047757.343 3  98471546.07913     -1059.052 3        21.375
G23  24958489.412 4                     -1318.499 4        27.156                                                                    24958502.041 4                     -1026.382 4        27.250
G24  20322185.885 7 106793797.65207      1050.803 7        46.281    20322187.844 8  83215948.09008       818.800 8        49.313    20322188.417 7  83215948.17407       819.027 7        45.063
G32  24185972.350 5                      4773.875 5        35.000                                                                    24185980.700 5  99037531.02405      3719.379 5        32.969
> 2024 02 29 08 38 34.0000000  0 12
G02  26019263.803 4                      -122.348 4        28.063
G10  24059456.112 4                       232.463 4        25.688                                                                    24059462.406 4                       181.143 4        27.719
G12  21747972.219 7 114286383.62407      4576.983 7        44.094    21747972.760 6  89054316.70306      3566.490 6        41.781    21747973.604 6  89054340.66706      3566.429 6        41.969
G13  25320844.909 5                     -2198.158 5        32.063
G14  25624890.441 4                     -1774.205 4        24.781                                                                    25624921.695 3                     -1383.162 3        20.844
G15  23741905.433 6 124764554.83506     -2066.513 6        36.813    23741908.813 4  97219140.15204     -1610.273 4        29.156    23741908.681 6  97219078.16206     -1610.239 6        38.219
G17  22893234.064 5 120304772.07105      -182.955 5        32.125    22893237.492 3  93743982.69303      -142.527 3        22.656    22893234.665 4  93743973.78704      -142.490 4        28.813
G19  21547584.092 6 113233322.99106      2007.720 6        41.156    21547582.423 3  88233750.00703      1564.440 3        22.188
G22  24048009.312 6 126373147.37206     -1358.975 6        40.500    24048016.088 3  98472605.87303     -1058.931 3        20.281
G23  24958741.294 4                     -1318.816 4        27.969                                                                    24958753.548 3                     -1028.439 3        22.813
G24  20321986.045 7 106792747.31507      1050.255 7        46.750    20321987.944 8  83215129.66508       818.387 8        48.750    20321988.424 7  83215129.64807       818.495 7        43.906
G32  24185064.101 5                      4771.576 5        30.125                                                                    24185071.935 5  99033812.29205      3719.245 5        30.281
> 2024 02 29 08 38 35.0000000  0 12
G02  26019288.634 5                      -123.382 5        30.438
G10  24059413.122 4                       233.033 4        28.625                                                                    24059421.508 4                       181.147 4        25.938
G12  21747101.414 7 114281806.68807      4576.061 7        43.781    21747101.755 6  89050750.24006      3565.755 6        41.688    21747102.468 7  89050774.22707      3565.979 7        42.438
G13  25321263.386 5                     -2197.424 5        34.688
G14  25625228.009 3                     -1775.889 3        20.781                                                                    25625259.392 3                     -1382.248 3        22.625
G15  23742298.303 6 124766620.69506     -2065.615 6        38.438    23742302.016 4  97220749.90904     -1609.572 4        29.563    23742302.116 6  97220687.87806     -1609.531 6        38.563
G17  22893269.449 5 120304956.86405      -184.674 5        32.469    22893272.478 3  93744126.69103      -143.919 3        22.094    22893270.149 5  93744117.58905      -143.089 5        30.188
G19  21547202.403 6 113231315.98606      2007.049 6        40.469    21547200.546 3  88232186.10403      1563.957 3        22.813
G22  24048268.304 6 126374507.07806     -1359.133 6        40.344    24048274.785 3  98473665.37303     -1059.051 3        20.156
G23  24958992.863 4                     -1319.710 4        26.625
G24  20321786.117 7 106791697.51407      1049.677 7        47.281    20321788.130 8  83214311.62808       817.935 8        48.406    20321788.714 7  83214311.60907       817.843 7        43.594
G32  24184154.663 3                      4773.975 3        22.688                                                                    24184163.490 5  99030093.71305      3718.849 5        32.656
> 2024 02 29 08 38 36.0000000  0 12
G02  26019312.083 4                      -124.125 4        28.938
G10  24059370.561 5                       231.815 5        30.344                                                                    24059376.403 4                       180.548 4        24.531
G12  21746230.574 7 114277229.94707      4575.656 7        46.094    21746230.852 6  89047183.94006      3565.447 6        41.688    21746231.883 7  89047208.01507      3565.873 7        43.781
G13  25321679.980 5                     -2200.499 5        31.469
G14  25625567.016 4                     -1777.198 4        24.219                                                                    25625595.493 3                     -1382.212 3        21.344
G15  23742691.528 6 124768686.97006     -2067.427 6        39.125    23742695.296 5  97222359.98705     -1610.979 5        30.094    23742695.512 6  97222297.94806     -1610.304 6        38.188
G17  22893304.088 5 120305142.81005      -187.362 5        32.594    22893307.866 3  93744271.58103      -145.971 3        20.656    22893306.069 5  93744262.49005      -145.665 5        33.750
G19  21546821.144 6 113229310.49606      2003.109 6        40.063    21546819.063 3  88230623.36803      1560.840 3        22.500
G22  24048528.178 5 126375867.78605     -1362.688 5        34.750    24048533.683 3  98474725.62403     -1061.831 3        19.313
G23  24959245.894 4                     -1320.314 4        26.938
G24  20321586.378 8 106790648.51708      1047.682 8        48.938    20321588.450 8  83213494.21308       816.374 8        48.125    20321589.019 7  83213494.32807       816.210 7        45.688
G32  24183247.679 5                      4771.407 5        31.094                                                                    24183255.189 4  99026375.44004      3718.529 4        27.906
> 2024 02 29 08 38 37.0000000  0 12
G02  26019336.261 4                      -123.922 4        26.750
G10  24059326.838 4                       231.718 4        27.281                                                                    24059333.001 4                       180.739 4        26.031
G12  21745360.145 7 114272654.20307      4576.627 7        43.156    21745360.098 7  89043618.45307      3566.204 7        42.094    21745360.873 6  89043642.42606      3566.212 6        41.281
G13  25322100.599 4 133068529.43414     -2198.522 4        28.531
G14                                                                                                                                  25625930.015 4                     -1382.215 4        24.719
G15  23743084.747 5 124770753.51005     -2064.151 5        35.813    23743088.593 4  97223970.26904     -1608.437 4        29.875    23743088.860 5  97223908.15405     -1608.919 5        35.375
G17                                                                                                                                  22893342.099 4  93744406.25704      -140.510 4        29.656
G19  21546439.513 6 113227304.52806      2006.256 6        40.031    21546437.468 3  88229060.28303      1563.329 3        22.250
G22  24048786.699 6 126377227.13306     -1359.560 6        38.250    24048792.268 3  98475784.88203     -1059.435 3        18.344
G23  24959497.794 4                     -1319.745 4        27.781                                                                    24959512.333 4                     -1027.862 4        25.625
G24  20321386.858 8 106789600.05008      1048.950 8        48.281    20321388.930 8  83212677.25708       817.340 8        49.063    20321389.751 7  83212677.23607       817.663 7        44.563
G32  24182341.250 5                      4773.160 5        30.219                                                                    24182345.924 4  99022656.80704      3718.000 4        29.250
> 2024 02 29 08 38 38.0000000  0 12
G02  26019362.022 5                      -125.422 5        31.969
G10  24059281.965 4                       231.421 4        28.094                                                                    24059287.292 4                       180.891 4        25.844
G12  21744489.260 7 114268078.34407      4573.645 7        46.719    21744489.285 7  89040052.84407      3563.873 7        42.031    21744489.967 7  89040076.80707      3564.066 7        43.031
G13  25322519.451 5                     -2196.647 5        34.188
G14                                                                                                                                  25626265.454 4                     -1381.985 4        27.375
G15  23743477.145 5                     -2065.298 5        33.281                                                                    23743481.559 6  97225516.85506     -1609.366 6        36.438
G17  22893377.718 5                      -184.678 5        31.719                                                                    22893378.539 5  93744550.56605      -141.759 5        31.781
G19  21546058.444 6 113225297.47806      2006.480 6        37.656    21546055.618 3  88227496.31603      1563.549 3        21.938
G22  24049044.723 5 126378586.10505     -1356.901 5        30.156    24049050.844 2  98476843.84102     -1057.459 2        17.156
G23  24959751.764 4                     -1319.693 4        26.000                                                                    24959761.192 5                     -1027.942 5        31.031
G24  20321187.254 7 106788550.91507      1047.274 7        46.281    20321189.268 8  83211859.74808       816.042 8        48.469    20321189.934 7  83211859.76107       815.591 7        43.844
G32  24181432.397 5                      4768.489 5        30.594                                                                    24181436.856 5  99018938.71905      3715.867 5        31.375
> 2024 02 29 08 38 39.0000000  0 12
G02  26019386.907 4                      -125.219 4        28.406
G10  24059236.989 5                       229.261 5        30.031                                                                    24059242.621 5                       179.662 5        30.438
G12  21743618.577 7 114263502.92007      4576.750 7        46.094    21743618.589 7  89036487.57807      3566.254 7        42.438    21743619.273 6  89036511.59106      3567.317 6        41.875
G13  25322933.062 4                     -2197.470 4        29.563
G14                                                                                                                                  25626600.436 3                     -1381.684 3        21.500
G15  23743870.865 5                     -2062.561 5        31.125    23743875.437 4                     -1607.266 4        26.094    23743874.372 5  97227126.05505     -1610.297 5        32.719
G17                                                                                                                                  22893414.537 5  93744695.78205      -148.954 5        31.031
G19  21545676.856 6 113223292.15806      2002.799 6        41.625    21545674.109 3  88225933.70003      1560.659 3        22.125
G22  24049303.750 5 126379946.26405     -1362.747 5        34.250    24049309.707 2  98477903.80802     -1061.892 2        16.313
G23  24960002.081 4                     -1319.986 4        24.750                                                                    24960012.560 4                     -1028.786 4        25.344
G24  20320987.900 7 106787502.92507      1047.147 7        45.625    20320989.834 7  83211043.14907       815.946 7        47.938    20320990.547 7  83211043.18607       815.779 7        45.969
G32  24180524.720 5                      4770.533 5        31.500                                                                    24180529.233 5  99015221.68205      3716.703 5        31.188
> 2024 02 29 08 38 40.0000000  0 12
G02  26019413.432 5                      -126.038 5        30.125
G10  24059191.482 4                       230.285 4        27.188                                                                    24059196.004 4  98518390.98714       180.550 4        28.438
G12  21742747.726 7 114258926.13907      4574.373 7        47.313    21742747.637 7  89032921.29107      3564.416 7        42.438    21742748.312 7  89032945.36807      3564.822 7        43.344
G13  25323350.735 5                     -2198.830 5        31.625
G14                                                                                                                                  25626936.327 4                     -1382.520 4        26.406
G15  23744265.047 6                     -2067.170 6        37.719    23744269.463 4                     -1610.755 4        28.188    23744267.259 5  97228735.94305     -1612.195 5        31.375
G17  22893449.293 5                      -187.973 5        32.000                                                                    22893450.608 5  93744842.82005      -145.058 5        31.094
G19  21545295.156 7 113221289.77107      2003.129 7        42.656    21545293.158 4  88224373.38204      1560.887 4        24.531
G22  24049562.589 5 126381308.59505     -1359.447 5        32.906    24049568.868 2  98478965.42502     -1059.450 2        15.594
G23  24960254.352 4                     -1320.470 4        24.906                                                                    24960262.957 3                     -1027.252 3        22.813
G24  20320788.607 7 106786455.48707      1046.668 7        47.531    20320790.551 7  83210226.98907       815.551 7        47.750    20320791.418 7  83210227.01707       815.324 7        45.375
G32  24179617.128 4                      4769.696 4        28.906                                                                    24179620.731 5  99011505.12805      3718.466 5        30.813
> 2024 02 29 08 38 41.0000000  0 12
G02  26019438.120 5                      -124.920 5        33.938
G10  24059149.118 5                       230.323 5        33.656                                                                    24059150.613 5  98518211.44505       178.888 5        34.469
G12  21741877.179 7 114254351.69207      4574.248 7        47.188    21741877.160 7  89029356.81107      3564.359 7        42.781    21741877.633 6  89029380.79606      3564.461 6        39.875
G13  25323768.970 5                     -2197.298 5        30.500
G14  25627256.377 4                     -1774.509 4        24.406                                                                    25627272.718 4                     -1382.255 4        24.625
G15  23744658.140 6                     -2066.922 6        37.125    23744662.823 4                     -1610.649 4        27.656    23744660.638 6  97230346.76706     -1610.472 6        37.313
G17  22893483.957 5                      -185.848 5        30.594                                                                    22893486.412 4  93744988.49504      -146.471 4        27.531
G19  21544913.446 7 113219286.20807      2002.807 7        42.531    21544911.961 4  88222812.16904      1560.641 4        26.500
G22  24049820.724 5                     -1359.696 5        32.375
G23  24960504.777 3                     -1319.797 3        22.500                                                                    24960515.094 5                     -1028.368 5        30.625
G24  20320589.556 7 106785408.65207      1046.124 7        45.469    20320591.363 7  83209411.30307       815.098 7        47.750    20320592.270 7  83209411.36107       815.225 7        45.594
G32  24178709.480 5                      4769.737 5        31.625                                                                    24178712.299 5  99007787.65905      3717.609 5        32.844
> 2024 02 29 08 38 42.0000000  0 11
G02  26019461.373 5                      -126.278 5        31.500
G10  24059103.735 5                       229.596 5        30.000                                                                    24059106.125 5  98518032.64205       177.665 5        33.313
G12  21741006.635 7 114249777.23907      4573.524 7        46.656    21741006.566 7  89025792.30907      3563.769 7        42.469    21741006.906 6  89025816.35406      3563.923 6        41.219
G13  25324188.166 5                     -2198.102 5        31.719
G15  23745051.234 5                     -2066.830 5        34.094    23745056.142 4                     -1610.479 4        26.594    23745054.458 6  97231957.14306     -1610.772 6        37.406
G17  22893519.444 5                      -188.513 5        35.531                                                                    22893523.547 5  93745134.34505      -146.332 5        31.031
G19  21544532.574 6 113217283.44606      2001.336 6        40.813    21544530.992 4  88221251.57704      1559.480 4        27.563
G22  24050080.202 6                     -1360.796 6        36.500
G23  24960754.758 3                     -1319.673 3        22.563                                                                    24960767.915 5                     -1028.586 5        30.344
G24  20320390.243 7 106784362.30407      1045.170 7        45.500    20320392.273 7  83208596.00007       814.381 7        47.906    20320393.223 7  83208596.06007       814.463 7        46.531
G32  24177804.458 3                      4768.265 3        20.094                                                                    24177805.209 5  99004070.48705      3716.138 5        34.125
> 2024 02 29 08 38 43.0000000  0 12
G02  26019485.958 4 136733321.27214      -126.389 4        28.656
G10  24059058.236 4                       228.555 4        28.000                                                                    24059061.650 5  98517854.33905       178.432 5        35.406
G12  21740136.343 7 114245203.27307      4574.049 7        46.500    21740136.129 7  89022228.19507      3564.181 7        42.656    21740136.393 6  89022252.26006      3563.976 6        41.500
G13  25324606.402 5 133081714.77005     -2197.893 5        34.844
G14  25627934.275 3                     -1774.279 3        22.125
G15  23745443.598 6 124783151.22706     -2066.336 6        36.906    23745449.408 4  97233644.62214     -1610.191 4        26.531    23745448.021 5  97233567.66805     -1610.353 5        35.219
G17  22893556.706 4                      -189.399 4        28.094                                                                    22893559.660 4  93745281.17404      -147.103 4        28.656
G19  21544151.487 7 113215281.84707      2000.942 7        42.563    21544150.291 4  88219691.89204      1559.164 4        28.969
G22  24050339.040 6 126385388.66706     -1360.646 6        37.313
G23  24961007.374 4                     -1320.665 4        29.219                                                                    24961020.866 3                     -1028.230 3        23.719
G24  20320191.330 7 106783316.93507      1044.887 7        46.406    20320193.402 8  83207781.44608       814.187 8        48.156    20320194.415 7  83207781.46707       814.324 7        46.625
G32  24176896.311 4                      4769.005 4        25.688                                                                    24176898.298 5  99000353.94205      3716.263 5        34.094
> 2024 02 29 08 38 44.0000000  0 12
G02  26019511.146 5 136733447.75005      -126.018 5        31.281
G10  24059013.194 5                       227.625 5        30.813                                                                    24059019.182 5  98517676.42505       177.951 5        34.656
G12  21739265.874 7 114240629.77307      4574.035 7        46.594    21739265.808 7  89018664.44207      3564.166 7        42.688    21739266.229 6  89018688.47506      3564.236 6        41.531
G13  25325024.975 5 133083912.77505     -2196.558 5        32.000
G14  25628271.323 3                     -1773.284 3        22.125
G15  23745836.244 6 124785218.56206     -2065.132 6        36.844    23745842.683 4  97235255.53104     -1609.198 4        27.125    23745842.268 6  97235178.54106     -1609.823 6        36.906
G17  22893594.567 5                      -189.087 5        33.313                                                                    22893594.204 4  93745428.07304      -145.940 4        29.781
G19  21543770.599 6 113213280.78006      2002.091 6        41.406    21543769.667 4  88218132.62704      1560.070 4        29.750
G22  24050598.511 6 126386748.93106     -1359.068 6        37.125
G23  24961258.013 4                     -1321.491 4        29.438                                                                    24961272.390 4                     -1029.270 4        29.688
G24  20319992.400 7 106782271.94607      1045.502 7        46.313    20319994.603 8  83206967.17808       814.665 8        48.438    20319995.681 7  83206967.20807       814.588 7        46.750
G32  24175986.148 3                      4770.183 3        23.688                                                                    24175990.491 5  98996637.47505      3717.224 5        32.188
> 2024 02 29 08 38 45.0000000  0 11
G02  26019537.113 4 136733574.75104      -126.324 4        27.031
G10  24058969.515 5                       227.539 5        30.094                                                                    24058976.228 6  98517498.81006       178.071 6        36.406
G12  21738395.685 7 114236056.52307      4574.224 7        45.188    21738395.537 7  89015100.87707      3564.336 7        42.844    21738396.239 7  89015124.88507      3564.329 7        43.563
G13  25325443.299 5 133086110.61105     -2197.598 5        32.781
G15  23746229.693 6 124787285.74106     -2066.822 6        39.188    23746235.877 4  97236866.32804     -1610.519 4        28.063    23746235.502 6  97236789.34006     -1610.207 6        36.344
G17  22893630.783 5                      -188.107 5        32.063                                                                    22893629.927 5  93745575.35505      -146.393 5        33.313
G19  21543389.478 7 113211280.34807      2000.829 7        43.844    21543389.168 5  88216573.85505      1559.068 5        30.500
G22  24050857.417 6 126388109.19006     -1360.064 6        36.125
G23  24961509.201 4                     -1321.239 4        28.594                                                                    24961525.283 4                     -1029.543 4        24.250
G24  20319793.937 7 106781227.55507      1044.913 7        46.250    20319795.919 8  83206153.37108       814.217 8        48.563    20319797.092 7  83206153.35307       814.327 7        46.094
G32  24175081.383 4                      4769.873 4        27.156                                                                    24175082.475 5  98992921.29505      3717.453 5        33.531
> 2024 02 29 08 38 46.0000000  0 11
G02  26019559.386 4 136733701.97804      -126.372 4        27.188
G10  24058924.951 4                       227.377 4        28.625                                                                    24058933.235 6  98517321.59706       177.029 6        38.188
G12  21737525.289 7 114231483.52307      4572.944 7        45.781    21737525.363 7  89011537.50607      3563.321 7        42.781    21737526.172 7  89011561.50807      3563.387 7        42.938
G13  25325862.672 5 133088308.21505     -2196.696 5        31.719
G15  23746622.954 6 124789352.97906     -2066.989 6        40.063    23746629.129 4  97238477.15904     -1610.643 4        28.313    23746629.133 5  97238400.21805     -1610.823 5        35.688
G17  22893664.097 5                      -188.197 5        30.250    22893669.889 1                      -145.178 1        11.531    22893666.112 5  93745722.98705      -147.118 5        34.875
G19  21543009.146 7 113209280.53207      2000.023 7        42.281    21543008.767 5  88215015.57405      1558.436 5        30.281
G22  24051116.216 5 126389469.42205     -1359.981 5        35.625    24051121.760 1  98485322.86711     -1059.627 1        10.125
G23  24961760.417 4                     -1321.414 4        24.719                                                                    24961776.986 4                     -1030.042 4        25.625
G24  20319595.318 7 106780183.59007      1043.999 7        44.281    20319597.317 8  83205339.88608       813.515 8        48.438    20319598.353 7  83205339.85207       813.540 7        45.781
G32  24174176.845 5                      4768.859 5        33.438                                                                    24174175.890 5  98989205.32505      3716.152 5        32.469
> 2024 02 29 08 38 47.0000000  0 11
G02  26019590.781 3                      -126.053 3        19.313
G10  24058880.990 4                       226.168 4        29.875                                                                    24058889.996 6  98517144.76806       176.934 6        36.781
G12  21736655.219 7 114226910.63907      4573.276 7        47.031    21736655.217 7  89007974.22507      3563.611 7        42.906    21736656.190 7  89007998.18707      3563.523 7        42.875
G13  25326280.066 5 133090505.65505     -2196.297 5        34.438
G15  23747016.993 6 124791420.04006     -2066.562 6        41.031    23747022.377 4  97240087.87404     -1610.308 4        28.250    23747021.617 5  97240010.61905     -1609.825 5        32.375
G17  22893702.995 4                      -188.443 4        27.313    22893706.069 2                      -147.096 2        12.094    22893701.690 5  93745871.26805      -147.865 5        32.406
G19  21542628.680 6 113207281.69406      1999.563 6        41.281    21542628.504 5  88213458.05905      1558.081 5        30.000
G22  24051375.647 5 126390830.03605     -1359.772 5        35.313    24051380.671 1  98486383.02601     -1059.573 1        10.563
G23  24962011.906 3                     -1322.134 3        21.813
G24  20319396.594 7 106779140.12207      1043.974 7        45.375    20319398.781 7  83204526.78607       813.465 7        47.938    20319399.736 7  83204526.80407       813.456 7        45.906
G32  24173270.729 4                      4769.523 4        29.719                                                                    24173269.434 5  98985489.65405      3716.276 5        34.313
> 2024 02 29 08 38 48.0000000  0 10
G02  26019611.762 4                      -129.944 4        26.094
G10  24058837.660 4                       225.605 4        29.750                                                                    24058846.947 5  98516969.29305       175.676 5        30.156
G12  21735785.189 8 114222338.43208      4571.597 8        48.094    21735785.151 7  89004411.45507      3562.293 7        43.813    21735786.097 7  89004435.39107      3561.906 7        43.156
G15  23747410.750 6 124793487.81306     -2069.053 6        38.031    23747415.670 4  97241699.04004     -1612.223 4        27.844    23747414.653 5  97241622.14705     -1612.114 5        35.750
G17  22893739.014 4                      -190.374 4        27.688    22893742.615 1                      -148.591 1        11.625    22893740.000 4  93746021.18904      -149.478 4        28.469
G19  21542248.367 6 113205285.04006      1997.581 6        40.344    21542248.600 4  88211902.20304      1556.588 4        29.531
G22  24051634.892 5 126392191.88705     -1360.466 5        31.563    24051639.185 1  98487444.35301     -1060.344 1        10.063
G23  24962263.448 4                     -1322.821 4        26.750
G24  20319198.034 7 106778098.29007      1041.492 7        46.469    20319200.563 8  83203714.95908       811.601 8        48.219    20319201.239 7  83203714.86407       812.023 7        47.781
G32  24172363.383 5                      4767.021 5        33.781                                                                    24172362.016 5  98981774.86005      3716.486 5        33.781
> 2024 02 29 08 38 49.0000000  0 12
G02  26019635.600 4                      -131.493 4        26.875
G10  24058795.739 5                       222.574 5        30.219                                                                    24058802.941 5  98516795.38605       172.433 5        32.094
G12  21734915.392 7 114217767.91507      4570.404 7        47.563    21734915.380 7  89000849.99307      3561.351 7        44.344    21734916.336 7  89000873.98707      3560.948 7        43.688
G13  25327118.819 4                     -2199.453 4        29.656
G14  25629937.526 3                     -1774.719 3        21.344
G15  23747803.869 6 124795555.32406     -2066.950 6        37.156    23747808.985 4  97243310.07704     -1610.583 4        27.188    23747808.386 5  97243233.08605     -1611.386 5        33.125
G17  22893773.390 5 120307585.84515      -193.239 5        32.906                                                                    22893777.372 5  93746171.47105      -149.227 5        30.031
G19  21541868.613 6 113203289.26606      1993.662 6        39.281    21541868.852 4  88210347.03604      1553.488 4        28.688
G22  24051894.186 5 126393553.58005     -1358.918 5        34.344    24051898.293 1  98488505.64401     -1059.100 1        10.281
G23  24962517.472 4                     -1323.453 4        25.719                                                                    24962523.144 4                     -1029.780 4        26.344
G24  20319000.054 7 106777058.03007      1039.357 7        46.688    20319002.609 8  83202904.32608       809.891 8        48.563    20319003.141 7  83202904.31707       808.987 7        46.688
G32  24171455.715 4                      4765.846 4        24.781                                                                    24171454.149 4  98978062.23304      3707.620 4        29.406
> 2024 02 29 08 38 50.0000000  0 11
G02  26019662.023 4                      -128.205 4        24.938
G10  24058754.492 4                       224.700 4        28.813                                                                    24058760.477 5  98516619.68705       178.589 5        34.563
G12  21734045.344 7 114213195.51907      4574.156 7        46.625    21734045.278 7  88997287.07307      3564.286 7        44.125    21734046.143 7  88997311.06207      3564.472 7        42.781
G13  25327537.716 5                     -2198.083 5        33.656
G15  23748197.187 6 124797621.78206     -2066.792 6        37.531    23748202.161 4  97244920.25804     -1610.488 4        27.469    23748201.636 6  97244843.30306     -1610.530 6        38.594
G17  22893810.517 4                      -190.906 4        25.781                                                                    22893813.796 5  93746321.05605      -148.237 5        31.938
G19  21541488.512 6 113201291.95206      1999.207 6        40.438    21541488.809 4  88208790.71004      1557.748 4        27.719
G22  24052152.729 5 126394914.46105     -1358.253 5        34.000    24052156.874 1  98489566.12601     -1058.447 1         9.219
G23  24962768.173 3                     -1322.146 3        22.156                                                                    24962772.830 4                     -1031.038 4        25.188
G24  20318801.883 7 106776015.78707      1045.579 7        46.656    20318804.283 8  83202092.17308       814.730 8        48.406    20318804.560 7  83202092.18507       814.691 7        45.906
G32  24170547.148 4                      4768.344 4        27.656                                                                    24170545.129 5  98974347.01405      3717.111 5        30.094
> 2024 02 29 08 38 51.0000000  0 11
G02  26019684.435 4                      -127.654 4        25.031
G10  24058709.669 4                       226.625 4        28.063                                                                    24058717.695 4  98516442.35204       174.460 4        27.594
G12  21733174.914 8 114208621.88908      4570.375 8        48.031    21733174.953 7  88993723.19907      3561.341 7        44.469    21733175.898 7  88993747.17607      3560.760 7        44.219
G13  25327956.703 5                     -2196.801 5        33.000
G15  23748589.617 6 124799688.11406     -2066.961 6        38.375    23748595.373 4  97246530.40404     -1610.661 4        27.750    23748595.147 6  97246453.42106     -1612.239 6        36.063
G17  22893845.965 5                      -193.046 5        31.688                                                                    22893849.724 5  93746469.88505      -148.950 5        30.406
G19  21541108.630 6 113199294.10806      1997.342 6        40.094    21541108.676 4  88207233.99904      1556.413 4        26.750
G22  24052411.356 5                     -1360.997 5        32.469
G23  24963015.933 4                     -1319.701 4        25.531
G24  20318603.246 7 106774971.79907      1041.616 7        47.375    20318605.609 8  83201278.68908       811.639 8        48.719    20318605.749 7  83201278.73407       811.061 7        47.563
G32  24169638.448 5                      4769.042 5        31.094                                                                    24169636.933 6  98970630.55506      3715.288 6        36.531
> 2024 02 29 08 38 52.0000000  0 11
G02  26019706.503 4                      -129.908 4        26.031
G10  24058666.960 4                       223.679 4        26.844                                                                    24058675.083 4  98516268.85704       170.755 4        27.094
G12  21732305.512 7 114204053.04807      4565.665 7        46.000    21732305.531 7  88990163.05507      3557.653 7        44.688    21732306.386 7  88990186.94607      3558.264 7        44.719
G13  25328374.893 5                     -2197.141 5        31.406
G15  23748982.553 6 124801754.75906     -2069.164 6        38.469    23748988.666 4  97248140.78004     -1612.322 4        27.313    23748988.716 5  97248064.77405     -1612.253 5        35.656
G17  22893882.099 5                      -188.640 5        34.375                                                                    22893884.653 5  93746617.26305      -145.588 5        32.313
G19  21540728.402 6                      1999.731 6        40.250    21540729.080 4                      1559.600 4        27.875
G22  24052669.073 5                     -1353.293 5        32.563
G23  24963266.634 3                     -1321.454 3        23.438
G24  20318405.029 7 106773930.14607      1040.406 7        47.469    20318407.409 8  83200467.01408       810.710 8        48.938    20318407.587 7  83200466.99507       810.160 7        46.313
G32  24168730.203 5                      4762.564 5        34.719                                                                    24168730.027 5  98966916.90905      3713.114 5        34.813
> 2024 02 29 08 38 53.0000000  0 12
G02  26019731.262 4                      -128.599 4        28.219
G10  24058626.877 4                       224.297 4        28.344                                                                    24058633.699 4  98516093.47904       176.130 4        29.813
G12  21731436.423 7 114199485.75407      4567.065 7        44.094    21731436.386 7  88986604.11807      3558.743 7        44.063    21731437.296 6  88986628.13006      3559.307 6        40.906
G13  25328791.917 5                     -2198.599 5        31.344
G14  25631303.736 3                     -1772.669 3        21.688                                                                    25631318.065 4                     -1381.190 4        24.688
G15  23749376.181 6 124803823.60506     -2069.074 6        40.656    23749382.267 4  97249752.84004     -1612.217 4        28.969    23749381.836 6  97249676.84806     -1612.553 6        39.313
G17  22893918.500 5                      -188.177 5        34.313                                                                    22893918.341 6  93746763.98606      -146.207 6        36.906
G19  21540347.499 7                      1999.778 7        42.438    21540348.500 4                      1558.343 4        27.156
G22  24052927.905 5                     -1355.532 5        33.813
G23  24963517.260 4                     -1323.818 4        25.563
G24  20318206.940 7 106772889.14007      1041.453 7        46.938    20318209.312 8  83199655.81908       811.520 8        49.188    20318209.446 7  83199655.76107       811.953 7        44.844
G32  24167822.683 5                      4770.398 5        32.906                                                                    24167822.793 5  98963204.29205      3712.392 5        31.688
> 2024 02 29 08 38 54.0000000  0 12
G02  26019754.282 4                      -128.727 4        25.500
G10  24058584.405 5                       223.881 5        31.125                                                                    24058593.878 4  98515920.77704       173.002 4        26.969
G12  21730567.671 7 114194920.15707      4564.642 7        44.125    21730567.622 7  88983046.51507      3556.902 7        43.500    21730568.604 6  88983070.62806      3554.972 6        41.844
G13  25329210.014 5                     -2201.678 5        32.656
G14  25631638.723 3                     -1769.431 3        20.719                                                                    25631653.052 4                     -1378.867 4        26.969
G15  23749770.383 7 124805894.32607     -2073.099 7        42.656    23749776.155 5  97251366.35705     -1615.387 5        30.656    23749775.654 6  97251290.46506     -1616.788 6        37.281
G17  22893953.336 6                      -187.785 6        38.219                                                                    22893952.628 5  93746910.11805      -144.982 5        35.938
G19  21539967.366 6                      1996.962 6        41.344    21539968.430 3                      1556.706 3        22.375
G22  24053185.666 5                     -1356.620 5        35.906
G23  24963768.122 4                     -1324.265 4        26.594                                                                    24963769.072 5                     -1030.848 5        30.406
G24  20318009.165 7 106771849.77707      1038.016 7        43.844    20318011.518 8  83198845.91008       808.840 8        48.000    20318011.514 7  83198845.89707       808.588 7        43.906
G32  24166915.002 5                      4763.811 5        31.594
> 2024 02 29 08 38 55.0000000  0 12
G02  26019776.492 4                      -126.345 4        29.719
G10  24058544.241 4                       221.320 4        29.094                                                                    24058550.930 5  98515748.73905       170.861 5        30.875
G12  21729698.962 7 114190355.45007      4563.675 7        42.594    21729698.969 7  88979489.60607      3556.165 7        42.438    21729699.895 6  88979513.58506      3556.221 6        41.188
G13  25329628.182 5                     -2198.009 5        30.719
G14  25631976.353 3                     -1769.510 3        23.313                                                                    25631990.230 3                     -1379.618 3        23.031
G15  23750165.254 7 124807966.97107     -2072.719 7        42.188    23750170.315 5  97252981.38205     -1615.101 5        32.063    23750169.584 6  97252905.31806     -1615.990 6        38.313
G17  22893988.193 6                      -190.191 6        38.844                                                                    22893988.349 6  93747056.33906      -145.137 6        40.719
G19  21539586.753 7 113191298.11607      1998.966 7        42.438    21539588.101 4  88201012.55714      1557.709 4        24.781
G22  24053443.299 6                     -1353.060 6        36.094
G23  24964020.653 3                     -1324.874 3        23.250                                                                    24964020.140 3                     -1031.647 3        22.813
G24  20317811.373 7 106770810.91307      1039.581 7        44.031    20317813.783 7  83198036.40807       810.071 7        46.625    20317814.037 7  83198036.34807       810.217 7        43.063
G32  24166008.165 5                      4771.409 5        34.531                                                                    24166008.893 5  98955779.07205      3713.208 5        31.281
> 2024 02 29 08 38 56.0000000  0 11
G02  26019798.837 4                      -128.012 4        27.938
G10  24058502.937 4                       223.285 4        26.594
G12  21728830.467 7                      4563.059 7        44.250                                                                    21728831.410 6  88975956.75006      3556.630 6        39.875
G14  25632314.685 3                     -1768.382 3        19.156                                                                    25632325.079 3                     -1379.376 3        23.656
G15  23750560.045 7 124810040.28707     -2074.344 7        42.906    23750564.667 5  97254596.94005     -1616.374 5        33.000    23750564.144 6  97254520.89006     -1614.741 6        38.563
G17  22894023.067 7                      -187.563 7        42.406                                                                    22894024.191 6  93747202.26906      -144.289 6        40.875
G19  21539206.572 7 113189300.63407      1998.363 7        44.594    21539207.950 4  88199456.03404      1557.162 4        26.594
G22  24053701.031 5                     -1357.462 5        35.656
G23  24964272.253 4                     -1326.418 4        24.219                                                                    24964271.396 4                     -1032.702 4        26.531
G24  20317613.760 7 106769772.61407      1040.556 7        44.656    20317616.223 7  83197227.33207       810.832 7        46.188    20317616.691 7  83197227.40307       809.519 7        45.406
G32  24165099.120 4                      4757.342 4        27.625                                                                    24165101.544 5  98952063.98405      3716.323 5        32.563
> 2024 02 29 08 38 57.0000000  0 11
G02  26019823.579 4                      -131.850 4        29.719
G10  24058462.710 4                       219.847 4        29.563                                                                    24058465.045 4  98515404.20204       176.822 4        27.438
G12  21727961.998 6                      4562.599 6        41.063    21727962.132 6                      3555.296 6        38.844    21727963.084 6  88972400.74706      3554.229 6        39.531
G14  25632652.123 4                     -1773.719 4        26.281                                                                    25632658.711 3                     -1381.282 3        20.875
G15  23750955.079 7 124812114.83307     -2074.250 7        43.031    23750959.404 5  97256213.47005     -1616.298 5        34.344    23750959.012 6  97256137.47806     -1615.838 6        40.813
G17  22894058.386 7                      -190.007 7        43.375                                                                    22894060.318 7  93747349.45307      -147.598 7        43.219
G19  21538826.653 7 113187305.10807      1993.797 7        47.188    21538827.970 4  88197901.05204      1553.628 4        29.938
G22  24053958.761 5                     -1359.028 5        33.906
G23  24964524.327 3                     -1324.214 3        21.594                                                                    24964525.192 4                     -1032.209 4        27.688
G24  20317416.737 7 106768735.79407      1035.886 7        43.469    20317418.948 7  83196419.41007       807.237 7        45.000    20317419.525 6  83196419.36006       806.844 6        41.281
G32  24164192.763 6                      4765.277 6        36.094                                                                    24164194.934 5  98948350.24105      3712.532 5        34.219
> 2024 02 29 08 38 58.0000000  0 11
G02  26019846.818 4                      -129.740 4        29.438
G10  24058421.102 4                       220.260 4        25.281                                                                    24058423.379 5  98515231.18805       169.880 5        32.969
G12  21727094.367 6                      4562.331 6        37.031    21727093.636 6                      3555.023 6        37.781    21727095.067 5  88968844.61505      3554.728 5        34.656
G14  25632988.228 3                     -1773.572 3        23.313                                                                    25632997.356 4                     -1382.398 4        24.656
G15  23751350.022 7 124814189.87607     -2074.895 7        44.031    23751354.199 5  97257830.39705     -1616.805 5        35.063    23751353.642 6  97257754.48106     -1618.721 6        39.531
G17  22894093.973 6                      -190.809 6        41.625    22894096.491 5                      -148.687 5        33.313    22894096.593 6  93747497.03406      -147.691 6        39.375
G19  21538447.022 7 113185310.43107      1993.400 7        45.906    21538447.904 5  88196346.74005      1553.294 5        32.281
G22  24054216.808 6                     -1355.579 6        38.125
G23  24964778.168 4                     -1321.229 4        24.031                                                                    24964778.755 4                     -1031.864 4        24.219
G24  20317219.672 7 106767699.25807      1036.372 7        46.031    20317221.691 7  83195611.71907       807.577 7        44.875    20317222.202 7  83195611.72107       807.086 7        44.500
G32  24163285.046 5                      4769.286 5        34.313                                                                    24163287.941 5  98944636.76105      3707.746 5        34.563
> 2024 02 29 08 38 59.0000000  0 11
G02  26019870.003 4                      -129.433 4        28.594
G10  24058379.216 5                       220.560 5        30.594
G12  21726225.897 6                      4562.566 6        37.281    21726225.372 6                      3555.224 6        36.156    21726226.579 5  88965288.89605      3556.005 5        35.125
G14  25633325.902 3                     -1772.927 3        22.844                                                                    25633333.492 3                     -1381.775 3        22.500
G15  23751744.881 7 124816264.99407     -2075.679 7        42.438    23751749.012 5  97259447.35405     -1617.363 5        34.844    23751748.494 6  97259371.06506     -1615.239 6        37.781
G17  22894130.049 7                      -190.498 7        42.063    22894132.621 5                      -148.444 5        33.531    22894133.375 6  93747645.71906      -147.805 6        40.563
G19  21538067.581 7 113183317.04907      1993.678 7        46.500    21538068.456 5  88194793.44305      1553.517 5        33.844
G22  24054474.659 6                     -1356.760 6        40.563    24054478.965 1                     -1056.685 1        11.094
G23  24965031.923 3                     -1323.827 3        23.250                                                                    24965032.399 4                     -1032.370 4        24.406
G24  20317022.581 8 106766663.91308      1035.676 8        48.438    20317024.681 7  83194804.94107       807.031 7        45.625    20317025.149 7  83194804.93607       807.037 7        46.188
G32  24162378.093 5                      4757.917 5        33.250                                                                    24162382.039 5  98940924.59505      3713.631 5        34.594
> 2024 02 29 08 39  0.0000000  0 11
G02  26019893.855 4                      -131.284 4        27.844
G10  24058337.751 5                       217.768 5        30.594                                                                    24058339.973 5  98514890.08305       175.807 5        30.313
G12  21725357.572 5                      4560.933 5        34.938                                                                    21725357.767 5  88961730.74705      3558.337 5        32.688
G13  25331733.122 4                     -2201.667 4        26.375
G14  25633660.004 3                     -1772.055 3        22.750                                                                    25633671.954 3                     -1382.683 3        22.000
G15  23752139.808 7 124818339.14007     -2074.233 7        42.594    23752143.610 5  97261063.56605     -1616.298 5        34.813    23752143.214 6  97260987.54106     -1616.734 6        38.969
G17  22894166.094 6                      -191.207 6        40.938    22894169.011 5                      -148.984 5        34.594    22894169.762 6  93747794.64606      -149.135 6        40.438
G19  21537688.170 7 113181323.75507      1992.277 7        46.156    21537689.020 5  88193240.22405      1552.431 5        34.813
G22  24054732.573 6                     -1356.356 6        39.656    24054736.812 2                     -1056.911 2        13.500
G24  20316825.637 8 106765628.60108      1033.995 8        49.219    20316827.643 7  83193998.20407       805.710 7        47.469    20316828.173 8  83193998.22708       805.793 8        48.219
G32  24161471.253 6                      4762.186 6        36.188                                                                    24161474.953 6  98937212.23706      3712.081 6        39.813
> 2024 02 29 08 39  1.0000000  0 11
G02  26019918.654 4                      -132.841 4        26.969
G10  24058296.232 5                       215.453 5        32.594                                                                    24058299.164 5  98514718.68205       168.645 5        33.906
G12  21724488.628 5 114162973.56105      4569.185 5        34.438    21724489.788 4  88958153.96014      3560.486 4        25.031    21724490.390 5  88958175.43205      3557.296 5        32.125
G13  25332151.210 3                     -2199.838 3        23.281
G14  25633996.467 3                     -1773.106 3        22.813                                                                    25634008.372 4                     -1383.312 4        25.406
G15  23752534.814 6 124820413.48906     -2073.827 6        41.750    23752538.245 5  97262679.93205     -1615.973 5        34.406    23752538.295 6  97262603.89506     -1616.009 6        38.781
G17  22894202.738 6 120309863.56406      -191.468 6        41.156    22894205.567 5  93747946.03415      -149.180 5        34.781    22894206.323 6  93747944.06106      -149.242 6        38.906
G19  21537309.087 7 113179331.19207      1993.927 7        46.188    21537309.769 5  88191687.57305      1553.710 5        35.375
G22  24054990.553 6 126409837.35606     -1355.790 6        39.188    24054994.749 2  98501184.34112     -1056.407 2        15.188
G24  20316628.791 8 106764593.87408      1036.060 8        49.781    20316630.757 8  83193191.92408       807.304 8        49.375    20316631.310 8  83193191.92808       806.970 8        48.344
G32  24160565.271 6 126964633.29316      4765.173 6        38.625                                                                    24160568.321 6  98933500.26206      3712.495 6        37.000
> 2024 02 29 08 39  2.0000000  0 11
G02  26019944.178 4                      -130.553 4        29.469
G10  24058254.529 5                       215.289 5        32.281                                                                    24058256.956 5  98514550.34705       167.461 5        33.250
G12  21723621.248 6                      4560.845 6        38.625                                                                    21723621.190 4  88954620.53104      3554.020 4        29.156
G13  25332569.409 4                     -2199.192 4        26.375
G14  25634334.463 3                     -1777.237 3        21.531                                                                    25634345.206 4                     -1381.985 4        25.125
G15  23752929.557 7 124822488.05707     -2074.112 7        43.031    23752932.995 5  97264296.47705     -1616.188 5        34.156    23752932.940 5  97264220.51905     -1616.206 5        34.250
G17  22894239.602 7 120310055.84607      -193.099 7        42.531    22894242.190 5  93748095.86705      -150.434 5        34.344    22894243.069 6  93748093.74206      -150.182 6        38.344
G19  21536930.192 7 113177339.54207      1989.624 7        44.719    21536930.669 5  88190135.64005      1550.368 5        35.719
G22  24055248.915 6 126411193.80006     -1356.396 6        38.344    24055252.761 2  98502241.31302     -1056.942 2        15.844
G24  20316432.001 8 106763559.91908      1032.505 8        50.156    20316434.015 8  83192386.24208       804.545 8        50.438    20316434.512 8  83192386.22708       804.740 8        48.719
G32  24159658.907 6 126959870.09006      4762.773 6        37.688                                                                    24159661.722 6  98929788.58206      3711.352 6        37.375
> 2024 02 29 08 39  3.0000000  0 11
G02  26019969.854 4                      -135.249 4        29.594
G10  24058212.890 5                       214.819 5        32.406                                                                    24058215.399 5  98514383.34805       166.537 5        34.375
G12  21722753.100 6                      4564.520 6        38.719    21722753.882 4                      3556.745 4        26.063    21722753.115 6  88951065.73306      3556.123 6        39.406
G13  25332983.450 4                     -2198.366 4        29.563
G14  25634672.572 3                     -1774.106 3        22.875                                                                    25634682.840 3                     -1381.141 3        22.563
G15  23753324.021 6 124824561.18306     -2070.324 6        40.156    23753327.379 5  97265911.89605     -1613.234 5        32.875    23753327.224 5  97265836.90005     -1621.443 5        30.750
G17  22894276.426 6 120310248.57406      -191.991 6        40.250    22894278.893 5  93748246.00605      -149.593 5        34.719    22894279.801 6  93748243.99506      -150.485 6        40.906
G19  21536551.106 7 113175347.61807      1992.803 7        43.906    21536551.547 5  88188583.49305      1552.839 5        35.250
G22  24055506.957 6 126412550.10806     -1355.960 6        38.250    24055510.635 2  98503298.17102     -1056.622 2        16.125
G24  20316235.186 8 106762525.74508      1036.220 8        50.000    20316237.210 8  83191580.38708       807.431 8        51.313    20316237.718 8  83191580.40708       807.475 8        48.938
G32  24158752.784 6 126955108.44006      4760.739 6        38.875    24158753.264 3  98926056.17613      3709.665 3        19.219    24158755.853 6  98926078.29606      3709.245 6        38.094
> 2024 02 29 08 39  4.0000000  0 11
G02  26019995.450 4                      -134.797 4        29.219
G10  24058171.116 5                       209.695 5        32.844                                                                    24058174.749 5  98514218.20305       162.957 5        32.750
G12  21721884.634 7                      4560.452 7        44.031    21721885.877 5                      3553.569 5        31.313    21721885.261 7  88947511.14207      3554.547 7        44.406
G13  25333400.447 4                     -2196.984 4        28.438
G14  25635009.017 3                     -1772.876 3        22.938                                                                    25635018.784 3                     -1382.219 3        22.000
G15  23753718.308 6 124826632.94406     -2071.631 6        38.688    23753721.458 5  97267526.24905     -1614.212 5        31.563    23753721.367 5  97267451.20805     -1614.609 5        34.406
G17  22894313.386 6 120310441.76406      -192.693 6        41.781    22894315.739 5  93748396.54505      -150.144 5        34.750    22894316.886 6  93748394.58906      -151.376 6        40.656
G19  21536172.044 6 113173356.40506      1988.445 6        40.688    21536172.555 5  88187031.91405      1549.407 5        34.281
G22  24055764.948 6 126413906.19706     -1356.469 6        38.813    24055768.554 2  98504354.88902     -1057.024 2        16.500
G24  20316038.464 8 106761491.97908      1033.410 8        49.656    20316040.526 8  83190774.85908       805.235 8        51.844    20316041.001 8  83190774.89508       805.552 8        48.688
G32  24157846.421 5                      4760.027 5        34.250                                                                    24157849.986 6  98922369.60706      3708.373 6        38.531
> 2024 02 29 08 39  5.0000000  0 11
G02  26020020.482 4                      -135.256 4        27.688
G10  24058129.561 5                       208.328 5        32.125                                                                    24058132.525 6  98514045.91806       160.057 6        37.500
G12  21721016.305 7                      4559.933 7        47.594    21721017.770 6                      3553.194 6        36.813    21721017.170 7  88943956.72807      3553.487 7        44.563
G13  25333816.263 5                     -2195.157 5        30.281
G14  25635345.797 3                     -1772.721 3        21.688                                                                    25635355.462 4                     -1381.981 4        24.094
G15  23754111.704 5                     -2070.106 5        34.344                                                                    23754115.892 5  97269064.92705     -1611.552 5        31.031
G17  22894350.435 6 120310635.36906      -195.967 6        41.906    22894352.612 5  93748547.41805      -152.732 5        35.250    22894353.698 6  93748545.43606      -152.652 6        40.625
G19  21535793.599 5 113171365.52705      1989.667 5        35.406    21535793.643 5  88185480.69005      1550.220 5        32.375
G22  24056022.888 6 126415261.74706     -1357.691 6        38.688    24056026.419 2  98505411.17002     -1057.981 2        16.094
G24  20315841.620 8 106760458.30608      1031.261 8        49.938    20315843.792 8  83189969.40908       803.595 8        52.031    20315844.265 8  83189969.41908       803.634 8        48.563
G32  24156940.408 6                      4756.732 6        36.938                                                                    24156944.268 5  98918662.15305      3710.665 5        34.125
> 2024 02 29 08 39  6.0000000  0 12
G02  26020045.711 4                      -136.383 4        28.656
G10  24058089.504 5                       206.601 5        33.594                                                                    24058093.080 5  98513882.97505       164.337 5        35.063
G12  21720148.235 7                      4562.445 7        46.781    21720149.653 6                      3555.151 6        40.031    21720149.032 7  88940402.34807      3554.949 7        44.656
G13  25334233.050 4                     -2196.272 4        28.813
G14  25635682.863 3                     -1774.978 3        21.281                                                                    25635690.892 3                     -1382.146 3        21.563
G15  23754505.115 5                     -2066.559 5        33.844                                                                    23754509.467 5  97270677.83005     -1611.926 5        30.313
G17  22894387.689 6 120310830.62906      -195.306 6        39.688    22894389.802 5  93748699.60105      -152.220 5        35.688    22894391.103 6  93748697.71606      -152.098 6        38.188
G19  21535414.370 5                      1987.274 5        33.219
G22  24056281.223 6 126416618.47506     -1356.503 6        37.375    24056284.584 2  98506468.36702     -1057.006 2        16.969
G23                                                                                                                                  24966819.112 4                     -1033.332 4        29.906
G24  20315644.956 8 106759425.06508      1033.963 8        49.438    20315647.170 8  83189164.29508       805.684 8        52.094    20315647.693 8  83189164.31108       805.640 8        49.156
G32  24156035.340 5                      4759.704 5        35.063                                                                    24156039.442 6  98914956.10106      3708.235 6        38.688
> 2024 02 29 08 39  7.0000000  0 12
G02  26020072.858 4                      -136.092 4        26.438
G10  24058049.702 6 126425914.91116       209.984 6        37.063                                                                    24058053.335 6  98513720.77906       162.843 6        37.938
G12  21719280.196 7 114135603.87307      4563.208 7        47.344    21719281.725 6  88936828.59616      3555.760 6        41.813    21719280.986 7  88936848.57207      3555.717 7        45.031
G13  25334649.868 4                     -2194.540 4        28.000
G14  25636020.650 3                     -1774.765 3        19.938                                                                    25636030.444 3                     -1386.417 3        23.000
G15  23754899.419 5                     -2066.435 5        30.063                                                                    23754904.620 4  97272293.53904     -1613.898 4        28.625
G17  22894424.769 6 120311026.54906      -194.735 6        38.219    22894427.091 5  93748852.26405      -151.672 5        34.594    22894427.788 6  93748850.29206      -152.421 6        37.125
G19  21535035.535 5                      1983.442 5        32.594
G22  24056539.577 5                     -1358.910 5        33.938
G23                                                                                                                                  24967073.793 4                     -1032.661 4        29.719
G24  20315448.558 8 106758392.89708      1034.960 8        49.313    20315450.790 8  83188360.02008       806.448 8        52.406    20315451.327 8  83188360.03008       805.817 8        49.063
G32  24155130.905 6 126936077.10306      4755.676 6        38.719                                                                    24155134.738 6  98911249.86306      3705.900 6        36.375
> 2024 02 29 08 39  8.0000000  0 11
G02  26020098.387 4                      -137.643 4        29.813
G10  24058011.799 6 126425707.18106       206.166 6        38.719    24058000.878 1                       161.085 1        11.469    24058013.314 6  98513558.93206       159.444 6        36.313
G12  21718412.134 7 114131043.12407      4557.862 7        46.813    21718413.752 7  88933274.77007      3551.594 7        43.063    21718413.133 7  88933294.73207      3552.682 7        44.688
G13  25335064.530 4                     -2193.583 4        29.000
G14  25636355.601 3                     -1771.021 3        19.875                                                                    25636370.033 3                     -1384.006 3        23.656
G15  23755293.928 5                     -2069.192 5        35.750    23755298.962 4                     -1612.535 4        25.375    23755299.311 6  97273907.59106     -1613.694 6        36.625
G17  22894462.524 6 120311222.63006      -198.561 6        36.219    22894464.411 5  93749005.03905      -154.800 5        33.313    22894464.925 5  93749003.08005      -155.845 5        35.531
G19  21534658.234 6                      1986.324 6        36.781    21534658.548 4                      1549.865 4        24.906
G22  24056797.641 5                     -1357.352 5        34.063
G24  20315252.013 7 106757360.76507      1028.614 7        45.688    20315254.405 8  83187555.76208       801.505 8        51.594    20315254.880 7  83187555.75707       802.401 7        43.906
G32  24154226.730 6                      4752.867 6        37.688    24154228.201 1                      3704.180 1        10.219    24154230.122 6  98907544.85106      3701.613 6        37.219
> 2024 02 29 08 39  9.0000000  0 11
G02  26020125.476 4                      -137.636 4        27.969
G10  24057971.345 6 126425498.06506       204.990 6        38.250    24057961.081 2  98513328.92012       159.744 2        12.281    24057974.128 6  98513397.18706       161.208 6        38.750
G12  21717544.118 7 114126481.99907      4561.063 7        47.031    21717545.707 7  88929720.64007      3554.077 7        43.813    21717545.155 7  88929740.72407      3553.248 7        44.531
G13  25335482.095 4                     -2195.342 4        29.219
G14                                                                                                                                  25636704.237 3                     -1378.957 3        22.219
G15  23755688.005 6                     -2069.984 6        39.813    23755692.648 4                     -1613.143 4        27.375    23755692.690 6  97275519.92406     -1612.799 6        37.719
G17  22894500.181 6 120311420.86706      -195.197 6        38.156    22894502.206 5  93749159.62205      -152.320 5        31.531    22894502.592 6  93749158.11306      -153.569 6        39.250
G19  21534279.076 7                      1987.944 7        42.063    21534279.967 4                      1549.036 4        24.594
G22  24057055.937 6                     -1356.926 6        38.750
G24  20315055.680 7 106756328.58707      1030.529 7        44.594    20315057.963 8  83186751.47308       802.974 8        50.281    20315058.426 7  83186751.46007       803.982 7        45.094
G32  24153321.803 6                      4755.348 6        40.594                                                                    24153325.191 5  98903838.53805      3704.933 5        35.750
> 2024 02 29 08 39 10.0000000  0 11
G02  26020152.878 4                      -140.755 4        27.719
G10  24057932.242 6                       205.842 6        40.563                                                                    24057934.525 6  98513234.57206       162.707 6        41.375
G12  21716676.363 7 114121921.55607      4561.409 7        45.063    21716677.827 7  88926167.06507      3554.334 7        43.656    21716677.605 7  88926187.03707      3554.407 7        44.438
G13  25335899.646 4                     -2195.065 4        26.125
G14  25636998.057 3                     -1768.723 3        18.125                                                                    25637038.867 3                     -1378.986 3        20.500
G15  23756081.909 6                     -2068.463 6        40.313    23756086.307 4                     -1611.858 4        28.563    23756085.769 6  97277132.53406     -1613.365 6        38.406
G17  22894537.589 6 120311618.19706      -195.750 6        40.781    22894539.727 5  93749313.54105      -152.643 5        32.469    22894539.848 7  93749311.71707      -153.310 7        42.000
G19  21533900.249 6                      1989.896 6        41.750    21533901.520 4                      1550.509 4        25.344
G22  24057314.110 6                     -1355.064 6        38.094
G24  20314859.390 7 106755297.12407      1032.824 7        44.719    20314861.699 8  83185947.74108       804.817 8        48.938    20314862.160 7  83185947.74007       804.487 7        44.688
G32  24152416.940 6                      4755.405 6        39.313    24152417.793 3                      3705.982 3        20.000    24152420.138 6  98900133.52406      3706.446 6        38.281
> 2024 02 29 08 39 11.0000000  0 10
G02  26020179.815 4                      -140.435 4        28.875
G10  24057892.855 6                       204.374 6        40.750                                                                    24057895.811 6  98513073.74706       159.566 6        39.844
G12  21715808.438 7 114117361.54607      4558.096 7        45.500    21715810.033 7  88922613.81707      3551.781 7        43.094    21715809.802 7  88922633.78207      3552.938 7        42.406
G13  25336317.090 4                     -2198.249 4        24.406
G15  23756475.560 6                     -2070.212 6        41.219    23756479.828 5                     -1613.196 5        30.625    23756479.039 6  97278745.07506     -1613.002 6        39.625
G17  22894575.467 7 120311816.51907      -198.859 7        43.156    22894577.521 5  93749468.15705      -154.995 5        34.656    22894577.674 7  93749466.28507      -155.898 7        42.125
G19  21533521.958 7                      1987.920 7        44.000    21533523.047 4                      1549.024 4        26.688
G22  24057572.537 6                     -1358.566 6        40.188    24057576.297 2                     -1057.625 2        17.938
G24  20314663.229 8 106754266.76708      1029.587 8        48.656    20314665.667 8  83185144.85208       802.295 8        48.750    20314665.884 7  83185144.86707       802.323 7        47.438
G32  24151512.212 6                      4753.756 6        37.406                                                                    24151514.902 5  98896429.51605      3702.373 5        34.781
> 2024 02 29 08 39 12.0000000  0 10
G02  26020206.676 4                      -139.979 4        25.719
G10  24057853.632 6                       203.998 6        37.156    24057843.455 3                       158.891 3        18.969    24057857.090 6  98512913.14906       160.172 6        38.219
G12  21714940.910 7 114112802.20107      4556.708 7        46.469    21714942.319 7  88919061.07007      3550.701 7        43.781    21714942.176 7  88919081.02107      3551.405 7        44.344
G13  25336736.215 4                     -2198.760 4        25.375
G15  23756869.448 7                     -2070.502 7        42.063    23756873.559 5                     -1613.403 5        31.969    23756872.597 6  97280358.34206     -1613.703 6        39.594
G17  22894613.199 7 120312015.16007      -200.109 7        43.531    22894615.244 6  93749622.99406      -155.941 6        36.063    22894615.464 7  93749621.03307      -155.333 7        42.250
G19  21533144.062 7                      1984.605 7        45.031    21533144.730 4                      1546.451 4        29.469
G22  24057831.035 6                     -1357.471 6        40.438    24057834.511 3                     -1057.774 3        19.250
G24  20314467.243 8 106753237.06308      1027.382 8        49.156    20314469.680 8  83184342.48108       800.561 8        49.563    20314469.958 7  83184342.44407       800.874 7        47.281
G32  24150607.265 5                      4759.103 5        31.875                                                                    24150610.655 4  98892725.32604      3702.134 4        26.875
> 2024 02 29 08 39 13.0000000  0 10
G02  26020235.223 4                      -141.240 4        24.281
G10  24057815.018 5 126424673.01305       204.779 5        34.000                                                                    24057818.596 5  98512753.61505       158.860 5        33.875
G12  21714073.431 7 114108243.34107      4558.699 7        47.125    21714074.704 7  88915508.70307      3552.232 7        44.469    21714074.661 7  88915528.69807      3552.386 7        45.000
G13  25337152.232 3                     -2199.269 3        22.875
G15  23757262.906 6 124845260.17006     -2070.793 6        41.594    23757267.406 5  97282042.49415     -1613.617 5        33.156    23757266.191 6  97281971.46106     -1613.119 6        40.125
G17  22894651.189 7 120312214.35407      -199.986 7        42.969    22894653.109 6  93749778.22206      -155.852 6        37.125    22894653.222 7  93749776.24807      -155.997 7        42.594
G19  21532766.093 7 113155457.67017      1985.154 7        45.344    21532766.681 5  88173084.30615      1546.883 5        31.500
G22  24058089.582 6 126426119.97606     -1359.027 6        40.406    24058092.774 3  98513869.33013     -1058.964 3        20.375
G24  20314271.432 8 106752207.84608      1028.762 8        49.438    20314273.801 8  83183540.49008       801.615 8        50.344    20314273.979 8  83183540.51408       801.995 8        48.000
G32  24149702.797 5 126907550.05205      4751.801 5        35.813                                                                    24149706.600 5  98889021.66605      3703.029 5        34.000
> 2024 02 29 08 39 14.0000000  0 11
G02  26020260.948 4                      -142.342 4        29.219
G10  24057775.052 5                       206.689 5        33.063                                                                    24057779.818 5  98512594.71505       157.976 5        33.969
G12  21713206.067 7 114103685.11107      4559.605 7        46.500    21713207.258 7  88911956.83207      3552.944 7        44.969    21713207.267 7  88911976.80107      3553.251 7        44.469
G13  25337573.598 4                     -2200.146 4        24.094
G14                                                                                                                                  25638380.188 3                     -1381.554 3        20.500
G15  23757656.592 6 124847330.60706     -2069.996 6        41.219    23757661.338 5  97283655.82005     -1612.988 5        34.094    23757660.014 6  97283584.76806     -1612.169 6        38.938
G17  22894689.293 7 120312414.65107      -199.979 7        43.375    22894691.230 6  93749934.29706      -155.837 6        38.000    22894691.259 7  93749932.31207      -155.762 7        42.813
G19  21532388.490 7 113153473.07607      1985.422 7        45.281    21532388.936 5  88171537.87005      1547.076 5        32.844
G22  24058347.922 6 126427478.45906     -1358.436 6        39.813    24058351.224 3  98514927.87403     -1058.518 3        21.688
G24  20314075.836 8 106751179.67008      1029.602 8        49.500    20314078.163 8  83182739.31308       802.287 8        51.094    20314078.342 8  83182739.30808       802.599 8        48.531
G32  24148798.106 5                      4766.529 5        32.656                                                                    24148802.654 5  98885319.01505      3702.388 5        32.750
> 2024 02 29 08 39 15.0000000  0 10
G02  26020287.787 4                      -142.572 4        27.219
G10  24057737.162 5                       204.314 5        32.688                                                                    24057740.472 6  98512435.72106       158.972 6        36.125
G12  21712339.015 7 114099127.27007      4556.188 7        46.188    21712339.884 7  88908405.26907      3550.279 7        45.250    21712340.032 7  88908425.26707      3550.637 7        44.313
G13  25337992.334 3                     -2196.517 3        20.875
G15  23758050.381 6 124849401.20406     -2071.736 6        41.469    23758055.297 5  97285269.27305     -1614.343 5        34.469    23758054.221 6  97285198.23206     -1614.315 6        39.438
G17  22894727.346 7 120312614.75807      -201.776 7        43.344    22894729.292 6  93750090.22506      -157.221 6        39.063    22894729.363 7  93750088.21107      -156.851 7        43.656
G19  21532010.987 7 113151488.73507      1982.109 7        43.594    21532011.245 5  88169991.62705      1544.487 5        34.156
G22  24058606.627 6 126428836.25706     -1358.489 6        40.219    24058609.581 3  98515985.89003     -1058.556 3        22.844
G24  20313880.326 8 106750151.85708      1025.721 8        49.438    20313882.574 8  83181938.42208       799.283 8        51.875    20313882.881 8  83181938.42108       799.511 8        48.969
G32  24147894.096 5                      4753.385 5        30.906                                                                    24147899.132 5  98881615.82205      3704.682 5        31.906
> 2024 02 29 08 39 16.0000000  0 10
G02  26020315.108 4                      -141.189 4        25.969
G10  24057698.387 5                       203.785 5        31.313                                                                    24057701.475 5  98512276.96605       156.667 5        31.938
G12  21711471.840 7 114094569.54607      4555.931 7        45.781    21711472.510 7  88904853.79607      3550.076 7        45.344    21711472.693 7  88904873.79007      3550.215 7        45.188
G13  25338409.916 3                     -2193.247 3        23.938
G15  23758444.303 7 124851472.48107     -2071.751 7        42.375    23758449.381 5  97286883.25305     -1614.348 5        34.844    23758448.224 6  97286812.23806     -1615.109 6        39.281
G17  22894765.255 7 120312814.38707      -200.536 7        43.031    22894767.256 6  93750245.79006      -156.253 6        39.688    22894767.296 7  93750243.79307      -156.222 7        42.875
G19  21531633.354 7 113149504.30907      1982.788 7        44.375    21531633.527 5  88168445.30305      1545.041 5        34.469
G22  24058864.745 6 126430193.55506     -1358.080 6        40.938    24058867.853 3  98517043.52003     -1058.244 3        23.094
G24  20313684.745 8 106749123.98508      1026.118 8        49.406    20313686.954 8  83181137.48208       799.577 8        52.313    20313687.315 8  83181137.49308       799.635 8        48.719
G32  24146990.364 5                      4754.562 5        30.750
> 2024 02 29 08 39 17.0000000  0 12
G02  26020340.632 4                      -141.199 4        28.531
G10  24057660.377 4                       206.704 4        29.688                                                                    24057660.117 4  98512108.17804       183.096 4        26.250
G12  21710604.917 7 114090013.20607      4557.015 7        46.406    21710605.436 7  88901303.40107      3550.916 7        45.531    21710605.636 7  88901323.41407      3550.918 7        45.375
G13  25338827.289 3                     -2192.873 3        23.313
G14                                                                                                                                  25639361.472 3                     -1380.733 3        21.031
G15  23758838.992 7 124853545.32707     -2073.213 7        42.344    23758843.787 5  97288498.45605     -1615.486 5        35.500    23758842.661 6  97288427.49806     -1615.977 6        39.469
G17  22894803.549 7 120313014.58207      -198.682 7        43.469    22894805.332 6  93750401.77706      -154.809 6        39.906    22894805.513 7  93750399.75907      -154.722 7        42.469
G19  21531256.110 7 113147521.25407      1984.769 7        42.344    21531256.068 5  88166900.05905      1546.580 5        34.188
G22  24059123.025 6 126431551.08606     -1355.958 6        40.625    24059126.233 3  98518101.32803     -1056.584 3        23.500
G23  24969646.258 4                     -1327.778 4        25.625
G24  20313489.464 8 106748097.45808      1027.820 8        49.406    20313491.625 8  83180337.58608       800.883 8        52.688    20313492.106 8  83180337.57908       800.811 8        49.188
G32  24146087.346 4                      4755.964 4        29.875                                                                    24146088.626 5  98874201.57905      3705.210 5        31.813
> 2024 02 29 08 39 18.0000000  0 12
G02  26020367.171 4                      -140.098 4        27.375
G10  24057621.054 5                       203.465 5        32.375                                                                    24057621.278 4                       161.227 4        29.031
G12  21709738.213 7 114085458.44707      4554.193 7        46.531    21709738.661 7  88897754.23307      3548.715 7        45.844    21709738.947 7  88897774.20407      3548.517 7        45.563
G13  25339245.497 3                     -2196.746 3        23.063
G14                                                                                                                                  25639701.584 3                     -1382.389 3        21.250
G15  23759233.979 7 124855620.58907     -2076.671 7        42.656    23759238.640 5  97290115.54105     -1618.180 5        35.938    23759238.086 6  97290044.53306     -1618.811 6        39.344
G17  22894841.730 7 120313214.88207      -200.050 7        42.281    22894843.431 6  93750557.84606      -155.874 6        40.125    22894843.696 6  93750555.84606      -156.262 6        41.719
G19  21530878.894 7 113145539.42007      1981.399 7        43.094    21530878.860 5  88165355.76405      1543.980 5        34.125
G22  24059381.584 6 126432908.66906     -1357.651 6        38.688    24059384.527 3  98519159.18203     -1057.895 3        23.313
G23  24969899.021 3                     -1331.406 3        23.844                                                                    24969891.828 5                     -1037.125 5        30.281
G24  20313294.406 8 106747072.44708      1024.315 8        49.063    20313296.604 8  83179538.86708       798.168 8        53.031    20313297.045 8  83179538.86808       798.143 8        49.313
G32  24145182.581 5                      4754.720 5        33.688                                                                    24145183.886 5  98870497.39605      3702.831 5        35.906
> 2024 02 29 08 39 19.0000000  0 12
G02  26020392.812 5                      -138.879 5        30.375
G10  24057582.169 4                       207.090 4        27.156                                                                    24057584.615 5                       160.287 5        33.125
G12  21708871.462 7 114080903.77807      4553.794 7        47.719    21708871.872 7  88894205.13607      3548.413 7        46.313    21708872.236 7  88894225.13607      3548.428 7        46.344
G13  25339663.473 3                     -2198.288 3        23.938
G14                                                                                                                                  25640040.613 3                     -1379.262 3        22.281
G15  23759629.237 6 124857697.08406     -2077.909 6        41.563    23759633.708 6  97291733.56606     -1619.117 6        36.094    23759633.716 6  97291662.42706     -1618.334 6        39.375
G17  22894879.769 7 120313415.27407      -201.069 7        42.063    22894881.524 6  93750713.97906      -156.664 6        39.750    22894882.054 6  93750711.99306      -157.154 6        41.031
G19  21530501.956 7 113143558.64007      1978.408 7        44.094    21530501.817 5  88163812.30805      1541.642 5        33.094
G22  24059639.821 6 126434266.26506     -1357.904 6        39.344    24059642.839 3  98520217.03203     -1058.056 3        22.750
G23  24970151.466 4                     -1326.659 4        26.500                                                                    24970143.763 4 102248569.67614     -1035.572 4        29.875
G24  20313099.419 8 106746047.92908      1022.550 8        49.313    20313101.614 8  83178740.53108       796.809 8        52.969    20313102.042 8  83178740.52808       796.723 8        48.781
G32  24144276.411 5 126879033.26315      4755.128 5        35.594                                                                    24144279.490 6  98866792.16806      3705.655 6        36.469
> 2024 02 29 08 39 20.0000000  0 12
G02  26020418.622 5                      -137.866 5        35.313
G10  24057543.108 5                       205.135 5        35.469                                                                    24057545.770 5  98511626.74015       161.336 5        34.938
G12  21708004.838 7 114076349.64907      4554.931 7        47.844    21708005.227 7  88890656.46107      3549.288 7        46.938    21708005.761 7  88890676.47707      3549.228 7        46.281
G13  25340080.787 4                     -2201.206 4        24.531
G14  25640370.090 3                     -1770.439 3        19.750                                                                    25640378.167 3                     -1380.055 3        19.563
G15  23760024.799 7 124859775.23607     -2078.714 7        43.406    23760029.093 6  97293352.86906     -1619.767 6        36.156    23760029.074 6  97293281.90606     -1619.893 6        39.813
G17  22894918.008 7 120313615.70607      -200.049 7        42.156    22894919.640 6  93750870.14306      -155.867 6        39.031    22894920.142 6  93750868.15906      -155.466 6        40.531
G19  21530125.204 7 113141579.11807      1980.114 7        44.344    21530125.061 5  88162269.80605      1542.946 5        33.000
G22  24059898.009 6 126435623.97606     -1357.394 6        40.531    24059901.219 3  98521274.94803     -1057.690 3        22.219
G23  24970403.469 3                     -1329.427 3        22.813                                                                    24970396.061 5 102249605.26605     -1039.313 5        30.875
G24  20312904.652 8 106745024.30108      1025.043 8        49.813    20312906.835 8  83177942.89008       798.754 8        53.094    20312907.172 8  83177942.90308       798.442 8        48.500
G32  24143369.668 6 126874275.99106      4756.970 6        37.125                                                                    24143374.354 6  98863085.10006      3707.508 6        40.438
> 2024 02 29 08 39 21.0000000  0 12
G02  26020444.271 5                      -138.199 5        34.500
G10  24057503.653 6                       207.295 6        36.656                                                                    24057506.786 6  98511465.14406       161.956 6        39.563
G12  21707138.166 7 114071794.91207      4555.773 7        47.781    21707138.470 7  88887107.31407      3549.971 7        47.281    21707139.142 7  88887127.34207      3549.702 7        46.094
G13  25340499.416 3                     -2200.754 3        22.906
G14  25640711.480 3                     -1775.484 3        19.844
G15  23760420.670 6 124861853.90306     -2077.455 6        41.000    23760424.564 6  97294972.58706     -1618.768 6        36.563    23760424.560 6  97294901.55806     -1618.315 6        40.969
G17  22894956.188 6 120313817.67706      -202.140 6        41.406    22894958.047 6  93751027.51706      -157.487 6        38.563    22894958.655 6  93751025.42306      -157.225 6        39.594
G19  21529748.845 7 113139601.66807      1977.268 7        44.500    21529748.689 5  88160728.92005      1540.739 5        33.594
G22  24060156.515 6 126436983.20906     -1359.558 6        39.219    24060159.920 3  98522334.07503     -1059.398 3        21.875
G23  24970653.603 4                     -1332.446 4        27.875                                                                    24970647.912 5 102250641.00305     -1038.285 5        30.000
G24  20312709.965 8 106744001.34208      1023.917 8        49.094    20312712.185 8  83177145.77008       797.889 8        53.063    20312712.462 8  83177145.75608       798.002 8        48.188
G32  24142463.762 6 126869517.03206      4759.023 6        40.156                                                                    24142468.761 6  98859376.96306      3707.659 6        40.875
> 2024 02 29 08 39 22.0000000  0 10
G02  26020470.130 5                      -138.921 5        32.781
G10  24057464.140 6                       207.530 6        36.813                                                                    24057467.637 5  98511303.23805       162.596 5        35.938
G12  21706271.270 7 114067238.96207      4555.882 7        45.750    21706271.458 7  88883557.22907      3550.059 7        47.438    21706272.033 7  88883577.21707      3549.513 7        45.438
G13  25340917.240 3                     -2201.319 3        22.813
G15  23760816.291 6 124863931.58506     -2077.137 6        41.000    23760819.891 6  97296591.57906     -1618.542 6        37.063    23760820.173 6  97296520.51306     -1617.554 6        41.219
G17  22894995.038 6 120314021.34006      -204.644 6        41.438    22894996.771 6  93751186.20106      -159.438 6        38.000    22894997.422 6  93751184.15406      -159.235 6        39.875
G19  21529372.835 7 113137625.51607      1975.696 7        45.313    21529372.567 5  88159189.05005      1539.516 5        34.281
G22  24060415.586 6 126438344.14606     -1361.385 6        38.875    24060418.921 3  98523394.54003     -1060.800 3        21.625
G24  20312515.214 8 106742978.17508      1022.171 8        49.031    20312517.459 8  83176348.49408       796.495 8        53.250    20312517.720 8  83176348.49608       796.785 8        49.125
G32  24141558.214 6 126864758.28606      4758.931 6        41.000                                                                    24141563.307 6  98855668.78206      3708.001 6        41.125
> 2024 02 29 08 39 23.0000000  0 10
G02  26020496.459 5                      -140.620 5        32.406
G10  24057424.875 5                       208.945 5        35.563    24057414.045 1                       162.871 1        11.094    24057428.716 6  98511140.99606       160.856 6        37.031
G12  21705403.997 7 114062681.99807      4555.691 7        45.344    21705404.241 7  88880006.33807      3549.900 7        46.906    21705404.727 7  88880026.31807      3549.595 7        45.156
G13  25341336.499 3                     -2198.687 3        22.625
G15  23761211.437 6 124866008.03106     -2077.012 6        40.406    23761214.985 6  97298209.58906     -1618.459 6        37.031    23761215.422 6  97298138.55806     -1618.403 6        40.781
G17  22895033.948 6 120314226.59906      -206.337 6        41.938    22895035.822 6  93751346.13006      -160.772 6        38.125    22895036.566 7  93751344.10707      -160.695 7        42.125
G19  21528997.013 7 113135650.69507      1972.978 7        46.031    21528996.705 5  88157650.21905      1537.396 5        35.344
G22  24060674.896 6 126439706.35606     -1363.561 6        40.063    24060678.100 3  98524455.99703     -1062.497 3        21.688
G24  20312320.499 8 106741955.13608      1020.916 8        48.813    20312322.765 8  83175551.31308       795.529 8        53.250    20312322.969 8  83175551.32508       795.539 8        48.656
G32  24140656.462 6 126859999.62306      4758.531 6        40.250    24140654.899 3  98851946.76713      3707.948 3        23.594    24140658.262 6  98851960.72406      3707.545 6        40.875
> 2024 02 29 08 39 24.0000000  0 10
G02  26020524.018 5                      -139.436 5        32.219
G10  24057385.087 5                       207.183 5        35.406    24057374.538 1                       161.205 1        10.063    24057388.706 5  98510979.09705       161.193 5        31.750
G12  21704536.807 7 114058125.22307      4557.978 7        45.250    21704537.064 7  88876455.59207      3551.663 7        46.719    21704537.653 7  88876475.58507      3551.861 7        45.563
G13  25341755.043 3                     -2197.248 3        21.469
G15  23761606.457 6 124868084.45406     -2075.605 6        40.063    23761610.094 6  97299827.56406     -1617.376 6        36.281    23761610.835 6  97299756.62306     -1618.470 6        36.938
G17  22895073.227 7 120314431.91207      -204.369 7        42.375    22895074.882 6  93751506.10506      -159.254 6        38.094    22895075.582 6  93751504.12406      -159.525 6        41.781
G19  21528621.291 7 113133676.16907      1975.805 7        46.000    21528620.905 5  88156111.62905      1539.575 5        35.844
G22  24060934.271 6 126441068.24206     -1361.291 6        40.688    24060937.213 3  98525517.20303     -1060.765 3        21.875
G24  20312125.803 8 106740932.39808      1023.957 8        49.125    20312128.129 8  83174754.36708       797.902 8        53.063    20312128.339 8  83174754.37408       798.083 8        48.906
G32  24139750.698 6 126855241.00306      4758.320 6        40.969    24139749.279 4  98848238.75704      3707.775 4        24.375    24139752.543 6  98848252.73106      3707.993 6        41.438
> 2024 02 29 08 39 25.0000000  0 10
G02  26020551.100 5 136738917.66415      -140.310 5        30.844
G10  24057345.520 5                       208.097 5        33.844                                                                    24057348.415 5  98510817.67305       161.905 5        32.438
G12  21703669.617 7 114053568.69007      4557.706 7        45.125    21703669.998 7  88872905.05207      3551.461 7        46.438    21703670.577 7  88872925.06407      3551.440 7        45.781
G13  25342173.185 3                     -2199.736 3        21.625
G15  23762001.505 6 124870160.51806     -2076.293 6        41.031    23762005.161 6  97301445.28206     -1617.902 6        36.250    23762005.744 6  97301374.20406     -1617.135 6        40.594
G17  22895112.405 7 120314637.73407      -205.342 7        42.906    22895114.058 6  93751666.48306      -159.977 6        38.469    22895114.673 7  93751664.45207      -159.961 7        42.813
G19  21528245.757 7 113131702.00707      1975.422 7        45.781    21528245.200 6  88154573.31606      1539.282 6        36.281
G22  24061193.781 6 126442429.99606     -1360.968 6        40.188    24061196.352 3  98526578.31003     -1060.489 3        22.063
G24  20311931.241 8 106739909.90908      1024.113 8        49.219    20311933.582 8  83173957.62408       798.019 8        53.063    20311933.847 8  83173957.65008       797.846 8        48.844
G32  24138844.959 6 126850483.23106      4757.918 6        41.469    24138843.981 4  98844531.40004      3707.493 4        24.781    24138846.948 6  98844545.38606      3707.689 6        40.625
> 2024 02 29 08 39 26.0000000  0 10
G02  26020577.976 5 136739058.61805      -141.462 5        31.094
G10  24057306.586 5                       205.584 5        30.719                                                                    24057309.597 5  98510657.71905       158.554 5        32.719
G12  21702802.951 7 114049014.18807      4552.319 7        44.563    21702803.304 7  88869356.09407      3547.267 7        46.281    21702803.857 7  88869376.09307      3547.495 7        44.313
G13  25342589.555 3                     -2201.591 3        21.344
G15  23762396.819 6 124872238.02906     -2079.981 6        38.313    23762400.466 5  97303064.11705     -1620.763 5        35.875    23762400.901 6  97302993.04306     -1619.995 6        39.469
G17  22895151.581 7 120314844.08207      -208.196 7        44.125    22895153.305 6  93751827.26406      -162.236 6        39.094    22895153.925 6  93751825.27306      -162.136 6        40.750
G19  21527870.354 7 113129729.12707      1970.271 7        46.281    21527869.713 6  88153036.00406      1535.290 6        36.719
G22  24061452.808 6 126443791.88406     -1363.345 6        41.063    24061455.474 3  98527639.50903     -1062.345 3        22.531
G24  20311737.013 8 106738889.33208      1017.859 8        48.969    20311739.370 8  83173162.36408       793.131 8        53.188    20311739.699 8  83173162.37008       793.025 8        48.719
G32  24137939.655 6 126845726.46906      4755.474 6        41.469    24137938.956 4  98840824.82404      3705.575 4        25.594    24137941.789 6  98840838.84006      3705.019 6        41.313
> 2024 02 29 08 39 27.0000000  0 10
G02  26020605.086 4 136739198.82104      -142.021 4        29.500
G10  24057267.663 4                       205.539 4        29.719                                                                    24057270.312 5  98510496.48205       161.751 5        34.688
G12  21701936.275 7 114044459.80007      4555.186 7        45.531    21701936.596 7  88865807.22207      3549.482 7        45.938    21701937.296 7  88865827.19807      3549.548 7        45.219
G15  23762792.356 6 124874317.12906     -2079.013 6        39.031    23762796.075 5  97304684.17605     -1619.979 5        35.219    23762796.623 6  97304613.14406     -1620.707 6        39.375
G17  22895191.172 7 120315051.45207      -206.968 7        42.969    22895192.754 6  93751988.85606      -161.277 6        39.281    22895193.581 6  93751986.80006      -161.100 6        41.938
G19  21527495.326 7 113127758.20907      1970.789 7        46.000    21527494.589 6  88151500.22206      1535.707 6        37.313
G22  24061712.098 6 126445155.05806     -1363.989 6        40.625    24061714.855 3  98528701.71003     -1062.828 3        23.094
G23                                                                                                                                  24972156.266 4                     -1038.560 4        28.156
G24  20311542.920 8 106737869.69408      1020.235 8        49.281    20311545.320 8  83172367.84108       794.982 8        53.156    20311545.652 8  83172367.83308       795.094 8        48.781
G32  24137033.893 6 126840967.91406      4759.979 6        41.781    24137033.529 4  98837116.84204      3709.060 4        25.938    24137036.221 6  98837130.84106      3708.708 6        40.406
> 2024 02 29 08 39 28.0000000  0 11
G02  26020631.795 5 136739337.61805      -140.917 5        30.781
G10  24057228.744 3                       199.296 3        23.813                                                                    24057231.448 4  98510334.53804       162.124 4        28.219
G12  21701069.882 7 114039906.09907      4554.146 7        45.219    21701070.054 7  88862258.87607      3548.684 7        45.906    21701070.816 7  88862278.84907      3548.831 7        44.438
G13  25343423.213 3                     -2203.385 3        22.625
G15  23763188.044 6 124876397.64506     -2081.209 6        40.625    23763191.970 5  97306305.31405     -1621.748 5        35.156    23763192.511 6  97306234.28606     -1621.672 6        40.125
G17  22895231.045 6 120315260.04006      -209.949 6        41.250    22895232.480 6  93752151.38206      -163.605 6        38.906    22895233.183 6  93752149.30306      -162.334 6        39.000
G19  21527120.828 7 113125789.48507      1967.901 7        46.406    21527119.920 6  88149966.14206      1533.445 6        37.594
G22  24061971.631 7 126446518.94707     -1364.462 7        42.500    24061974.415 3  98529764.46003     -1063.190 3        23.938
G23                                                                                                                                  24972409.396 4                     -1036.755 4        28.188
G24  20311349.343 8 106736851.81208      1017.735 8        48.969    20311351.654 8  83171574.67408       793.046 8        53.250    20311352.048 8  83171574.66508       792.973 8        48.625
G32  24136127.868 6 126836208.06606      4759.991 6        39.813    24136127.837 4  98833407.87904      3709.111 4        25.406    24136130.580 6  98833421.80306      3710.059 6        39.000
> 2024 02 29 08 39 29.0000000  0 12
G02  26020658.021 5 136739477.93705      -141.653 5        33.844
G10  24057190.484 5                       208.582 5        32.156                                                                    24057191.847 4  98510172.32904       164.757 4        24.156
G12  21700203.033 7 114035351.38907      4554.201 7        44.844    21700203.252 7  88858709.73407      3548.746 7        45.500    21700203.924 7  88858729.69207      3548.767 7        44.656
G13  25343842.160 3                     -2202.184 3        22.438
G14  25643413.382 3                     -1775.349 3        23.000
G15  23763583.818 6 124878477.55806     -2079.775 6        41.094    23763587.758 5  97307926.02105     -1620.606 5        35.406    23763588.117 6  97307854.98706     -1620.172 6        40.594
G17  22895271.186 7 120315470.93907      -212.979 7        44.719    22895272.608 6  93752315.70606      -165.942 6        38.906    22895273.242 7  93752313.63507      -165.482 7        42.750
G19  21526746.716 7 113123823.15707      1964.368 7        46.688    21526745.672 6  88148433.93206      1530.694 6        38.125
G22  24062231.854 6 126447885.53806     -1367.354 6        38.313    24062234.453 3  98530829.30803     -1065.452 3        23.000
G23                                                                                                                                  24972663.317 4                     -1035.534 4        26.344
G24  20311155.741 8 106735834.49408      1015.494 8        48.969    20311158.028 8  83170781.94808       791.314 8        53.219    20311158.325 8  83170781.96608       791.061 8        48.469
G32  24135221.849 6 126831447.51406      4759.848 6        40.406    24135222.030 4  98829698.34504      3708.953 4        24.844    24135224.417 5  98829712.41205      3707.529 5        35.688
> 2024 02 29 08 39 30.0000000  0 12
G02  26020685.053 5 136739620.38605      -142.897 5        31.750
G10  24057149.216 5                       208.286 5        35.438                                                                    24057151.142 4  98510009.28404       165.202 4        29.156
G12  21699336.094 7 114030795.68307      4556.464 7        44.875    21699336.312 7  88855159.82407      3550.488 7        45.375    21699336.904 7  88855179.83107      3550.394 7        44.656
G13  25344263.320 3                     -2193.525 3        21.656
G14  25643750.958 4                     -1779.470 4        24.281                                                                    25643759.188 4                     -1386.669 4        25.156
G15  23763979.447 6 124880556.16006     -2078.639 6        40.719    23763983.300 5  97309545.70705     -1619.697 5        35.938    23763983.735 6  97309474.70906     -1619.221 6        40.469
G17  22895311.883 6 120315684.00106      -212.460 6        39.063    22895313.143 6  93752481.71206      -165.579 6        39.969    22895313.547 6  93752479.75706      -166.871 6        38.375
G19  21526372.762 7 113121858.27607      1964.976 7        46.813    21526371.737 6  88146902.85006      1531.136 6        38.313
G22  24062492.180 7 126449253.49407     -1367.992 7        43.125    24062494.728 3  98531895.23803     -1065.954 3        23.000
G23                                                                                                                                  24972914.671 4                     -1037.230 4        25.406
G24  20310962.221 8 106734817.38508      1017.823 8        49.125    20310964.474 8  83169989.38808       793.124 8        53.281    20310964.831 8  83169989.39908       793.004 8        48.500
G32  24134316.092 6 126826687.65006      4761.347 6        38.688    24134316.352 4  98825989.35804      3710.144 4        24.063    24134318.313 6  98826003.35606      3708.515 6        36.875
> 2024 02 29 08 39 31.0000000  0 12
G02  26020711.614 5 136739763.28205      -144.646 5        31.563
G10  24057108.493 6 126420968.58516       208.648 6        38.063                                                                    24057113.847 4                       174.705 4        28.969
G12  21698469.139 7 114026239.81307      4556.268 7        45.188    21698469.349 7  88851609.79007      3550.354 7        45.219    21698470.024 7  88851629.81007      3550.565 7        44.719
G13  25344682.588 3                     -2196.308 3        20.844
G14  25644089.545 3                     -1777.335 3        21.375
G15  23764374.971 6 124882634.44306     -2077.670 6        39.750    23764378.784 6  97311165.13406     -1618.944 6        36.375    23764379.246 6  97311094.09906     -1618.966 6        41.438
G17  22895352.736 6 120315897.88306      -215.407 6        41.719    22895353.835 6  93752648.37906      -167.834 6        38.375    22895354.580 6  93752646.30406      -167.783 6        40.156
G19  21525999.144 7 113119894.70807      1962.764 7        44.594    21525998.066 6  88145372.78906      1529.422 6        38.125
G22  24062752.739 6 126450622.48206     -1370.338 6        36.031    24062755.187 3  98532961.96303     -1067.844 3        22.969
G23                                                                                                                                  24973165.520 4                     -1033.437 4        27.844
G24  20310768.931 8 106733800.91708      1016.785 8        48.781    20310771.063 8  83169197.32908       792.311 8        53.281    20310771.473 8  83169197.32108       792.204 8        48.625
G32  24133410.247 6 126821927.60306      4759.645 6        40.344    24133410.620 3  98822280.22003      3708.833 3        23.969    24133412.803 6  98822294.17106      3708.665 6        40.625
> 2024 02 29 08 39 32.0000000  0 11
G02  26020739.091 5 136739907.43705      -144.149 5        32.094
G10  24057068.038 6 126420759.45406       206.923 6        37.875                                                                    24057072.382 6  98509690.16016       161.372 6        38.031
G12  21697602.169 7 114021684.07607      4552.441 7        45.188    21697602.373 7  88848059.86707      3547.367 7        45.281    21697603.089 7  88848079.81007      3547.630 7        44.844
G13  25345101.190 3                     -2201.075 3        22.125
G14  25644429.290 3                     -1777.432 3        22.031                                                                    25644437.077 3                     -1384.869 3        22.031
G15  23764770.102 6 124884712.39006     -2079.034 6        40.219    23764774.209 6  97312784.31606     -1620.019 6        36.438    23764774.508 6  97312713.30806     -1620.493 6        40.563
G17  22895393.791 7 120316113.46707      -217.241 7        43.781    22895394.849 6  93752816.35006      -169.273 6        39.031    22895395.577 7  93752814.28407      -169.688 7        42.063
G19  21525625.736 7 113117932.57807      1959.476 7        44.875    21525624.641 6  88143843.84806      1526.885 6        38.531
G22  24063013.452 6 126451992.35306     -1371.219 6        41.844    24063015.780 3  98534029.38203     -1068.480 3        22.875
G24  20310575.675 8 106732785.32508      1012.522 8        48.875    20310577.795 8  83168405.95408       788.979 8        53.375    20310578.153 8  83168405.95608       788.783 8        48.594
G32  24132504.387 6 126817168.28306      4757.339 6        37.813    24132505.045 3  98818571.64703      3707.015 3        23.781    24132507.120 6  98818585.75406      3706.330 6        38.125
> 2024 02 29 08 39 33.0000000  0 11
G02  26020765.886 4 136740052.82904      -145.267 4        28.594
G10  24057027.556 6 126420550.93506       209.381 6        36.313                                                                    24057032.235 6  98509527.55206       162.807 6        37.500
G12  21696735.237 7 114017128.16107      4556.105 7        44.438    21696735.384 7  88844509.79707      3550.205 7        45.031    21696736.417 7  88844529.79807      3550.104 7        44.688
G13  25345522.300 3                     -2201.377 3        23.313
G14  25644767.980 4                     -1779.011 4        25.656
G15  23765165.268 6 124886790.00806     -2077.446 6        39.719    23765169.563 6  97314403.22606     -1618.782 6        36.000    23765169.951 6  97314332.24906     -1618.918 6        38.406
G17  22895434.945 7 120316329.58607      -216.652 7        44.531    22895435.961 6  93752984.74606      -168.829 6        39.844    22895436.806 7  93752982.72207      -168.412 7        42.531
G19  21525252.510 7 113115970.99007      1961.881 7        44.094    21525251.332 6  88142315.34106      1528.746 6        37.469
G22  24063274.184 7 126453362.61707     -1370.195 7        42.375    24063276.466 3  98535097.11803     -1067.675 3        23.781
G24  20310382.438 8 106731769.74208      1015.640 8        48.625    20310384.518 8  83167614.58208       791.400 8        53.188    20310384.893 8  83167614.57108       791.471 8        48.406
G32  24131598.667 7 126812409.53207      4758.461 7        43.531    24131599.675 4  98814863.53904      3707.892 4        24.000    24131601.854 6  98814877.45106      3707.824 6        40.281
> 2024 02 29 08 39 34.0000000  0 12
G02  26020793.406 3                      -146.709 3        23.938
G10  24056989.674 6 126420343.53306       208.512 6        39.688    24056978.504 2  98509304.96912       162.485 2        12.656    24056992.223 5  98509365.88005       162.716 5        35.594
G12  21695868.440 7 114012572.86307      4556.776 7        44.719    21695868.533 7  88840960.20407      3550.715 7        44.719    21695869.620 7  88840980.17207      3550.985 7        44.594
G13  25345943.988 3                     -2199.694 3        21.531
G14  25645107.349 3                     -1776.396 3        22.313
G15  23765560.826 6 124888867.44506     -2076.851 6        39.500    23765564.868 5  97316021.99605     -1618.323 5        35.719    23765564.886 6  97315951.02206     -1617.701 6        40.594
G17  22895476.329 7 120316547.13807      -216.312 7        43.844    22895477.368 6  93753154.26406      -168.548 6        40.563    22895478.396 7  93753152.22407      -168.599 7        42.469
G19  21524879.475 7 113114010.64307      1961.720 7        46.469    21524878.269 6  88140787.79906      1528.610 6        37.156
G22  24063535.239 7 126454733.72307     -1370.505 7        42.063    24063537.386 4  98536165.49904     -1067.897 4        24.438
G23  24973883.813 4                     -1326.519 4        26.594
G24  20310189.482 8 106730755.22408      1016.527 8        48.938    20310191.478 8  83166824.04708       792.107 8        53.063    20310191.837 8  83166824.03908       792.098 8        48.594
G32  24130693.664 6 126807651.94706      4759.277 6        40.375    24130694.539 4  98811156.29704      3708.528 4        25.031    24130696.565 6  98811170.35806      3707.559 6        39.375
> 2024 02 29 08 39 35.0000000  0 11
G02  26020821.904 4                      -147.803 4        29.750
G10  24056950.288 6 126420136.65606       207.835 6        38.000    24056939.168 2  98509143.73502       161.973 2        14.375    24056953.083 6  98509204.81006       161.989 6        39.156
G12  21695001.639 7 114008017.86107      4555.157 7        45.094    21695001.758 7  88837410.85107      3549.487 7        44.656    21695002.641 7  88837430.88807      3548.951 7        44.219
G14  25645446.808 4                     -1776.272 4        24.563                                                                    25645455.963 4                     -1385.743 4        26.250
G15  23765956.267 6 124890944.79006     -2077.209 6        39.844    23765960.160 5  97317640.70505     -1618.596 5        35.938    23765960.170 6  97317569.75806     -1619.059 6        40.813
G17  22895517.882 7 120316765.18207      -218.440 7        44.188    22895518.892 6  93753324.16606      -170.197 6        40.906    22895520.008 7  93753322.16807      -170.206 7        43.406
G19  21524506.495 7 113112050.98107      1959.078 7        46.750    21524505.349 6  88139260.77906      1526.543 6        38.000
G22  24063796.313 7 126456104.81807     -1370.391 7        43.250    24063798.282 4  98537233.88204     -1067.820 4        25.250
G23  24974134.966 4                     -1328.562 4        25.813
G24  20309996.493 8 106729741.29108      1013.654 8        48.750    20309998.550 8  83166033.96608       789.882 8        53.031    20309998.920 8  83166033.99508       789.654 8        48.594
G32  24129788.381 6 126802894.86406      4758.012 6        40.531    24129789.460 4  98807449.47904      3707.596 4        24.688    24129791.677 6  98807463.57106      3707.562 6        37.594
> 2024 02 29 08 39 36.0000000  0 11
G02  26020850.755 4                      -147.535 4        27.438
G10  24056910.716 6 126419929.55406       205.635 6        38.688    24056900.233 2  98508982.39402       160.181 2        14.031    24056914.093 6  98509043.34806       160.417 6        36.313
G12  21694134.852 7 114003462.68507      4554.352 7        43.250    21694134.894 7  88833861.36307      3548.874 7        44.281    21694135.741 7  88833881.32207      3549.416 7        43.906
G14  25645784.581 3                     -1775.287 3        21.688                                                                    25645795.578 4                     -1383.307 4        26.031
G15  23766351.478 6 124893022.08006     -2076.599 6        39.250    23766355.429 5  97319259.36505     -1618.114 5        35.781    23766355.455 6  97319188.35406     -1618.376 6        40.531
G17  22895559.574 7 120316984.14107      -219.961 7        44.094    22895560.554 6  93753494.77906      -171.388 6        41.625    22895561.686 7  93753492.69707      -170.186 7        43.063
G19  21524133.869 7 113110092.39007      1957.940 7        46.125    21524132.595 6  88137734.59906      1525.656 6        38.594
G22  24064057.459 7 126457476.72407     -1371.682 7        42.750    24064059.327 4  98538302.89604     -1068.849 4        26.125
G23  24974387.394 4                     -1328.298 4        24.156
G24  20309803.631 8 106728727.65808      1012.990 8        48.719    20309805.640 8  83165244.12008       789.349 8        53.094    20309805.955 8  83165244.10008       789.429 8        48.625
G32  24128883.036 6 126798137.57706      4756.021 6        40.094    24128884.301 4  98803742.51004      3705.968 4        24.469    24128886.533 6  98803756.49906      3706.477 6        38.875
> 2024 02 29 08 39 37.0000000  0 12
G02  26020879.181 4                      -149.770 4        26.781
G10  24056871.432 6 126419723.54806       205.699 6        40.156    24056861.808 2  98508821.88102       160.311 2        14.781    24056874.938 5  98508882.62305       162.442 5        35.000
G12  21693267.978 6 113998907.77506      4556.108 6        40.000    21693268.096 7  88830312.07707      3550.216 7        43.938    21693269.123 7  88830332.11707      3550.421 7        43.063
G13  25347205.097 3                     -2200.650 3        22.500
G14  25646123.087 3                     -1771.695 3        22.094                                                                    25646133.736 4                     -1383.964 4        26.938
G15  23766746.811 6 124895098.91406     -2075.741 6        39.406    23766750.631 5  97320877.66705     -1617.439 5        35.563    23766750.910 6  97320806.70306     -1617.508 6        39.750
G17  22895601.181 7 120317203.33907      -219.327 7        44.375    22895602.274 6  93753665.57506      -170.903 6        41.938    22895603.301 7  93753663.53407      -170.707 7        43.156
G19  21523761.028 7 113108133.95107      1959.599 7        46.719    21523759.898 6  88136208.53706      1526.964 6        38.719
G22  24064318.470 7 126458848.24507     -1371.131 7        43.469    24064320.282 4  98539371.61004     -1068.420 4        26.313
G23  24974640.609 3                     -1329.172 3        21.000                                                                    24974663.246 4                     -1037.243 4        24.688
G24  20309610.762 8 106727714.33708      1015.151 8        48.594    20309612.823 8  83164454.51608       791.010 8        53.156    20309613.168 8  83164454.52808       791.027 8        48.656
G32  24127977.908 6 126793381.13506      4756.524 6        40.750    24127979.240 4  98800036.20704      3706.385 4        24.063    24127981.095 6  98800050.21006      3707.255 6        36.313
> 2024 02 29 08 39 38.0000000  0 12
G02  26020911.350 4                      -149.311 4        28.438
G10  24056832.232 6 126419518.18106       205.893 6        40.250    24056823.496 2  98508661.81402       160.508 2        16.281    24056835.853 6  98508722.98606       159.068 6        38.500
G12  21692401.278 6 113994353.64006      4554.081 6        37.844    21692401.527 7  88826763.41807      3548.595 7        42.219    21692402.389 6  88826783.38406      3549.579 6        39.531
G13  25347623.887 4                     -2199.093 4        25.156
G14  25646463.682 3                     -1774.200 3        22.313                                                                    25646472.448 4                     -1382.263 4        24.000
G15  23767142.210 6 124897176.28406     -2076.414 6        37.719    23767145.913 5  97322496.39005     -1617.982 5        34.875    23767146.379 6  97322425.26806     -1618.413 6        38.625
G17  22895642.991 7 120317423.32107      -220.771 7        43.531    22895644.173 6  93753836.98906      -172.027 6        41.781    22895644.895 7  93753834.92007      -171.476 7        42.438
G19  21523388.502 7 113106176.58107      1955.881 7        46.531    21523387.421 6  88134683.31006      1524.077 6        38.906
G22  24064579.657 7 126460220.15307     -1372.297 7        42.750    24064581.322 4  98540440.63304     -1069.327 4        26.344
G23  24974893.126 3                     -1328.878 3        22.906
G24  20309418.077 8 106726701.96008      1011.208 8        48.719    20309420.208 8  83163665.64808       787.950 8        53.250    20309420.644 8  83163665.65408       787.817 8        48.469
G32  24127073.007 6 126788625.42706      4755.888 6        40.625    24127074.228 4  98796330.46404      3705.907 4        24.031    24127076.284 6  98796344.39606      3706.085 6        40.281
> 2024 02 29 08 39 39.0000000  0 12
G02  26020939.861 4                      -150.352 4        24.844
G10  24056793.112 6 126419313.09606       205.103 6        40.406    24056785.232 2  98508502.02002       159.801 2        16.844    24056796.635 6  98508563.03106       158.144 6        36.344
G12  21691534.306 6 113989799.32506      4553.086 6        36.375    21691534.842 6  88823214.58306      3547.914 6        40.750    21691536.372 5  88823234.81105      3544.342 5        33.063
G13  25348041.975 4                     -2196.482 4        29.719
G14                                                                                                                                  25646808.749 4                     -1382.882 4        24.438
G15  23767536.903 5 124899252.63705     -2075.880 5        34.094    23767541.012 5  97324114.33605     -1617.682 5        32.969    23767541.393 5  97324043.72505     -1618.192 5        33.563
G17  22895684.891 7 120317643.73407      -220.377 7        44.750    22895686.103 6  93754008.72806      -171.710 6        41.719    22895686.865 7  93754006.68407      -171.678 7        43.344
G19  21523016.028 7 113104219.75207      1956.175 7        46.688    21523015.002 6  88133158.50506      1524.298 6        39.031
G22  24064840.869 7 126461592.11307     -1370.858 7        42.563    24064842.366 4  98541509.67904     -1068.190 4        26.375
G23  24975148.370 4                     -1328.605 4        26.500                                                                    24975163.683 4                     -1036.259 4        25.750
G24  20309225.325 8 106725689.76308      1011.564 8        48.531    20309227.571 8  83162876.92008       788.235 8        53.281    20309228.040 8  83162876.87608       788.345 8        48.781
G32  24126167.960 6 126783869.69706      4754.734 6        41.438    24126169.279 3  98792624.68903      3704.954 3        23.656    24126171.009 5  98792638.54305      3705.610 5        35.906
> 2024 02 29 08 39 40.0000000  0 12
G02  26020971.046 4                      -151.818 4        25.500
G10  24056754.310 6 126419108.55206       206.103 6        39.188    24056747.013 2  98508342.64002       160.574 2        17.031    24056757.708 6  98508403.59306       160.424 6        36.844
G12  21690667.780 5 113985245.21205      4554.273 5        34.750    21690668.219 6  88819665.87806      3548.734 6        38.813    21690669.675 5  88819686.21905      3548.210 5        33.375
G13  25348459.454 4                     -2200.729 4        28.438
G14                                                                                                                                  25647148.794 4                     -1383.161 4        25.406
G15                                                                                                                                  23767937.501 5  97325662.06405     -1619.232 5        34.750
G17  22895726.844 7 120317864.47707      -219.092 7        45.375    22895728.119 7  93754180.73007      -170.699 7        42.125    22895728.592 7  93754178.63007      -170.899 7        43.719
G19  21522643.821 7 113102263.29707      1957.772 7        47.063    21522642.681 6  88131633.99406      1525.531 6        39.281
G22  24065101.847 7 126462964.13507     -1370.641 7        42.000    24065103.442 4  98542578.79204     -1068.002 4        26.188
G23  24975404.160 3                     -1329.810 3        23.844
G24  20309032.900 7 106724677.92707      1013.187 7        46.781    20309035.022 8  83162088.47208       789.507 8        52.938    20309035.423 7  83162088.46707       789.501 7        47.844
G32  24125263.208 6 126779114.38106      4757.666 6        40.719    24125264.370 3  98788919.23203      3707.313 3        23.344    24125266.179 5  98788933.15505      3706.953 5        35.875
> 2024 02 29 08 39 41.0000000  0 11
G02  26021000.885 4                      -152.000 4        28.656
G10  24056715.672 6 126418904.88206       204.463 6        40.500    24056708.942 3  98508183.91003       159.372 3        18.156    24056719.116 6  98508245.02506       158.197 6        37.531
G12  21689800.887 5 113980693.23505      4551.129 5        33.594    21689802.048 6  88816118.93306      3546.409 6        36.781    21689802.902 5  88816138.25805      3548.812 5        31.781
G13  25348878.593 4                     -2203.027 4        29.406
G14                                                                                                                                  25647490.149 3                     -1384.004 3        22.750
G15  23768326.516 5                     -2079.694 5        34.250    23768331.810 4                     -1620.550 4        27.344    23768332.908 5  97327281.63605     -1619.768 5        34.906
G17  22895769.162 7 120318086.62107      -220.887 7        43.938    22895770.398 6  93754353.82706      -172.111 6        41.938    22895770.985 6  93754351.83106      -173.011 6        41.906
G19  21522271.953 7 113100308.86707      1955.721 7        46.438    21522270.763 6  88130111.06106      1523.930 6        39.500
G22  24065362.990 7 126464337.08807     -1370.990 7        42.250    24065364.687 4  98543648.60104     -1068.286 4        25.563
G24  20308840.768 7 106723667.88807      1011.221 7        42.656    20308842.841 8  83161301.43608       787.967 8        51.719    20308843.210 7  83161301.43307       787.592 7        44.344
G32  24124358.488 6 126774359.64406      4754.830 6        39.219    24124359.595 3  98785214.22103      3705.051 3        23.250    24124361.447 6  98785228.14206      3705.644 6        37.969
> 2024 02 29 08 39 42.0000000  0 11
G02  26021029.776 4                      -151.731 4        29.156
G10  24056677.015 6 126418701.65206       203.606 6        40.438    24056670.906 3  98508025.55103       158.634 3        19.281    24056680.709 6  98508086.60206       157.025 6        38.875
G12  21688935.202 6                      4550.566 6        39.188    21688937.375 6                      3546.788 6        38.719    21688937.198 6  88812591.19206      3545.948 6        39.813
G13  25349295.934 5                     -2199.885 5        31.094
G15  23768722.318 6                     -2078.495 6        38.813    23768727.298 4                     -1619.615 4        27.563    23768728.572 6  97328901.11106     -1619.492 6        40.156
G17  22895811.237 6 120318308.68206      -222.789 6        40.469    22895812.668 6  93754526.86206      -173.623 6        40.969    22895813.059 6  93754524.85406      -173.039 6        38.313
G19  21521900.204 7 113098354.69807      1952.127 7        46.063    21521898.849 6  88128588.32806      1521.154 6        39.219
G22  24065624.191 7 126465709.78307     -1372.501 7        43.625    24065625.879 4  98544718.22004     -1069.500 4        25.594
G23  24975913.948 4                     -1329.531 4        26.313                                                                    24975916.373 4                     -1037.521 4        27.375
G24  20308648.665 6 106722658.23106      1007.846 6        41.750    20308650.713 8  83160514.68908       785.305 8        49.813    20308651.222 7  83160514.64907       785.487 7        42.219
G32  24123453.673 7 126769605.02507      4753.258 7        42.094    24123454.865 3  98781509.32903      3703.836 3        23.781    24123456.365 6  98781523.31706      3706.373 6        38.281
> 2024 02 29 08 39 43.0000000  0 11
G02  26021058.806 4                      -152.671 4        29.156
G10  24056638.308 6 126418499.11006       201.669 6        39.063    24056633.040 3  98507867.73703       157.143 3        19.594    24056642.030 6  98507928.73406       156.070 6        40.188
G12  21688069.058 7 113971589.33807      4551.740 7        42.531    21688071.127 6  88809025.21116      3546.786 6        38.281    21688070.580 7  88809044.28707      3545.526 7        42.469
G13  25349714.509 4                     -2200.786 4        27.688
G15  23769117.520 5                     -2080.833 5        34.344                                                                    23769123.971 5  97330520.68305     -1614.305 5        32.063
G17  22895853.936 6 120318531.19406      -223.411 6        41.844    22895854.988 6  93754700.23806      -174.070 6        39.938    22895855.327 6  93754698.22306      -173.535 6        38.563
G19  21521528.328 7 113096401.06407      1952.670 7        45.844    21521527.047 6  88127066.01906      1521.575 6        39.031
G22  24065885.277 7 126467082.32307     -1371.083 7        42.125    24065887.049 4  98545787.72504     -1068.355 4        25.500
G23  24976167.762 4                     -1328.944 4        27.313                                                                    24976169.172 4                     -1037.576 4        27.188
G24  20308456.445 6 106721648.67806      1008.494 6        40.156    20308458.559 7  83159728.02607       785.840 7        47.969    20308459.006 6  83159728.04206       786.124 6        40.438
G32  24122548.887 6 126764850.81206      4754.090 6        40.250    24122550.220 3  98777804.74303      3704.519 3        23.688    24122551.864 6  98777818.80006      3704.529 6        38.125
> 2024 02 29 08 39 44.0000000  0 13
G02  26021087.308 4                      -154.579 4        28.719
G10  24056599.743 6 126418297.25606       202.135 6        39.594    24056595.327 3  98507710.44603       157.504 3        20.375    24056603.710 6  98507771.50306       157.943 6        40.063
G12  21687203.373 7 113967038.64407      4552.688 7        43.625    21687205.149 6  88805479.24406      3547.542 6        38.750    21687204.552 7  88805498.28507      3547.592 7        43.594
G13  25350134.797 4                     -2202.526 4        25.688
G14                                                                                                                                  25648510.761 3                     -1385.827 3        20.750
G15  23769513.760 6                     -2077.554 6        37.688    23769519.853 4                     -1618.781 4        27.844    23769520.032 6  97332141.38506     -1619.307 6        40.719
G17  22895896.122 7 120318753.49407      -222.673 7        45.000    22895897.276 6  93754873.46106      -173.514 6        40.188    22895897.634 7  93754871.41207      -172.442 7        42.750
G19  21521156.677 7 113094447.85407      1954.671 7        46.781    21521155.366 6  88125544.04106      1523.108 6        39.094
G22  24066146.304 6 126468454.50706     -1372.703 6        38.438    24066148.093 3  98546856.95103     -1069.608 3        23.906
G23  24976421.432 4                     -1332.017 4        25.750                                                                    24976422.825 4                     -1039.472 4        26.813
G24  20308264.490 7 106720640.39407      1010.752 7        42.125    20308266.740 7  83158942.34807       787.614 7        46.469    20308267.242 7  83158942.30407       788.077 7        42.375
G25  23964298.052 6 125933235.86216      5579.123 6        36.938
G32  24121644.204 6 126760096.73306      4755.334 6        39.344    24121645.504 3  98774100.28803      3705.434 3        23.250    24121647.102 6  98774114.25406      3705.221 6        37.531
> 2024 02 29 08 39 45.0000000  0 13
G02  26021116.177 4                      -154.585 4        27.781
G10  24056561.318 6 126418095.67306       201.283 6        39.406    24056557.617 3  98507553.37103       156.832 3        20.563    24056565.257 6  98507614.27306       157.931 6        37.375
G12  21686337.564 7 113962488.72407      4548.911 7        44.406    21686339.228 6  88801933.84906      3544.616 6        40.250    21686338.382 7  88801952.84107      3544.728 7        43.406
G13  25350555.769 4                     -2201.431 4        27.844
G14                                                                                                                                  25648850.533 3                     -1384.534 3        23.156
G15  23769910.830 6                     -2081.466 6        36.719    23769915.828 4                     -1621.889 4        28.594    23769916.039 6  97333762.41906     -1620.256 6        36.781
G17  22895938.517 7 120318975.85107      -223.615 7        44.313    22895939.595 6  93755046.72306      -174.245 6        40.938    22895940.234 7  93755044.69907      -174.120 7        43.094
G19  21520784.990 7 113092495.30807      1951.317 7        46.656    21520783.797 6  88124022.56806      1520.513 6        39.125
G22  24066407.314 6 126469826.00406     -1370.755 6        39.438    24066409.003 3  98547925.66803     -1068.114 3        23.063
G23  24976674.334 4                     -1334.813 4        27.875                                                                    24976677.099 5                     -1040.490 5        30.469
G24  20308072.729 7 106719632.79207      1006.621 7        43.781    20308074.996 7  83158157.20707       784.374 7        45.313    20308075.368 7  83158157.21507       784.008 7        44.063
G25  23963236.757 5 125927658.13605      5576.455 5        35.563
G32  24120739.471 6 126755342.41506      4753.774 6        37.531    24120740.881 3  98770395.63003      3704.243 3        22.656    24120742.559 6  98770409.71206      3703.587 6        37.188
> 2024 02 29 08 39 46.0000000  0 13
G02  26021144.563 4                      -153.939 4        26.406
G10  24056522.902 6 126417894.82606       198.908 6        39.844    24056519.913 3  98507396.88403       155.002 3        20.688    24056526.752 6  98507457.86406       155.743 6        39.469
G12  21685471.891 7 113957939.36107      4547.123 7        44.938    21685473.379 6  88798388.87806      3543.205 6        41.250    21685472.569 7  88798407.88007      3543.092 7        44.438
G13  25350975.283 4                     -2202.402 4        27.469
G14                                                                                                                                  25649190.130 3                     -1384.877 3        20.281
G15  23770306.399 6                     -2081.781 6        38.188    23770311.773 4                     -1622.186 4        29.344    23770311.590 6  97335384.15106     -1622.721 6        37.844
G17  22895980.810 7 120319197.72907      -221.958 7        43.781    22895981.816 6  93755219.61206      -172.967 6        41.000    22895982.725 7  93755217.57207      -172.401 7        42.938
G19  21520413.370 7 113090542.70407      1951.355 7        47.219    21520412.191 6  88122501.04806      1520.551 6        38.938
G22  24066668.211 6 126471197.04306     -1370.335 6        41.094    24066669.784 3  98548994.02003     -1067.746 3        23.719
G23  24976928.514 4                     -1333.339 4        25.188                                                                    24976932.652 4                     -1041.263 4        29.938
G24  20307880.928 7 106718625.25707      1005.006 7        47.656    20307883.235 7  83157372.12407       783.107 7        46.000    20307883.624 7  83157372.14007       782.913 7        47.188
G25  23962175.646 5 125922081.15005      5574.977 5        34.250
G32  24119834.328 6 126750588.14906      4753.107 6        36.094    24119836.165 3  98766691.02603      3703.683 3        21.438    24119837.760 5  98766705.15905      3702.951 5        34.219
> 2024 02 29 08 39 47.0000000  0 12
G02  26021172.976 4                      -153.424 4        25.375
G10  24056484.666 6 126417694.18406       201.468 6        38.469    24056482.177 3  98507240.54203       156.981 3        21.094    24056488.552 6  98507301.55306       157.020 6        40.094
G12  21684606.174 7 113953390.40207      4549.907 7        45.438    21684607.637 7  88794844.23207      3545.382 7        42.219    21684606.891 7  88794863.18207      3545.500 7        44.563
G13  25351394.234 4                     -2203.002 4        24.938
G15  23770702.725 6                     -2081.166 6        39.281    23770707.820 5                     -1621.666 5        30.156    23770707.292 6  97337006.10506     -1622.163 6        38.531
G17  22896023.024 7 120319419.54007      -221.528 7        42.844    22896024.055 6  93755392.45406      -172.627 6        41.219    22896024.961 6  93755390.42306      -172.568 6        41.250
G19  21520041.920 7 113088590.38407      1952.694 7        46.094    21520040.671 6  88120979.76506      1521.584 6        38.906
G22  24066928.699 6 126472567.42006     -1369.109 6        40.406    24066930.573 4  98550061.84104     -1066.835 4        24.031
G23  24977182.963 4                     -1334.179 4        25.875                                                                    24977187.906 4                     -1040.172 4        27.406
G24  20307689.376 8 106717618.21108      1007.992 8        48.938    20307691.591 7  83156587.41307       785.436 7        47.719    20307691.995 8  83156587.40908       785.469 8        48.281
G25  23961114.248 5 125916504.37005      5577.286 5        31.125
G32  24118929.023 5 126745833.76505      4755.012 5        33.156    24118931.448 3  98762986.36403      3705.131 3        20.063    24118933.603 5  98763000.16905      3707.274 5        33.938
> 2024 02 29 08 39 48.0000000  0 12
G02  26021201.147 4                      -155.393 4        26.750
G10  24056446.430 6 126417494.50406       199.848 6        38.625    24056444.660 3  98507084.93603       155.741 3        21.531    24056450.703 6  98507145.93906       156.198 6        40.406
G12  21683740.663 7 113948842.27907      4548.292 7        45.875    21683742.065 7  88791300.24307      3544.125 7        42.906    21683741.366 7  88791319.22207      3544.900 7        44.813
G13  25351812.434 4                     -2203.588 4        26.125
G15  23771099.114 5                     -2082.211 5        33.875    23771103.965 4                     -1622.507 4        29.094    23771103.596 5  97338628.33805     -1623.430 5        34.344
G17  22896065.124 7 120319641.49407      -221.596 7        42.750    22896066.299 6  93755565.39606      -172.685 6        40.781    22896067.199 6  93755563.25606      -171.434 6        41.000
G19  21519670.539 7 113086638.66107      1953.079 7        46.031    21519669.254 6  88119458.94706      1521.880 6        38.781
G22  24067189.124 6 126473937.81306     -1369.273 6        40.000    24067191.309 3  98551129.68003     -1066.944 3        23.875
G23  24977437.957 4                     -1335.035 4        24.656                                                                    24977441.818 4                     -1042.531 4        27.938
G24  20307497.924 8 106716611.84708      1008.199 8        48.875    20307500.102 8  83155803.23008       785.613 8        49.156    20307500.366 8  83155803.24208       785.553 8        48.219
G25  23960053.009 4 125910928.43504      5574.752 4        29.125                                                                    23960058.589 5  98112425.60715      4344.637 5        31.594
G32  24118024.688 5 126741079.87805      4752.570 5        30.250    24118026.830 3  98759282.05303      3703.262 3        18.250    24118028.945 5  98759295.97105      3704.818 5        31.781
> 2024 02 29 08 39 49.0000000  0 12
G02  26021229.399 4                      -154.710 4        25.844
G10  24056408.747 6 126417295.82006       198.477 6        40.406    24056407.304 3  98506930.09803       154.697 3        21.938    24056412.725 6  98506991.15206       154.247 6        39.031
G12  21682875.380 7 113944294.96607      4546.606 7        45.500    21682876.654 7  88787756.88007      3542.797 7        43.563    21682875.979 7  88787775.89707      3542.936 7        45.063
G13  25352230.588 5                     -2204.254 5        33.281
G15  23771495.368 5 124920051.51505     -2083.495 5        34.250    23771500.147 4  97340319.98314     -1623.492 4        28.094    23771499.488 5  97340250.96405     -1622.329 5        35.188
G17  22896107.203 7 120319863.47707      -222.546 7        42.781    22896108.556 6  93755738.36406      -173.407 6        40.594    22896109.430 7  93755736.36507      -172.959 7        42.000
G19  21519299.130 7 113084687.36607      1950.181 7        46.219    21519297.926 6  88117938.45906      1519.611 6        38.813
G22  24067449.916 6 126475307.54506     -1369.798 6        39.250    24067451.956 3  98552196.97503     -1067.343 3        23.656
G23  24977693.958 4                     -1337.405 4        24.781                                                                    24977696.772 4                     -1041.630 4        26.375
G24  20307306.439 8 106715606.31108      1004.517 8        49.000    20307308.753 8  83155019.69608       782.764 8        50.250    20307309.084 8  83155019.68908       782.722 8        48.438
G25  23958991.497 4                      5573.054 4        27.656                                                                    23958998.318 5  98108081.31605      4344.264 5        30.406
G32  24117120.448 4                      4743.992 4        28.594                                                                    24117124.619 5  98755592.10205      3704.942 5        31.063
> 2024 02 29 08 39 50.0000000  0 12
G02  26021256.935 4                      -153.597 4        24.625
G10  24056371.081 6 126417097.30506       197.235 6        38.188    24056369.930 3  98506775.41303       153.697 3        21.719    24056375.142 6  98506836.47506       153.360 6        38.188
G12  21682010.032 7 113939747.59707      4545.364 7        44.719    21682011.225 7  88784213.47607      3541.836 7        43.938    21682010.561 7  88784232.51307      3541.976 7        45.031
G13  25352649.472 5                     -2204.944 5        31.563
G15  23771891.604 5 124922133.59605     -2082.247 5        34.719    23771896.364 4  97341942.41504     -1622.509 4        27.719    23771895.761 6  97341873.45806     -1623.291 6        36.656
G17  22896149.649 6 120320087.03106      -225.899 6        39.406    22896151.099 6  93755912.56806      -176.024 6        39.750    22896151.951 6  93755910.49106      -174.693 6        36.875
G19  21518927.995 7 113082737.45507      1947.140 7        46.438    21518926.839 6  88116419.05306      1517.239 6        38.750
G22  24067710.707 6 126476678.65806     -1373.497 6        39.563    24067712.862 4  98553265.36204     -1070.263 4        24.000
G23  24977949.676 3                     -1334.681 3        22.906                                                                    24977951.731 4                     -1039.611 4        28.688
G24  20307115.182 8 106714601.27508      1002.406 8        49.000    20307117.474 8  83154236.55108       781.100 8        50.844    20307117.681 8  83154236.53808       781.188 8        48.594
G25  23957933.798 4                      5573.622 4        25.594                                                                    23957937.229 4  98103736.48604      4341.054 4        28.313
G32  24116216.259 4                      4748.924 4        29.375                                                                    24116219.069 5  98751888.70605      3701.499 5        33.094
> 2024 02 29 08 39 51.0000000  0 12
G02  26021284.498 4                      -158.050 4        24.906
G10  24056333.136 6 126416898.67306       198.822 6        37.750    24056332.480 3  98506620.65103       154.901 3        21.594    24056337.465 6  98506681.63906       155.147 6        39.438
G12  21681144.525 7 113935199.57807      4549.789 7        44.656    21681145.698 7  88780669.56507      3545.287 7        44.000    21681145.336 7  88780688.57107      3545.174 7        45.125
G13  25353067.833 4                     -2203.809 4        29.438
G15  23772287.692 6 124924214.93606     -2080.088 6        37.813    23772292.375 4  97343564.23304     -1620.823 4        27.844    23772291.766 6  97343495.15606     -1620.416 6        39.219
G17  22896192.597 7 120320312.17507      -225.764 7        44.063    22896193.990 6  93756087.98706      -175.907 6        39.563    22896194.548 6  93756085.91906      -175.215 6        41.750
G19  21518557.285 7 113080788.88207      1948.717 7        46.500    21518556.039 6  88114900.68006      1518.481 6        39.125
G22  24067971.685 6 126478050.91806     -1374.495 6        38.438    24067974.004 3  98554334.66503     -1071.042 3        22.781
G23  24978204.912 4                     -1333.231 4        24.156                                                                    24978203.738 4                     -1038.802 4        24.719
G24  20306923.974 8 106713596.63008      1006.106 8        48.844    20306926.304 8  83153453.70508       783.967 8        51.344    20306926.579 8  83153453.70908       784.301 8        48.406
G25  23956873.084 4                      5575.200 4        26.000
G32  24115312.218 6                      4752.432 6        36.000                                                                    24115314.468 5  98748185.24905      3703.853 5        32.156
> 2024 02 29 08 39 52.0000000  0 12
G02  26021312.562 3                      -158.180 3        22.750
G10  24056295.809 6 126416700.45206       199.875 6        36.875    24056295.249 3  98506466.20803       155.782 3        22.031    24056299.826 6  98506527.28806       154.552 6        41.969
G12  21680278.940 7 113930651.66507      4549.377 7        44.719    21680280.219 7  88777125.73707      3544.979 7        44.281    21680280.054 7  88777144.75607      3544.750 7        45.156
G13  25353486.569 5                     -2203.542 5        30.563
G15  23772683.722 6 124926295.49306     -2078.486 6        38.719    23772688.270 4  97345185.42704     -1619.578 4        29.500    23772687.799 6  97345116.46606     -1620.207 6        40.000
G17  22896235.788 7 120320538.54607      -227.051 7        44.063    22896237.066 6  93756264.37406      -176.923 6        40.125    22896237.628 7  93756262.35207      -176.936 7        42.469
G19  21518186.736 7 113078841.47807      1947.434 7        46.688    21518185.484 6  88113383.22406      1517.492 6        38.938
G22  24068232.885 6 126479423.97906     -1373.578 6        40.625    24068235.384 3  98555404.56703     -1070.296 3        23.938
G23                                                                                                                                  24978457.033 4                     -1039.092 4        24.594
G24  20306732.967 8 106712592.71108      1005.254 8        48.875    20306735.285 8  83152671.42608       783.313 8        51.688    20306735.510 8  83152671.40408       783.549 8        48.375
G25  23955812.406 3                      5573.826 3        23.688                                                                    23955815.892 4  98095046.47304      4348.701 4        27.406
G32  24114406.544 6                      4752.131 6        40.906    24114408.800 3                      3703.023 3        20.500    24114410.331 6  98744482.54306      3703.127 6        38.906
> 2024 02 29 08 39 53.0000000  0 12
G02  26021343.483 3                      -159.104 3        22.188
G10  24056257.964 5 126416503.04205       196.467 5        35.250    24056258.108 3  98506312.36603       153.095 3        21.406    24056262.298 6  98506373.35406       153.779 6        40.438
G12  21679413.603 7 113926104.10707      4544.830 7        44.406    21679414.768 7  88773582.18907      3541.444 7        44.219    21679414.798 7  88773601.15607      3541.873 7        44.938
G13  25353905.846 4                     -2202.566 4        27.156
G15  23773079.587 6 124928376.19306     -2082.317 6        39.594    23773084.121 5  97346806.73705     -1622.576 5        30.781    23773083.915 6  97346737.74906     -1622.548 6        39.781
G17  22896279.128 7 120320765.49007      -228.547 7        44.281    22896280.239 6  93756441.20806      -178.085 6        40.406    22896280.896 7  93756439.21507      -178.102 7        42.750
G19  21517816.320 7 113076894.80107      1944.318 7        46.656    21517815.042 6  88111866.32606      1515.053 6        38.875
G22  24068494.215 6 126480797.22006     -1373.994 6        41.969    24068496.697 4  98556474.62404     -1070.649 4        24.531
G23                                                                                                                                  24978711.240 4                     -1038.298 4        26.313
G24  20306541.942 8 106711589.33608      1000.234 8        48.813    20306544.329 8  83151889.57608       779.423 8        51.875    20306544.545 8  83151889.60708       779.289 8        48.469
G25  23954753.924 4                      5572.406 4        24.438                                                                    23954753.676 4  98090700.70704      4344.971 4        26.000
G32  24113501.756 6                      4749.508 6        40.219    24113504.620 3                      3700.906 3        21.781    24113506.034 6  98740780.32406      3701.037 6        39.656
> 2024 02 29 08 39 54.0000000  0 12
G02  26021374.342 3                      -160.291 3        19.813
G10  24056220.478 6 126416305.91706       196.637 6        36.094    24056221.007 3  98506158.78003       153.217 3        21.063    24056224.911 6  98506219.86606       152.692 6        40.844
G12  21678548.446 7 113921557.10307      4546.550 7        44.031    21678549.420 7  88770039.06607      3542.758 7        44.063    21678549.448 7  88770058.05507      3542.662 7        44.656
G13  25354322.843 3                     -2201.980 3        22.531
G15  23773475.716 6 124930457.54206     -2080.984 6        39.844    23773480.154 5  97348428.55405     -1621.524 5        32.094    23773479.693 6  97348359.58206     -1621.466 6        40.406
G17  22896322.183 7 120320992.17507      -227.713 7        44.031    22896323.386 6  93756617.85006      -177.431 6        40.969    22896323.927 7  93756615.84407      -177.772 7        42.969
G19  21517445.904 7 113074948.30607      1945.727 7        46.969    21517444.617 6  88110349.57506      1516.140 6        38.906
G22  24068755.518 7 126482169.87707     -1372.976 7        42.000    24068757.902 4  98557544.22404     -1069.858 4        25.344
G23                                                                                                                                  24978965.886 4                     -1036.312 4        29.031
G24  20306351.095 8 106710586.29208      1002.243 8        48.813    20306353.435 8  83151107.98508       780.976 8        51.969    20306353.714 8  83151107.99608       780.940 8        48.375
G25  23953693.479 3                      5573.706 3        22.719
G32  24112597.424 6                      4749.582 6        40.844    24112600.417 3                      3701.002 3        22.188    24112602.023 6  98737078.01206      3701.333 6        39.531
> 2024 02 29 08 39 55.0000000  0 12
G02  26021404.829 3                      -160.654 3        21.094
G10  24056183.082 5 126416109.44305       199.012 5        33.906    24056183.973 3  98506005.71803       155.053 3        20.563    24056187.608 6  98506066.79006       153.921 6        38.813
G12  21677683.026 7 113917009.94507      4549.510 7        44.563    21677684.085 7  88766495.82007      3545.060 7        43.906    21677684.169 7  88766514.86407      3544.833 7        44.406
G13  25354742.200 3                     -2199.152 3        22.125
G15  23773871.638 6 124932538.22806     -2079.771 6        39.750    23773876.027 5  97350049.85405     -1620.594 5        33.125    23773876.002 6  97349980.81906     -1619.975 6        40.469
G17  22896365.724 6 120321220.26406      -226.945 6        41.063    22896366.845 6  93756795.56906      -176.824 6        41.219    22896367.401 6  93756793.58206      -176.185 6        41.344
G19  21517075.748 7 113073002.97107      1946.806 7        47.219    21517074.443 6  88108833.72706      1516.997 6        38.906
G22  24069017.010 7 126483543.50607     -1372.488 7        42.313    24069019.322 4  98558614.57904     -1069.475 4        25.719
G23                                                                                                                                  24979217.083 3                     -1038.593 3        22.344
G24  20306160.352 8 106709583.78608      1005.010 8        48.875    20306162.689 8  83150326.81008       783.115 8        52.156    20306162.978 8  83150326.81208       783.229 8        48.500
G25  23952629.876 4                      5575.985 4        24.313
G32  24111696.401 6 126707817.21816      4752.004 6        39.938    24111696.452 3  98733367.23213      3702.863 3        22.469    24111697.854 6  98733376.21306      3703.151 6        38.406
> 2024 02 29 08 39 56.0000000  0 12
G02  26021436.837 3                      -159.056 3        23.781
G10  24056145.331 6 126415913.42506       194.445 6        36.844    24056146.948 3  98505852.99003       151.519 3        19.656    24056150.116 5  98505913.98405       152.301 5        35.531
G12  21676817.834 7 113912462.83407      4546.311 7        44.531    21676818.763 7  88762952.61607      3542.588 7        43.750    21676818.889 7  88762971.66007      3542.561 7        44.531
G13  25355162.390 3                     -2198.842 3        19.844
G15  23774267.396 6 124934618.31906     -2080.309 6        39.844    23774271.837 5  97351670.69905     -1621.011 5        33.125    23774271.925 6  97351601.76106     -1622.066 6        40.031
G17  22896409.318 6 120321449.19306      -229.100 6        40.000    22896410.399 6  93756973.95006      -178.507 6        40.188    22896410.836 6  93756971.92406      -178.810 6        40.313
G19  21516705.735 7 113071058.34807      1944.214 7        46.688    21516704.394 6  88107318.43306      1514.976 6        38.938
G22  24069278.533 6 126484917.40806     -1374.099 6        39.031    24069280.764 4  98559685.13804     -1070.704 4        25.594
G23                                                                                                                                  24979468.093 4                     -1037.040 4        25.844
G24  20305969.672 8 106708581.69708      1001.193 8        48.813    20305972.019 8  83149545.95308       780.145 8        52.031    20305972.350 8  83149545.94808       780.331 8        48.500
G25  23951570.764 3                      5576.495 3        23.000                                                                    23951570.756 3                      4344.052 3        22.813
G32  24110792.088 6 126703067.29106      4748.997 6        39.250    24110792.572 3  98729665.99503      3700.498 3        22.438    24110794.290 6  98729674.86806      3701.692 6        39.719
> 2024 02 29 08 39 57.0000000  0 12
G02  26021467.244 4                      -157.668 4        24.000
G10  24056107.828 6 126415717.42106       195.944 6        38.438    24056109.798 3  98505700.23903       152.762 3        19.031    24056112.570 5  98505761.14305       152.256 5        35.031
G12  21675952.525 7 113907915.49607      4544.958 7        44.563    21675953.352 7  88759409.24207      3541.538 7        43.813    21675953.598 7  88759428.24307      3541.392 7        44.125
G13  25355582.195 3                     -2199.098 3        22.500
G15  23774663.143 6 124936697.87106     -2080.934 6        39.531    23774667.527 5  97353291.11505     -1621.500 5        33.781    23774667.719 6  97353222.12806     -1621.219 6        41.281
G17  22896452.606 6 120321677.87706      -230.199 6        40.563    22896453.908 6  93757152.14406      -179.397 6        38.844    22896454.477 6  93757150.14506      -179.722 6        40.094
G19  21516335.704 7 113069113.98907      1941.628 7        47.906    21516334.353 6  88105803.34906      1512.976 6        39.094
G22  24069539.865 6                     -1375.214 6        37.625    24069542.046 4                     -1071.628 4        24.500
G23                                                                                                                                  24979723.146 4                     -1038.521 4        25.563
G24  20305779.026 8 106707579.55608       998.936 8        48.844    20305781.296 8  83148765.05908       778.409 8        52.219    20305781.625 8  83148765.08108       778.278 8        48.844
G25  23950507.908 3                      5577.749 3        22.000                                                                    23950510.275 4                      4344.432 4        27.219
G32  24109887.955 6 126698317.02406      4749.825 6        41.344    24109888.696 3  98725964.48803      3701.162 3        23.500    24109890.540 6  98725973.51806      3700.334 6        38.844
> 2024 02 29 08 39 58.0000000  0 11
G02  26021497.938 3                      -159.539 3        22.125
G10  24056070.741 6 126415522.13406       194.187 6        38.406    24056072.719 3  98505548.02303       151.299 3        18.750    24056074.746 5  98505608.82105       152.283 5        34.438
G12  21675087.370 7 113903368.90507      4546.581 7        44.781    21675088.107 7  88755866.44407      3542.787 7        43.625    21675088.349 7  88755885.44107      3542.431 7        43.906
G15  23775059.154 6 124938778.19406     -2079.230 6        37.469    23775063.337 5  97354912.14605     -1620.180 5        34.438    23775063.515 6  97354843.28906     -1620.665 6        37.750
G17  22896496.245 7 120321907.57107      -230.661 7        44.094    22896497.623 6  93757331.11806      -179.745 6        40.031    22896498.241 7  93757329.14507      -179.385 7        42.688
G19  21515965.949 7 113067170.64807      1942.782 7        47.250    21515964.532 6  88104289.04906      1513.840 6        39.250
G22  24069801.193 6                     -1374.721 6        41.094    24069803.479 4                     -1071.203 4        24.313
G23  24979998.726 3                     -1332.604 3        23.656                                                                    24979977.952 4                     -1036.767 4        29.969
G24  20305588.459 8 106706578.35408      1001.102 8        48.844    20305590.764 8  83147984.89908       780.091 8        52.250    20305591.128 8  83147984.89108       780.076 8        48.719
G25  23949444.990 4                      5575.055 4        26.063                                                                    23949447.335 4                      4345.850 4        26.781
G32  24108984.423 5 126693567.49405      4749.642 5        34.844    24108984.999 3  98722263.56003      3701.020 3        22.281    24108986.595 5  98722272.57405      3699.941 5        34.906
> 2024 02 29 08 39 59.0000000  0 12
G02  26021526.261 3                      -159.489 3        20.188
G10  24056033.938 6 126415327.34906       194.670 6        37.563    24056035.788 3  98505396.20203       151.741 3        18.469    24056037.856 5  98505457.07805       151.918 5        35.531
G12  21674222.290 7 113898822.88007      4547.522 7        44.219    21674222.986 7  88752324.08507      3543.514 7        43.531    21674223.226 7  88752343.08407      3543.823 7        42.938
G13  25356424.385 3                     -2201.877 3        23.750
G15  23775455.952 4                     -2083.654 4        27.469                                                                    23775459.555 5  97356465.06405     -1619.963 5        30.000
G17  22896540.100 7 120322137.87407      -229.471 7        44.281    22896541.462 6  93757510.57406      -178.799 6        40.656    22896542.069 7  93757508.56907      -178.949 7        42.875
G19  21515596.408 7 113065228.23807      1943.351 7        47.219    21515594.921 6  88102775.47306      1514.291 6        39.375
G22  24070062.703 7                     -1374.200 7        42.219    24070065.007 4                     -1070.819 4        25.188
G23  24980254.708 4                     -1336.350 4        27.281
G24  20305398.075 8 106705577.98508      1002.351 8        48.563    20305400.430 8  83147205.38708       781.050 8        52.438    20305400.791 8  83147205.41108       781.013 8        48.344
G25  23948381.415 3                      5572.108 3        21.500                                                                    23948386.509 4                      4345.330 4        26.969
G32  24108080.512 5 126688817.83605      4750.075 5        35.406    24108081.253 3  98718562.52403      3701.384 3        20.875    24108083.075 5  98718571.61505      3699.961 5        34.156
> 2024 02 29 08 40  0.0000000  0 12
G02  26021557.562 3                      -159.112 3        20.063
G10  24055997.177 6 126415133.40406       193.386 6        41.031    24055998.969 3  98505245.06003       150.723 3        18.750    24056001.131 5  98505306.04005       150.333 5        35.500
G12  21673357.388 7 113894277.80207      4544.037 7        44.281    21673358.036 7  88748782.46707      3540.813 7        43.156    21673358.433 7  88748801.42707      3541.229 7        43.188
G14  25653886.951 3                     -1780.540 3        18.875
G15  23775853.194 4                     -2079.326 4        25.719                                                                    23775856.069 4  97358086.83604     -1625.251 4        29.594
G17  22896584.050 7 120322368.82707      -233.286 7        44.875    22896585.409 6  93757690.54306      -181.786 6        41.000    22896586.088 7  93757688.51907      -181.521 7        43.625
G19  21515226.926 7 113063286.83507      1939.243 7        47.406    21515225.489 6  88101262.69506      1511.102 6        39.625
G22  24070324.248 6                     -1376.720 6        41.438    24070326.574 4                     -1072.771 4        25.594
G23  24980508.339 4                     -1331.631 4        28.813                                                                    24980492.100 5 102290934.44615     -1036.651 5        34.438
G24  20305207.966 8 106704578.66808       997.465 8        48.406    20305210.283 8  83146426.69508       777.238 8        52.375    20305210.671 8  83146426.68608       777.462 8        48.563
G25                                                                                                                                  23947324.262 4                      4344.669 4        26.688
G32  24107176.540 6 126684069.32106      4748.123 6        41.344    24107177.833 3  98714862.36803      3699.809 3        21.188    24107179.129 6  98714871.41706      3699.356 6        37.594
> 2024 02 29 08 40  1.0000000  0 11
G02  26021587.790 3                      -164.361 3        20.469
G10  24055960.449 6 126414939.64806       190.998 6        39.844    24055962.194 3  98505094.04803       148.838 3        20.375    24055964.168 6  98505155.04706       149.197 6        40.125
G12  21672492.389 7 113889732.15507      4543.214 7        45.625    21672492.938 7  88745240.40507      3540.167 7        43.344    21672493.390 7  88745259.40407      3540.420 7        44.438
G15  23776249.348 4                     -2081.848 4        28.438                                                                    23776252.224 5  97359707.69005     -1621.701 5        30.094
G17  22896628.006 7 120322600.50807      -231.738 7        44.719    22896629.477 6  93757871.06806      -180.571 6        41.719    22896630.262 7  93757869.01907      -180.940 7        43.125
G19  21514857.629 7 113061346.06107      1939.570 7        46.344    21514856.147 6  88099750.40706      1511.363 6        39.656
G22  24070585.878 6 126491787.68706     -1374.490 6        41.406    24070588.289 4  98565034.34514     -1071.019 4        25.719
G23  24980759.210 4                     -1329.242 4        29.688                                                                    24980747.760 5 102291970.49305     -1037.176 5        34.031
G24  20305017.831 8 106703579.37908       997.409 8        49.000    20305020.091 8  83145648.02308       777.209 8        52.500    20305020.452 8  83145648.02408       777.042 8        48.281
G25  23946255.306 4                      5577.034 4        24.500                                                                    23946263.137 4                      4346.778 4        28.156
G32  24106272.956 6 126679320.89506      4747.307 6        40.719    24106274.203 3  98711162.29103      3699.208 3        21.656    24106275.069 6  98711171.29506      3698.699 6        39.313
> 2024 02 29 08 40  2.0000000  0 11
G02  26021618.381 3                      -159.617 3        23.500
G10  24055923.639 6 126414745.98306       193.687 6        39.906    24055925.549 3  98504943.15703       150.926 3        21.000    24055927.718 6  98505004.14406       150.856 6        38.719
G12  21671627.621 7 113885186.57207      4545.782 7        45.281    21671627.894 7  88741698.39807      3542.151 7        43.750    21671628.562 7  88741717.44807      3541.952 7        44.281
G15  23776645.163 4                     -2080.967 4        27.750                                                                    23776648.671 5  97361328.63305     -1620.514 5        30.125
G17  22896672.005 6 120322832.08006      -232.051 6        39.500    22896673.536 6  93758051.49906      -180.809 6        41.375    22896674.322 6  93758049.49506      -180.387 6        37.625
G19  21514488.310 8 113059405.27208      1941.257 8        48.031    21514486.836 6  88098238.10106      1512.663 6        39.438
G22  24070847.582 6 126493162.14806     -1374.242 6        40.094    24070849.866 4  98566105.34204     -1070.820 4        25.688
G23  24981011.110 4                     -1330.437 4        28.344
G24  20304827.692 8 106702580.09708       999.797 8        48.844    20304829.931 8  83144869.36208       779.067 8        52.500    20304830.301 8  83144869.38708       779.114 8        48.219
G25                                                                                                                                  23945201.136 4                      4345.079 4        24.375
G32  24105369.020 7 126674572.33107      4748.915 7        43.156    24105370.595 3  98707462.12503      3700.461 3        23.031    24105371.771 6  98707471.14106      3700.927 6        40.063
> 2024 02 29 08 40  3.0000000  0 11
G02  26021650.263 3                      -161.807 3        19.719
G10  24055887.148 6 126414553.45306       194.135 6        41.906    24055889.083 3  98504793.12003       151.290 3        22.656    24055891.296 6  98504854.08106       151.763 6        40.688
G12  21670762.756 7 113880642.09807      4546.635 7        45.219    21670763.082 7  88738157.25107      3542.805 7        43.938    21670763.702 7  88738176.24207      3542.996 7        44.531
G15  23777041.017 4                     -2080.768 4        27.313                                                                    23777044.887 4  97362950.11604     -1620.167 4        29.031
G17  22896716.348 7 120323064.56107      -230.803 7        42.375    22896717.796 6  93758232.63006      -179.798 6        40.750    22896718.445 6  93758230.67406      -180.301 6        41.500
G19  21514119.317 7 113057465.91407      1942.076 7        43.125    21514117.815 6  88096726.90706      1513.278 6        38.656
G22  24071109.261 6 126494536.95306     -1374.105 6        38.094    24071111.500 4  98567176.61004     -1070.721 4        24.313
G23  24981263.122 4                     -1332.597 4        24.375
G24  20304637.808 8 106701582.08708      1000.640 8        49.000    20304640.035 8  83144091.69708       779.710 8        52.469    20304640.434 8  83144091.71108       779.972 8        48.531
G25  23944129.809 3                      5575.864 3        23.938                                                                    23944139.738 4                      4345.737 4        27.219
G32  24104465.594 7 126669824.60207      4749.449 7        42.563    24104467.216 4  98703762.59904      3700.898 4        24.281    24104468.689 6  98703771.53106      3701.497 6        38.969
> 2024 02 29 08 40  4.0000000  0 11
G02  26021683.885 3                      -163.447 3        21.813
G10  24055850.773 6 126414362.16006       190.437 6        38.281    24055852.832 3  98504644.04703       148.424 3        23.438    24055854.965 6  98504705.15106       148.590 6        40.438
G12  21669897.942 7 113876098.25707      4542.296 7        44.969    21669898.391 7  88734616.60307      3539.461 7        43.969    21669899.098 7  88734635.60207      3539.563 7        44.594
G15  23777436.067 4                     -2081.125 4        27.219                                                                    23777440.100 4  97364571.64104     -1621.563 4        28.844
G17  22896760.724 7 120323298.06807      -233.872 7        43.594    22896762.244 6  93758414.59006      -182.257 6        40.844    22896762.872 7  93758412.56107      -182.210 7        42.781
G19  21513750.192 7 113055527.30607      1937.371 7        44.094    21513748.897 6  88095216.30806      1509.648 6        37.219
G22  24071371.068 6 126495912.26506     -1375.722 6        41.969    24071373.224 4  98568248.29204     -1072.001 4        24.438
G23                                                                                                                                  24981513.773 5 102295082.38005     -1037.550 5        32.313
G24  20304447.964 8 106700584.84808       995.674 8        48.938    20304450.277 8  83143314.62808       775.841 8        52.438    20304450.702 8  83143314.63408       775.942 8        48.938
G25  23943068.666 3                      5575.479 3        22.063                                                                    23943077.110 4                      4345.572 4        27.000
G32  24103563.109 5 126665078.40905      4746.010 5        35.313    24103564.064 3  98700064.26503      3698.221 3        23.063    24103566.418 5  98700073.17405      3696.735 5        33.063
> 2024 02 29 08 40  5.0000000  0 11
G02  26021715.178 3                      -162.170 3        18.813
G10  24055814.610 7 126414171.19707       190.096 7        42.094    24055816.603 3  98504495.27003       148.092 3        23.250    24055818.467 5  98504556.16905       147.133 5        35.750
G12  21669032.951 7 113871554.34107      4542.159 7        43.875    21669033.651 7  88731075.89507      3539.360 7        43.906    21669034.491 7  88731094.90807      3539.535 7        44.344
G15  23777833.581 4                     -2080.956 4        27.406                                                                    23777836.775 4  97366193.06404     -1623.093 4        29.188
G17  22896805.249 7 120323531.80407      -235.873 7        44.406    22896806.723 6  93758596.73006      -183.807 6        41.188    22896807.416 7  93758594.77207      -183.707 7        43.438
G19  21513381.444 7 113053589.11007      1935.717 7        46.750    21513380.020 6  88093706.02706      1508.344 6        36.969
G22  24071632.780 6 126497287.46606     -1376.190 6        40.500    24071634.944 4  98569319.85604     -1072.344 4        25.406
G23  24981767.011 4                     -1333.778 4        25.969                                                                    24981769.145 5 102296119.59305     -1037.838 5        30.938
G24  20304258.262 8 106699587.79108       994.388 8        48.750    20304260.524 8  83142537.69708       774.852 8        52.625    20304260.959 8  83142537.70608       774.877 8        48.563
G25  23942007.421 3                      5575.487 3        23.156                                                                    23942017.126 4                      4345.131 4        27.031
G32  24102659.585 6                      4745.842 6        40.281                                                                    24102662.226 6  98696374.63906      3698.050 6        38.156
> 2024 02 29 08 40  6.0000000  0 11
G02  26021746.457 3                      -163.639 3        21.688
G10  24055778.270 6 126413980.02506       190.776 6        40.969    24055780.360 3  98504346.30403       148.577 3        23.250    24055781.858 6  98504407.28706       149.478 6        37.313
G12  21668168.290 7 113867010.51907      4544.191 7        44.156    21668168.942 7  88727535.25407      3540.930 7        43.844    21668169.824 7  88727554.20307      3541.361 7        44.844
G15  23778228.765 4                     -2080.788 4        27.813                                                                    23778231.614 4  97367814.42504     -1621.167 4        29.500
G17  22896849.972 7 120323766.36507      -234.415 7        44.219    22896851.355 6  93758779.49906      -182.664 6        41.688    22896851.937 7  93758777.43407      -182.332 7        43.813
G19  21513012.894 7 113051651.94707      1937.769 7        46.875    21513011.379 6  88092196.54806      1509.934 6        37.938
G22  24071894.596 6 126498663.26906     -1375.654 6        41.656    24071896.802 4  98570391.90904     -1071.931 4        26.000
G23  24982019.072 4                     -1333.038 4        25.656                                                                    24982022.458 4 102297156.60604     -1037.661 4        28.469
G24  20304068.605 8 106698591.23008       997.506 8        48.906    20304070.887 8  83141761.15608       777.280 8        52.656    20304071.327 8  83141761.15908       777.360 8        48.844
G25  23940945.410 3                      5575.493 3        22.906                                                                    23940955.097 4                      4345.821 4        26.438
G32  24101756.632 5                      4747.678 5        35.344                                                                    24101758.765 5  98692676.16905      3696.755 5        34.563
> 2024 02 29 08 40  7.0000000  0 11
G02  26021780.540 3                      -167.931 3        21.500
G10  24055742.179 6 126413789.96006       190.761 6        39.813    24055744.363 3  98504198.21703       148.644 3        22.906    24055745.574 6  98504259.22206       148.624 6        37.094
G12  21667303.917 7 113862467.66607      4544.527 7        44.563    21667304.465 7  88723995.35407      3541.175 7        43.875    21667305.527 7  88724014.35607      3540.997 7        44.625
G15  23778622.751 4                     -2081.144 4        25.000                                                                    23778627.074 4  97369436.41904     -1621.529 4        28.219
G17  22896894.980 7 120324001.45607      -234.273 7        43.063    22896896.174 6  93758962.68506      -182.534 6        41.969    22896896.839 6  93758960.77506      -183.848 6        41.188
G19  21512644.394 7 113049715.79407      1937.379 7        46.594    21512642.962 6  88090687.85406      1509.635 6        38.188
G22  24072156.486 6 126500039.22906     -1375.564 6        41.375    24072158.656 4  98571464.07804     -1071.864 4        26.188
G23  24982270.574 3                     -1334.374 3        23.750                                                                    24982276.782 5 102298197.30505     -1040.235 5        30.219
G24  20303879.258 8 106697595.76208       997.123 8        48.531    20303881.500 8  83140985.47208       776.988 8        52.656    20303881.994 8  83140985.48108       777.031 8        48.625
G25  23939884.057 3                      5575.938 3        22.219                                                                    23939894.764 4                      4344.406 4        28.031
G32  24100853.344 6 126650839.67406      4746.169 6        38.313    24100853.022 2  98688964.15112      3698.264 2        15.188    24100855.515 6  98688978.15206      3698.254 6        36.188
> 2024 02 29 08 40  8.0000000  0 12
G02  26021811.671 3                      -163.998 3        21.063
G06  25383337.854 5                      5059.643 5        34.094
G10  24055705.904 6 126413600.28806       188.856 6        39.469    24055708.327 3  98504050.42103       147.184 3        22.563    24055709.291 6  98504111.44606       146.856 6        37.094
G12  21666439.371 7 113857925.18507      4540.592 7        44.813    21666440.011 7  88720455.75207      3538.140 7        43.938    21666441.022 7  88720474.72907      3538.140 7        44.656
G15  23779017.765 4                     -2081.417 4        26.594                                                                    23779023.144 4  97371058.14704     -1621.345 4        28.188
G17  22896939.734 6 120324235.97506      -236.409 6        40.813    22896940.792 6  93759145.42606      -184.219 6        40.844    22896941.318 6  93759143.39806      -184.299 6        38.688
G19  21512275.761 7 113047779.32907      1934.371 7        47.875    21512274.451 6  88089178.91906      1507.309 6        38.313
G22  24072417.913 6 126501414.24806     -1375.322 6        36.125    24072420.376 4  98572535.52604     -1071.664 4        25.313
G23                                                                                                                                  24982528.051 5 102299234.51105     -1036.740 5        30.344
G24  20303689.834 8 106696600.36908       992.633 8        48.813    20303692.069 8  83140209.83808       773.473 8        52.594    20303692.573 8  83140209.83208       773.519 8        48.156
G25  23938825.575 3                      5576.623 3        23.688                                                                    23938833.992 4                      4344.232 4        26.625
G32  24099950.111 6 126646093.93606      4744.441 6        40.563    24099949.875 3  98685266.16403      3696.967 3        19.031    24099952.544 6  98685280.05706      3697.236 6        38.844
> 2024 02 29 08 40  9.0000000  0 12
G02  26021842.525 3                      -163.293 3        20.656
G06  25382375.217 5                      5058.927 5        31.750
G10  24055669.785 6 126413410.61506       188.647 6        38.188    24055672.272 3  98503902.63403       146.984 3        22.250    24055673.353 6  98503963.63006       146.971 6        38.094
G12  21665574.957 7 113853382.62807      4541.157 7        45.250    21665575.539 7  88716916.09707      3538.573 7        44.063    21665576.663 7  88716935.06107      3539.046 7        44.094
G15  23779415.270 4                     -2081.894 4        24.781                                                                    23779418.341 4  97372680.79504     -1618.341 4        26.813
G17  22896984.325 7 120324471.16207      -235.718 7        45.063    22896985.553 6  93759328.67806      -183.677 6        40.813    22896986.188 6  93759326.64806      -183.317 6        41.781
G19  21511907.476 7 113045843.84507      1934.364 7        42.969    21511906.137 6  88087670.75106      1507.299 6        38.094
G22  24072679.215 7 126502789.28607     -1375.883 7        42.063    24072682.037 4  98573606.97504     -1072.128 4        24.750
G23  24982779.512 3                     -1339.976 3        22.313                                                                    24982779.762 4 102300271.22704     -1038.956 4        28.625
G24  20303500.510 8 106695605.29108       993.953 8        49.000    20303502.682 8  83139434.44608       774.506 8        52.531    20303503.107 8  83139434.44608       774.647 8        48.188
G25  23937766.681 4                      5575.553 4        24.531                                                                    23937774.271 4                      4344.644 4        26.063
G32  24099046.945 6 126641347.95306      4745.031 6        40.344    24099046.943 3  98681567.98903      3697.434 3        19.906    24099049.743 6  98681582.05206      3696.823 6        37.094
> 2024 02 29 08 40 10.0000000  0 12
G02  26021874.882 3                      -165.413 3        21.375
G06  25381413.040 5                      5057.855 5        33.125
G10  24055633.610 6 126413222.02306       188.703 6        38.625    24055636.490 3  98503755.68103       147.060 3        22.031    24055637.525 6  98503816.66306       146.848 6        37.375
G12  21664710.760 7 113848840.82207      4542.583 7        45.094    21664711.250 7  88713377.02707      3539.665 7        43.938    21664712.294 7  88713396.02007      3539.859 7        43.719
G15  23779811.827 4                     -2082.922 4        25.063                                                                    23779814.179 4  97374303.29304     -1621.663 4        27.844
G17  22897029.164 7 120324707.01707      -235.565 7        42.875    22897030.425 6  93759512.45106      -183.583 6        41.406    22897031.194 6  93759510.44706      -182.991 6        40.531
G19  21511539.130 7 113043908.89307      1935.857 7        45.594    21511537.930 6  88086163.02406      1508.383 6        36.594
G22  24072941.200 6 126504164.80806     -1374.695 6        41.938    24072943.828 4  98574678.78904     -1071.207 4        26.156
G23  24983033.804 4                     -1334.997 4        24.406
G24  20303311.353 8 106694611.05408       995.729 8        49.250    20303313.488 8  83138659.71108       775.901 8        52.469    20303313.847 8  83138659.72208       775.953 8        48.563
G25  23936706.352 3                      5570.667 3        21.750                                                                    23936713.406 4                      4344.815 4        28.281
G32  24098144.149 6 126636602.98006      4744.289 6        38.875    24098144.095 3  98677870.61103      3696.827 3        20.281    24098146.737 6  98677884.45706      3697.795 6        37.250
> 2024 02 29 08 40 11.0000000  0 12
G02  26021907.520 3                      -165.238 3        22.125
G06  25380450.228 5                      5059.217 5        33.906
G10  24055597.920 6 126413033.59606       188.811 6        39.750    24055600.766 3  98503608.84103       147.138 3        21.938    24055601.533 6  98503669.81606       146.965 6        36.563
G12  21663846.683 7 113844298.93207      4542.414 7        45.594    21663846.948 7  88709837.89207      3539.526 7        43.969    21663848.029 7  88709856.93407      3539.296 7        44.438
G15  23780209.354 4                     -2081.586 4        25.969                                                                    23780209.953 4  97375925.06504     -1621.193 4        28.156
G17  22897074.255 7 120324943.77607      -238.108 7        43.031    22897075.464 6  93759696.94806      -185.548 6        40.375    22897076.452 6  93759694.87406      -185.578 6        41.469
G19  21511171.146 7 113041974.92307      1933.615 7        46.906    21511169.916 6  88084656.01706      1506.720 6        36.813
G22  24073203.351 6 126505540.60406     -1376.407 6        38.906    24073205.669 4  98575750.85504     -1072.578 4        25.625
G23  24983289.210 3                     -1333.537 3        23.500
G24  20303122.267 8 106693617.28508       993.531 8        49.094    20303124.401 8  83137885.35008       774.191 8        52.625    20303124.745 8  83137885.33808       774.485 8        48.719
G25  23935644.758 4                      5574.839 4        24.531                                                                    23935653.452 4                      4345.887 4        27.219
G32  24097241.149 6 126631858.19806      4744.346 6        40.125    24097241.177 3  98674173.37703      3696.887 3        21.219    24097243.652 6  98674187.33706      3697.234 6        38.500
> 2024 02 29 08 40 12.0000000  0 12
G02  26021939.765 4                      -167.839 4        24.813
G06  25379487.219 5                      5058.782 5        33.469
G10  24055562.238 6 126412846.74606       185.435 6        38.656    24055565.271 3  98503463.19803       144.552 3        21.969    24055565.959 6  98503524.20406       144.268 6        38.688
G12  21662982.625 7 113839757.98107      4537.950 7        43.156    21662982.790 7  88706299.49107      3536.072 7        43.875    21662983.848 7  88706318.44907      3536.966 7        43.469
G15  23780605.379 3                     -2081.110 3        23.750
G17  22897119.423 7 120325180.81607      -239.205 7        44.844    22897120.564 6  93759881.65506      -186.383 6        40.125    22897121.359 7  93759879.66507      -185.870 7        42.938
G19  21510803.324 7 113040041.56607      1930.437 7        44.656    21510801.977 6  88083149.49706      1504.215 6        36.781
G22  24073465.109 6 126506916.50106     -1377.528 6        40.344    24073467.504 4  98576822.98104     -1073.384 4        24.469
G23  24983544.396 3                     -1335.164 3        23.063
G24  20302933.198 8 106692624.21508       990.039 8        48.688    20302935.407 8  83137111.52408       771.466 8        52.688    20302935.846 7  83137111.53007       771.348 7        47.969
G25  23934584.322 3                      5575.486 3        23.281                                                                    23934590.253 3                      4344.753 3        23.156
G32  24096338.153 6 126627114.73806      4742.506 6        40.875    24096338.481 3  98670477.15603      3695.479 3        21.875    24096341.071 6  98670491.22506      3695.240 6        39.000
