     3.04           OBSERVATION DATA    G                   RINEX VERSION / TYPE
sbf2rin-15.9.0                          20240324 110244 UTC PGM / RUN BY / DATE 
ALT3                                                        MARKER NAME         
Unknown                                                     MARKER NUMBER       
Unknown             Unknown                                 OBSERVER / AGENCY   
3058190             SEPT ALTUS NR3      1.3.3-r81487        REC # / TYPE / VERS 
Altus NR3           SEPALTUS_NR3    NONE                    ANT # / TYPE        
  3509747.1886   779162.9111  5250754.8655                  APPROX POSITION XYZ 
        0.0000        0.0000        0.0000                  ANTENNA: DELTA H/E/N
G   12 C1C L1C D1C S1C C2W L2W D2W S2W C2L L2L D2L S2L      SYS / # / OBS TYPES 
SEPTENTRIO RECEIVERS OUTPUT ALIGNED CARRIER PHASES.         COMMENT             
NO FURTHER PHASE SHIFT APPLIED IN THE RINEX ENCODER.        COMMENT             
G L1C                                                       SYS / PHASE SHIFT   
G L2W                                                       SYS / PHASE SHIFT   
G L2L  0.00000                                              SYS / PHASE SHIFT   
     1.000                                                  INTERVAL            
  2024     2    29     7    56   30.0000000     GPS         TIME OF FIRST OBS   
  2024     2    29     8    16   52.0000000     GPS         TIME OF LAST OBS    
    38                                                      # OF SATELLITES     
DBHZ                                                        SIGNAL STRENGTH UNIT
    18                                                      LEAP SECONDS        
                                                            END OF HEADER       
> 2024 02 29 07 56 30.0000000  0 10
G10  23654072.570 7 124302989.30707      1867.344 7        42.000    23654075.318 4  96859478.04104      1455.070 4        28.594    23654075.023 6  96859474.05206      1455.161 6        41.813
G12  23276853.182 6 122320693.04106      5462.993 6        39.938    23276855.414 5  95314829.87405      4256.875 5        35.906    23276856.572 6  95314837.89206      4256.775 6        39.156
G13  23417830.676 6 123061533.87006     -1899.670 6        38.688    23417834.840 3  95892113.94503     -1480.262 3        22.313
G14  23921151.054 6 125706496.00706     -1516.741 6        38.625    23921155.308 3  97953126.77403     -1181.874 3        23.656    23921155.605 6  97953117.76906     -1181.674 6        40.188
G15  22017156.121 7 115700931.07907     -1264.238 7        44.250    22017157.094 6  90156571.58906      -985.117 6        41.813    22017156.792 7  90156566.59307      -985.073 7        42.438
G17  22259625.582 7 116975119.53907      1341.520 7        44.594    22259625.980 7  91149447.66907      1045.342 7        43.313    22259626.352 7  91149453.68107      1045.305 7        42.938
G19  22043965.851 7 115841823.35807      3750.895 7        43.125    22043965.367 5  90266354.47505      2922.779 5        34.219
G22  22610995.788 7 118821584.10107      -814.482 7        44.813    22610995.946 5  92588249.90305      -634.663 5        32.281
G23  23624380.254 6 124146953.44106      -374.658 6        40.469    23624381.162 4  96737894.24004      -291.943 4        24.719    23624381.852 6  96737890.24506      -292.043 6        40.844
G24  20295715.601 8 106654703.02508      2573.128 8        48.844    20295717.105 8  83107564.63708      2005.036 8        52.000    20295717.272 7  83107564.63507      2005.097 7        46.438
> 2024 02 29 07 56 31.0000000  0 10
G10  23653717.017 7 124301122.40707      1866.584 7        42.281    23653720.021 4  96858023.32004      1454.483 4        28.531    23653719.779 6  96858019.31506      1454.490 6        41.594
G12  23275813.710 6 122315230.31406      5462.491 6        40.125    23275815.896 5  95310573.20505      4256.484 5        35.938    23275817.189 6  95310581.21206      4256.477 6        39.125
G13  23418192.015 6 123063433.72106     -1899.932 6        38.906    23418196.407 3  95893594.34303     -1480.460 3        22.344
G14  23921439.709 6 125708012.86206     -1517.000 6        38.531    23921443.955 3  97954308.72903     -1182.052 3        23.719    23921444.294 6  97954299.72706     -1182.024 6        40.344
G15  22017396.718 7 115702195.61607     -1264.763 7        44.406    22017397.712 6  90157556.94006      -985.523 6        41.750    22017397.419 7  90157551.93207      -985.529 7        42.125
G17  22259370.241 7 116973778.43207      1340.607 7        44.938    22259370.789 7  91148402.65107      1044.635 7        43.313    22259371.285 7  91148408.64807      1044.793 7        43.000
G19  22043252.035 7 115838072.77907      3750.223 7        43.188    22043251.633 5  90263431.94405      2922.251 5        34.188
G22  22611150.734 7 118822398.93507      -815.015 7        45.094    22611151.030 5  92588884.83605      -635.071 5        32.281
G23  23624451.445 6 124147328.46206      -375.534 6        40.344    23624452.556 4  96738186.46304      -292.610 4        24.750    23624453.102 6  96738182.46006      -292.557 6        40.719
G24  20295225.962 8 106652130.24208      2572.364 8        48.844    20295227.512 8  83105559.87108      2004.443 8        52.000    20295227.630 7  83105559.87407      2004.441 7        46.406
> 2024 02 29 07 56 32.0000000  0 10
G10  23653361.922 7 124299256.24307      1866.257 7        42.281    23653364.871 4  96856569.16504      1454.225 4        28.500    23653364.696 6  96856565.19206      1454.173 6        41.438
G12  23274774.239 6 122309767.89406      5462.776 6        39.438    23274776.431 5  95306316.77705      4256.704 5        35.906    23274778.004 6  95306324.80206      4256.583 6        39.094
G13  23418553.776 6 123065333.85206     -1899.757 6        38.719    23418558.027 3  95895074.95503     -1480.312 3        22.344
G14  23921728.882 6 125709529.98506     -1516.812 6        38.406    23921732.625 3  97955490.89303     -1181.909 3        23.906    23921733.198 6  97955481.89606     -1181.941 6        40.281
G15  22017637.367 7 115703460.65707     -1264.892 7        44.781    22017638.424 6  90158542.68306      -985.624 6        41.688    22017638.157 7  90158537.66707      -985.632 7        42.000
G17  22259115.213 7 116972438.02407      1340.480 7        44.750    22259115.728 7  91147358.17607      1044.538 7        43.281    22259116.185 7  91147364.17507      1044.468 7        43.000
G19  22042538.511 7 115834322.91907      3749.956 7        43.438    22042538.029 5  90260509.98205      2922.047 5        34.125
G22  22611305.782 7 118823214.13107      -814.988 7        45.094    22611306.196 5  92589520.04705      -635.056 5        32.250
G23  23624522.900 6 124147704.03806      -375.427 6        40.344    23624524.044 4  96738479.12104      -292.540 4        24.531    23624524.721 6  96738475.12706      -292.551 6        40.500
G24  20294736.395 8 106649558.11208      2572.169 8        48.938    20294738.048 8  83103555.61308      2004.289 8        52.063    20294738.288 7  83103555.61807      2004.371 7        46.469
> 2024 02 29 07 56 33.0000000  0 10
G10  23653006.862 7 124297390.20807      1865.695 7        42.031    23653009.722 4  96855115.11304      1453.785 4        28.469    23653009.414 6  96855111.13006      1453.729 6        41.156
G12  23273734.570 6 122304305.16906      5462.697 6        40.125    23273736.909 5  95302060.11605      4256.644 5        35.875    23273738.484 6  95302068.12806      4256.472 6        38.875
G13  23418915.231 6 123067233.63606     -1899.842 6        38.719    23418919.571 3  95896555.30003     -1480.379 3        22.375
G14  23922017.540 6 125711046.67906     -1516.639 6        38.750    23922021.260 4  97956672.72504     -1181.797 4        24.000    23922021.790 6  97956663.73406     -1181.941 6        40.344
G15  22017878.196 7 115704725.56207     -1265.163 7        44.813    22017879.095 6  90159528.31606      -985.831 6        41.594    22017878.836 6  90159523.31106      -985.957 6        41.938
G17  22258860.156 7 116971097.73007      1339.989 7        45.000    22258860.689 7  91146313.78907      1044.146 7        43.281    22258861.179 7  91146319.77207      1044.088 7        43.063
G19  22041825.122 7 115830573.07607      3749.543 7        43.563    22041824.412 5  90257588.02705      2921.717 5        34.125
G22  22611460.823 7 118824029.03907      -815.057 7        44.813    22611461.281 5  92590155.03805      -635.105 5        32.219
G23  23624594.319 6 124148079.59506      -376.049 6        40.594    23624595.577 4  96738771.75704      -293.021 4        24.375    23624596.078 6  96738767.72006      -292.739 6        40.750
G24  20294246.931 8 106646985.98408      2571.771 8        49.000    20294248.584 8  83101551.35708      2003.972 8        52.094    20294248.921 7  83101551.36807      2003.949 7        46.156
> 2024 02 29 07 56 34.0000000  0 10
G10  23652651.688 7 124295524.59607      1866.094 7        42.438    23652654.693 4  96853661.39304      1454.102 4        28.625    23652654.209 7  96853657.38607      1454.161 7        42.031
G12  23272695.321 6 122298842.47706      5463.478 6        39.594    23272697.395 5  95297803.47205      4257.252 5        35.688    23272699.022 6  95297811.48306      4257.135 6        39.094
G13  23419276.722 6 123069133.39106     -1898.960 6        39.156    23419281.070 3  95898035.61903     -1479.709 3        22.625
G14  23922306.293 6 125712563.33106     -1516.161 6        38.750    23922309.849 4  97957854.52904     -1181.421 4        24.063    23922310.183 6  97957845.51106     -1181.062 6        40.250
G15  22018119.096 7 115705990.65107     -1264.484 7        44.594    22018119.807 6  90160514.09506      -985.307 6        41.563    22018119.403 6  90160509.09706      -985.158 6        41.969
G17  22258605.275 7 116969757.79607      1340.535 7        44.750    22258605.721 7  91145269.68007      1044.579 7        43.281    22258606.285 7  91145275.67707      1044.506 7        43.219
G19  22041111.509 7 115826823.59207      3749.970 7        43.531    22041110.866 5  90254666.35105      2922.060 5        34.094
G22  22611615.876 7 118824843.99107      -814.307 7        44.906    22611616.374 5  92590790.06105      -634.522 5        32.219
G23  23624665.855 6 124148455.35106      -375.116 6        40.875    23624667.145 4  96739064.54404      -292.290 4        24.438    23624667.698 6  96739060.53906      -292.291 6        40.594
G24  20293757.495 8 106644414.17908      2572.419 8        48.906    20293759.178 8  83099547.35408      2004.484 8        52.094    20293759.496 7  83099547.36707      2004.488 7        46.250
> 2024 02 29 07 56 35.0000000  0 10
G10  23652296.857 7 124293659.94707      1864.206 7        42.719    23652299.865 4  96852208.41504      1452.640 4        28.906    23652299.343 7  96852204.41607      1452.697 7        42.219
G12  23271655.978 6 122293380.28506      5461.945 6        39.344    23271657.966 5  95293547.22405      4256.056 5        35.594    23271659.663 6  95293555.24806      4256.061 6        38.719
G13  23419638.304 6 123071033.60706     -1900.404 6        39.000    23419642.748 3  95899516.30203     -1480.822 3        22.750
G14  23922594.891 6 125714080.40606     -1517.122 6        39.094    23922598.488 3  97959036.66503     -1182.169 3        23.906    23922598.983 6  97959027.65806     -1182.369 6        40.406
G15  22018360.050 7 115707256.46907     -1266.073 7        44.219    22018360.649 6  90161500.44206      -986.547 6        41.500    22018360.182 6  90161495.43906      -986.534 6        41.906
G17  22258350.480 7 116968418.80507      1338.581 7        44.719    22258350.933 7  91144226.30807      1043.055 7        43.219    22258351.475 7  91144232.30507      1043.061 7        43.125
G19  22040398.309 7 115823075.00807      3748.105 7        43.594    22040397.495 5  90251745.37705      2920.601 5        34.063
G22  22611771.006 7 118825659.51607      -815.759 7        44.781    22611771.584 5  92591425.53505      -635.655 5        32.219
G23  23624737.540 6 124148831.92206      -376.957 6        40.875    23624738.852 4  96739357.96904      -293.726 4        24.344    23624739.306 6  96739353.95806      -293.705 6        40.563
G24  20293268.190 8 106641843.24108      2570.609 8        49.000    20293269.929 8  83097544.02408      2003.076 8        52.125    20293270.222 7  83097544.03307      2003.029 7        46.406
> 2024 02 29 07 56 36.0000000  0 10
G10  23651942.236 7 124291795.89207      1863.608 7        42.344    23651945.127 4  96850755.90104      1452.171 4        29.188    23651944.924 7  96850751.90307      1452.098 7        42.000
G12  23270616.784 6 122287918.28706      5461.819 6        39.313    23270618.569 5  95289291.12605      4255.960 5        35.531    23270620.306 6  95289299.15606      4255.945 6        39.281
G13  23419999.669 6 123072933.95706     -1900.414 6        39.281    23420004.427 3  95900997.08903     -1480.828 3        22.438
G14  23922883.665 6 125715597.56806     -1517.401 6        38.594    23922887.194 3  97960218.86203     -1182.376 3        23.875    23922887.735 6  97960209.85806     -1182.428 6        40.469
G15  22018600.951 7 115708522.63507     -1266.481 7        44.063    22018601.562 6  90162487.06006      -986.858 6        41.344    22018601.048 6  90162482.05806      -986.790 6        41.625
G17  22258095.766 7 116967080.38007      1337.999 7        44.688    22258096.242 7  91143183.37907      1042.599 7        43.219    22258096.722 7  91143189.38107      1042.646 7        43.313
G19  22039685.064 7 115819326.94007      3747.624 7        43.250    22039684.222 5  90248824.80605      2920.232 5        34.031
G22  22611926.218 7 118826475.25907      -816.002 7        44.656    22611926.826 5  92592061.17405      -635.839 5        32.188
G23  23624809.431 6 124149208.90606      -377.266 6        40.406    23624810.644 4  96739651.71704      -293.945 4        24.375    23624811.107 6  96739647.70706      -294.106 6        40.313
G24  20292779.015 8 106639272.79608      2570.043 8        48.844    20292780.778 8  83095541.08108      2002.632 8        52.156    20292781.193 7  83095541.08607      2002.659 7        46.500
> 2024 02 29 07 56 37.0000000  0 10
G10  23651587.637 6 124289931.98306      1864.309 6        41.531    23651590.402 4  96849303.50004      1452.709 4        29.281    23651590.205 7  96849299.49407      1452.814 7        42.031
G12  23269577.479 6 122282456.05506      5462.723 6        39.344    23269579.145 5  95285034.84505      4256.664 5        35.625    23269580.646 6  95285042.82806      4256.947 6        39.594
G13  23420361.068 6 123074834.00106     -1899.180 6        39.500    23420366.011 3  95902477.63803     -1479.881 3        22.656
G14  23923172.345 6 125717114.37806     -1516.096 6        38.781    23923175.882 3  97961400.78503     -1181.366 3        23.844    23923176.344 6  97961391.78306     -1181.388 6        40.469
G15  22018841.626 7 115709788.70107     -1265.376 7        44.188    22018842.453 6  90163473.60306      -986.003 6        41.313    22018841.926 6  90163468.59606      -985.914 6        41.656
G17  22257841.070 7 116965742.06907      1338.843 7        44.594    22257841.579 7  91142140.53907      1043.257 7        43.281    22257842.019 7  91142146.53707      1043.306 7        43.469
G19  22038971.873 7 115815578.92607      3748.594 7        43.313    22038970.976 5  90245904.27505      2920.977 5        34.094
G22  22612081.542 7 118827290.75207      -814.793 7        44.438    22612082.004 5  92592696.62105      -634.896 5        32.250
G23  23624881.135 6 124149585.86306      -376.336 6        40.813    23624882.386 4  96739945.44304      -293.251 4        24.531    23624882.707 6  96739941.43406      -293.272 6        39.750
G24  20292289.846 8 106636702.38308      2570.944 8        48.875    20292291.641 8  83093538.16008      2003.333 8        52.250    20292292.110 7  83093538.18007      2003.236 7        46.406
> 2024 02 29 07 56 38.0000000  0 10
G10  23651233.190 6 124288068.62706      1862.695 6        41.906    23651235.798 4  96847851.53104      1451.460 4        29.438    23651235.657 7  96847847.53007      1451.404 7        42.281
G12  23268538.064 6 122276993.90106      5461.763 6        39.813    23268539.743 5  95280778.62705      4255.923 5        35.719    23268541.328 6  95280786.62806      4256.123 6        39.188
G13  23420722.642 6 123076734.13106     -1900.452 6        39.594    23420727.586 3  95903958.25203     -1480.861 3        22.969
G14  23923460.918 6 125718631.23406     -1517.296 6        38.688    23923464.579 4  97962582.74304     -1182.287 4        24.000    23923465.073 6  97962573.74406     -1182.405 6        40.344
G15  22019082.333 7 115711055.07607     -1266.763 7        44.063    22019083.393 6  90164460.38506      -987.084 6        41.281    22019083.129 6  90164455.39206      -987.095 6        41.375
G17  22257586.408 7 116964404.29207      1337.127 7        44.406    22257587.018 7  91141098.11207      1041.918 7        43.344    22257587.437 7  91141104.11607      1041.844 7        43.531
G19  22038258.661 7 115811831.41307      3747.140 7        43.156    22038257.823 5  90242984.13505      2919.853 5        34.094
G22  22612236.806 7 118828106.40707      -815.980 7        44.469    22612237.241 5  92593332.19105      -635.816 5        32.313
G23  23624952.970 6 124149963.16506      -377.804 6        40.688    23624954.232 4  96740239.44504      -294.379 4        24.688    23624954.203 6  96740235.45006      -294.492 6        40.750
G24  20291800.814 8 106634132.42908      2569.457 8        48.875    20291802.589 8  83091535.59908      2002.174 8        52.281    20291803.074 7  83091535.61307      2002.237 7        46.781
> 2024 02 29 07 56 39.0000000  0 10
G10  23650878.966 6 124286206.10206      1862.373 6        41.750    23650881.354 4  96846400.20504      1451.202 4        29.375    23650881.266 6  96846396.24806      1451.155 6        41.688
G12  23267498.529 6 122271532.20606      5461.594 6        40.094    23267500.404 5  95276522.75505      4255.796 5        35.594    23267501.974 6  95276530.77806      4255.986 6        39.250
G13  23421084.423 6 123078634.64606     -1900.260 6        39.281    23421089.283 3  95905439.16403     -1480.709 3        22.969
G14  23923749.578 6 125720148.43206     -1516.984 6        38.938    23923753.320 3  97963764.96503     -1182.051 3        23.938    23923753.455 6  97963755.95906     -1182.056 6        40.188
G15  22019323.217 7 115712322.09807     -1267.118 7        44.156    22019324.458 6  90165447.66906      -987.354 6        41.125    22019324.105 6  90165442.67306      -987.273 6        41.438
G17  22257331.909 7 116963067.33807      1336.839 7        44.281    22257332.614 7  91140056.32907      1041.699 7        43.250    22257333.047 7  91140062.32307      1041.734 7        43.656
G19  22037545.579 7 115808084.69907      3746.847 7        43.406    22037544.810 5  90240064.61705      2919.622 5        34.031
G22  22612392.153 7 118828922.53907      -815.997 7        44.531    22612392.572 5  92593968.13705      -635.836 5        32.250
G23  23625024.820 6 124150341.21206      -377.910 6        40.406    23625026.162 4  96740534.02104      -294.463 4        24.656    23625026.129 6  96740530.01206      -294.565 6        40.250
G24  20291311.881 8 106631563.23008      2569.157 8        48.875    20291313.688 8  83089533.62708      2001.939 8        52.219    20291314.279 7  83089533.63107      2001.992 7        46.656
> 2024 02 29 07 56 40.0000000  0 10
G10  23650524.792 7 124284343.85107      1862.416 7        42.094    23650526.943 4  96844949.10904      1451.228 4        29.125    23650526.917 6  96844945.12006      1451.304 6        41.438
G12  23266459.354 6 122266070.33806      5462.240 6        39.906    23266461.056 5  95272266.76405      4256.288 5        35.656    23266462.778 6  95272274.78506      4256.252 6        39.406
G13  23421446.373 6 123080534.95006     -1900.057 6        39.938    23421450.952 3  95906919.91503     -1480.564 3        23.000
G14  23924038.313 6 125721665.37906     -1516.592 6        39.250    23924041.955 3  97964947.00003     -1181.771 3        23.875    23924042.299 6  97964937.99006     -1181.689 6        40.563
G15  22019564.395 7 115713589.08207     -1266.639 7        43.844    22019565.510 6  90166434.92906      -986.990 6        41.063    22019565.160 6  90166429.93406      -986.941 6        41.438
G17  22257077.574 7 116961730.60007      1336.996 7        44.219    22257078.251 7  91139014.71107      1041.817 7        43.188    22257078.730 7  91139020.71207      1041.697 7        43.625
G19  22036832.574 7 115804338.16607      3746.745 7        43.688    22036831.836 5  90237145.24205      2919.540 5        34.000
G22  22612547.340 7 118829738.53607      -815.586 7        44.625    22612547.871 5  92594603.97905      -635.524 5        32.219
G23  23625096.681 6 124150719.31506      -377.800 6        40.844    23625098.111 4  96740828.64704      -294.398 4        24.625    23625098.298 6  96740824.63806      -294.497 6        40.063
G24  20290822.989 8 106628994.17108      2569.236 8        49.000    20290824.810 8  83087531.76308      2002.002 8        52.219    20290825.512 7  83087531.77207      2002.009 7        46.781
> 2024 02 29 07 56 41.0000000  0 10
G10  23650170.454 7 124282482.03307      1861.879 7        42.188    23650172.634 4  96843498.34404      1450.814 4        29.313    23650172.694 7  96843494.32307      1450.955 7        42.125
G12  23265420.257 6 122260608.45006      5462.316 6        39.719    23265421.699 5  95268010.74505      4256.351 5        35.781    23265423.314 6  95268018.75406      4256.446 6        39.563
G13  23421808.032 6 123082435.16606     -1899.772 6        39.563    23421812.585 3  95908400.59803     -1480.336 3        23.156
G14  23924326.953 6 125723182.21506     -1516.339 6        38.906    23924330.593 3  97966128.94203     -1181.550 3        23.875    23924330.909 6  97966119.92506     -1181.620 6        40.219
G15  22019805.506 7 115714856.25207     -1266.835 7        44.000    22019806.593 6  90167422.33206      -987.145 6        41.094    22019806.313 6  90167417.32606      -987.202 6        41.594
G17  22256823.134 7 116960394.23007      1336.585 7        44.281    22256823.949 7  91137973.38407      1041.498 7        43.188    22256824.326 7  91137979.37707      1041.477 7        43.688
G19  22036119.817 7 115800591.94607      3746.441 7        43.563    22036118.926 5  90234226.11605      2919.298 5        34.000
G22  22612702.806 7 118830554.54307      -815.707 7        44.531    22612703.157 5  92595239.82405      -635.611 5        32.125
G23  23625168.647 6 124151097.61406      -378.075 6        40.438    23625170.104 4  96741123.42604      -294.619 4        24.531    23625170.438 6  96741119.40806      -294.618 6        40.031
G24  20290334.227 8 106626425.41408      2568.933 8        49.000    20290335.995 8  83085530.13308      2001.768 8        52.281    20290336.795 7  83085530.14007      2001.783 7        46.969
> 2024 02 29 07 56 42.0000000  0 10
G10  23649816.251 6 124280620.84406      1860.810 6        41.500    23649818.459 4  96842048.05904      1450.001 4        29.250    23649818.541 7  96842044.04607      1449.963 7        42.219
G12  23264380.999 6 122255146.81306      5461.481 6        39.844    23264382.377 5  95263754.92205      4255.703 5        35.813    23264384.072 6  95263762.93906      4255.660 6        39.563
G13  23422169.579 6 123084335.57506     -1900.354 6        39.750    23422174.210 3  95909881.42003     -1480.778 3        23.000
G14  23924615.501 6 125724699.20306     -1517.120 6        38.906    23924619.263 3  97967311.00203     -1182.163 3        23.813    23924619.446 6  97967301.99806     -1182.243 6        40.250
G15  22020046.640 7 115716123.82907     -1267.870 7        43.875    22020047.761 6  90168410.04906      -987.949 6        41.031    22020047.673 6  90168405.05806      -987.994 6        41.156
G17  22256568.902 7 116959058.48207      1335.419 7        44.375    22256569.760 7  91136932.53907      1040.587 7        43.125    22256570.117 7  91136938.52907      1040.659 7        43.594
G19  22035407.116 7 115796846.32907      3745.268 7        43.156    22035406.140 5  90231307.45405      2918.397 5        33.969
G22  22612858.073 7 118831370.81707      -816.421 7        44.563    22612858.493 5  92595875.87905      -636.162 5        32.125
G23  23625240.804 6 124151476.40106      -379.150 6        39.969    23625242.160 4  96741418.57804      -295.419 4        24.375    23625242.730 6  96741414.56906      -295.408 6        40.063
G24  20289845.428 8 106623857.20408      2567.903 8        49.063    20289847.278 8  83083528.92908      2000.965 8        52.281    20289848.123 7  83083528.93307      2000.997 7        46.906
> 2024 02 29 07 56 43.0000000  0 10
G10  23649462.273 6 124278760.12306      1860.220 6        41.250    23649464.378 4  96840598.13704      1449.536 4        29.188    23649464.562 7  96840594.13807      1449.519 7        42.156
G12  23263341.621 6 122249685.21306      5461.453 6        39.344    23263343.056 5  95259499.13105      4255.673 5        35.750    23263344.735 6  95259507.14606      4255.521 6        39.688
G13  23422531.148 6 123086236.00706     -1900.771 6        39.969    23422535.835 3  95911362.26503     -1481.111 3        23.063
G14  23924904.132 6 125726216.17006     -1517.142 6        38.813    23924907.934 3  97968493.04603     -1182.179 3        23.531    23924908.219 6  97968484.01806     -1182.134 6        40.344
G15  22020287.856 7 115717391.64707     -1268.067 7        44.031    22020288.982 6  90169397.95806      -988.096 6        40.938    22020289.086 6  90169392.95506      -988.150 6        41.094
G17  22256314.735 7 116957723.17307      1334.876 7        44.313    22256315.656 7  91135892.03707      1040.165 7        43.031    22256316.082 7  91135898.02207      1040.264 7        43.875
G19  22034694.470 7 115793101.12007      3744.629 7        43.250    22034693.439 5  90228389.10905      2917.892 5        33.875
G22  22613013.568 7 118832187.16707      -816.479 7        44.344    22613013.850 5  92596511.99305      -636.214 5        32.063
G23  23625312.622 6 124151855.50206      -379.454 6        40.094    23625314.283 4  96741713.97604      -295.681 4        24.313    23625314.857 6  96741709.97506      -295.692 6        39.719
G24  20289356.900 8 106621289.37408      2567.469 8        48.875    20289358.637 8  83081528.02208      2000.625 8        52.281    20289359.494 7  83081528.02907      2000.621 7        47.094
> 2024 02 29 07 56 44.0000000  0 10
G10  23649108.384 6 124276899.84206      1859.596 6        40.938    23649110.382 4  96839148.56104      1449.042 4        29.094    23649110.624 6  96839144.54806      1449.136 6        41.969
G12  23262302.197 6 122244223.64806      5461.259 6        39.750    23262303.743 5  95255243.36805      4255.526 5        35.813    23262305.247 6  95255251.38406      4255.593 6        39.688
G13  23422892.925 6 123088136.38006     -1900.780 6        39.781    23422897.437 3  95912843.06703     -1481.125 3        23.000
G14  23925192.747 6 125727733.05106     -1517.299 6        39.313    23925196.630 3  97969675.02503     -1182.293 3        23.531    23925196.801 6  97969666.01306     -1182.303 6        40.313
G15  22020529.229 7 115718659.65707     -1268.554 7        44.125    22020530.235 6  90170386.01506      -988.480 6        40.906    22020530.309 6  90170381.00106      -988.441 6        41.563
G17  22256060.705 7 116956388.27407      1334.246 7        44.469    22256061.623 7  91134851.85507      1039.674 7        43.063    22256062.025 7  91134857.85807      1039.636 7        43.781
G19  22033981.746 7 115789356.24107      3744.260 7        43.063    22033980.797 5  90225471.02305      2917.607 5        33.813
G22  22613168.950 7 118833003.59407      -816.892 7        44.406    22613169.217 5  92597148.16705      -636.532 5        32.063
G23  23625385.015 6 124152234.84606      -379.925 6        39.781    23625386.468 4  96742009.57004      -296.040 4        24.375    23625386.847 6  96742005.56806      -295.982 6        40.094
G24  20288868.415 8 106618721.87908      2566.951 8        48.750    20288870.054 8  83079527.37508      2000.223 8        52.250    20288870.922 7  83079527.38307      2000.228 7        47.094
> 2024 02 29 07 56 45.0000000  0 10
G10  23648754.195 6 124275040.16206      1860.070 6        41.188    23648756.511 4  96837699.45704      1449.414 4        29.031    23648756.835 7  96837695.46307      1449.341 7        42.500
G12  23261262.780 6 122238762.28506      5461.824 6        39.813    23261264.480 5  95250987.75905      4255.963 5        35.906    23261265.864 6  95250995.77506      4255.957 6        39.906
G13  23423254.577 6 123090036.94506     -1900.182 6        39.844    23423259.075 3  95914324.02303     -1480.658 3        22.969
G14  23925481.295 6 125729250.05506     -1516.625 6        38.875    23925485.300 3  97970857.10003     -1181.772 3        23.406    23925485.332 6  97970848.07906     -1181.582 6        40.219
G15  22020770.590 7 115719928.03807     -1267.981 7        43.906    22020771.560 6  90171374.36206      -988.031 6        40.906    22020771.584 6  90171369.35306      -987.874 6        41.531
G17  22255806.740 7 116955053.97407      1334.597 7        44.250    22255807.711 7  91133812.13807      1039.951 7        43.031    22255808.223 7  91133818.14307      1039.951 7        43.875
G19  22033269.327 7 115785611.94907      3744.556 7        43.063    22033268.284 5  90222553.39405      2917.836 5        33.813
G22  22613324.450 7 118833820.23607      -816.169 7        44.313    22613324.606 5  92597784.51105      -635.971 5        32.000
G23  23625457.279 6 124152614.67806      -379.572 6        39.875    23625458.707 4  96742305.54404      -295.771 4        24.344    23625459.090 6  96742301.50806      -295.508 6        39.719
G24  20288379.978 8 106616154.90508      2567.298 8        48.750    20288381.574 8  83077527.13308      2000.492 8        52.250    20288382.468 7  83077527.13707      2000.506 7        47.031
> 2024 02 29 07 56 46.0000000  0 10
G10  23648400.263 6 124273180.54206      1859.236 6        40.969    23648402.645 4  96836250.40104      1448.754 4        29.188    23648403.052 7  96836246.40307      1448.714 7        42.375
G12  23260223.668 6 122233300.52906      5461.561 6        39.969    23260225.150 5  95246731.85205      4255.759 5        35.969    23260226.407 6  95246739.86706      4255.678 6        39.969
G13  23423616.229 6 123091937.02606     -1900.343 6        40.094    23423620.677 3  95915804.60703     -1480.783 3        23.094
G14  23925769.794 6 125730766.56206     -1516.897 6        39.188    23925773.935 3  97972038.78803     -1181.976 3        23.313    23925773.973 6  97972029.78706     -1181.969 6        39.938
G15  22021012.089 7 115721196.23407     -1268.506 7        44.031    22021012.849 6  90172362.56106      -988.447 6        40.844    22021013.018 6  90172357.55706      -988.494 6        41.625
G17  22255552.861 7 116953719.67107      1333.788 7        44.375    22255553.794 7  91132772.41907      1039.313 7        42.969    22255554.243 7  91132778.42807      1039.271 7        43.813
G19  22032556.952 7 115781867.61807      3743.819 7        42.938    22032555.735 5  90219635.73505      2917.260 5        33.719
G22  22613479.845 7 118834636.53807      -816.717 7        44.156    22613479.941 5  92598420.58705      -636.399 5        31.875
G23  23625529.439 6 124152994.31506      -379.945 6        39.844    23625530.959 4  96742601.35604      -296.049 4        24.438    23625531.322 6  96742597.35806      -296.305 6        40.063
G24  20287891.393 8 106613587.86008      2566.574 8        48.781    20287893.085 8  83075526.83908      1999.928 8        52.250    20287893.840 7  83075526.84007      1999.896 7        47.031
> 2024 02 29 07 56 47.0000000  0 10
G10  23648046.227 6 124271321.29806      1858.803 6        40.563    23648048.836 4  96834801.63604      1448.421 4        29.313    23648049.305 7  96834797.64707      1448.270 7        42.750
G12  23259184.335 6 122227838.75906      5461.405 6        39.563    23259185.820 6  95242475.92606      4255.644 6        36.125    23259187.151 6  95242483.93406      4255.716 6        39.656
G13  23423977.832 6 123093837.05206     -1900.271 6        39.906    23423982.261 3  95917285.13603     -1480.723 3        23.250
G14  23926058.356 6 125732282.97206     -1516.734 6        39.219    23926062.520 3  97973220.39603     -1181.875 3        23.469    23926062.477 6  97973211.39206     -1181.741 6        40.156
G15  22021253.592 7 115722464.56307     -1268.900 7        43.656    22021254.173 6  90173350.86506      -988.752 6        40.875    22021254.169 6  90173345.86106      -988.691 6        41.500
G17  22255299.117 7 116952385.71807      1333.359 7        44.438    22255299.944 7  91131732.97307      1038.981 7        43.063    22255300.358 7  91131738.97207      1039.008 7        43.875
G19  22031844.456 7 115778123.58407      3743.600 7        42.781    22031843.245 5  90216718.30505      2917.090 5        33.875
G22  22613635.233 7 118835452.80707      -816.588 7        44.031    22613635.267 5  92599056.63505      -636.300 5        31.969
G23  23625601.650 6 124153374.17306      -380.333 6        39.594    23625603.266 4  96742897.34904      -296.364 4        24.625    23625603.706 6  96742893.36506      -296.447 6        39.906
G24  20287402.911 8 106611021.09008      2566.349 8        48.563    20287404.649 8  83073526.75708      1999.753 8        52.313    20287405.365 7  83073526.75907      1999.719 7        47.063
> 2024 02 29 07 56 48.0000000  0 10
G10  23647692.502 6 124269462.69106      1859.143 6        40.781    23647695.153 4  96833353.36904      1448.681 4        29.375    23647695.715 7  96833349.35407      1448.797 7        42.625
G12  23258145.315 6 122222377.15506      5462.426 6        39.688    23258146.507 6  95238220.13306      4256.436 6        36.344    23258147.727 6  95238228.15506      4256.339 6        39.813
G13  23424339.406 6 123095737.24506     -1899.423 6        39.844    23424343.850 3  95918765.79803     -1480.063 3        23.344
G14  23926347.000 6 125733799.49606     -1515.784 6        39.031    23926351.087 3  97974402.09403     -1181.119 3        23.594    23926350.996 6  97974393.08506     -1181.218 6        40.125
G15  22021495.078 7 115723733.26107     -1267.997 7        43.813    22021495.560 6  90174339.46206      -988.039 6        40.938    22021495.587 6  90174334.46506      -988.107 6        41.688
G17  22255045.411 7 116951052.37007      1333.923 7        44.469    22255046.216 7  91130693.99907      1039.424 7        43.125    22255046.547 7  91130700.00007      1039.448 7        44.094
G19  22031131.915 7 115774380.13007      3743.935 7        42.688    22031130.862 5  90213801.33105      2917.350 5        33.938
G22  22613790.479 7 118836269.33507      -815.738 7        44.125    22613790.647 5  92599692.88505      -635.634 5        32.031
G23  23625674.055 6 124153754.50306      -379.749 6        40.125    23625675.608 4  96743193.71704      -295.888 4        24.781    23625676.185 6  96743189.70006      -295.896 6        39.719
G24  20286914.535 8 106608454.84408      2566.842 8        48.563    20286916.308 8  83071527.08408      2000.139 8        52.406    20286916.983 7  83071527.09307      2000.056 7        47.156
> 2024 02 29 07 56 49.0000000  0 10
G10  23647338.835 6 124267605.01306      1857.134 6        40.656    23647341.667 4  96831905.82604      1447.126 4        29.438    23647342.203 7  96831901.83507      1447.036 7        42.844
G12  23257105.942 6 122216916.13006      5460.731 6        39.531    23257107.320 6  95233964.79006      4255.108 6        36.344    23257108.443 6  95233972.80406      4255.112 6        40.313
G13  23424700.964 6 123097637.89006     -1901.063 6        40.125    23424705.528 3  95920246.81703     -1481.340 3        23.531
G14  23926635.689 6 125735316.44806     -1517.239 6        38.844    23926639.712 3  97975584.12903     -1182.261 3        23.500    23926639.828 6  97975575.12606     -1182.379 6        40.156
G15  22021736.617 7 115725002.68607     -1269.723 7        44.031    22021737.082 6  90175328.62106      -989.395 6        41.031    22021737.252 6  90175323.61306      -989.457 6        41.813
G17  22254791.893 7 116949719.93607      1331.912 7        44.375    22254792.661 7  91129655.73807      1037.858 7        43.188    22254792.980 7  91129661.74407      1037.845 7        43.969
G19  22030419.727 7 115770637.53907      3742.041 7        42.406    22030418.667 5  90210885.02705      2915.872 5        34.000
G22  22613945.935 7 118837086.42307      -817.430 7        43.906    22613946.148 5  92600329.57705      -636.957 5        32.031
G23  23625746.513 6 124154135.58406      -381.343 6        40.094    23625748.110 4  96743490.65204      -297.139 4        24.844    23625748.659 6  96743486.64106      -297.316 6        38.844
G24  20286426.232 8 106605889.45308      2564.873 8        48.594    20286428.136 8  83069528.07708      1998.603 8        52.469    20286428.627 7  83069528.08307      1998.606 7        47.375
> 2024 02 29 07 56 50.0000000  0 10
G10  23646985.420 6 124265747.23806      1858.172 6        40.500    23646988.141 4  96830458.20604      1447.929 4        29.469    23646988.761 7  96830454.19607      1447.925 7        42.875
G12  23256066.822 6 122211454.54406      5461.987 6        40.031    23256068.030 6  95229709.01006      4256.089 6        36.438    23256068.934 6  95229717.01506      4256.118 6        40.219
G13  23425062.632 6 123099537.96706     -1899.762 6        40.125    23425067.095 3  95921727.39203     -1480.322 3        23.875
G14  23926924.156 6 125736832.78306     -1515.842 6        38.844    23926928.230 3  97976765.68303     -1181.163 3        23.500    23926928.443 6  97976756.67506     -1181.315 6        40.063
G15  22021977.967 7 115726271.73907     -1268.726 7        44.188    22021978.549 6  90176317.48906      -988.617 6        41.125    22021978.800 6  90176312.47606      -988.551 6        41.719
G17  22254538.496 7 116948387.35507      1332.782 7        44.031    22254539.076 7  91128617.36307      1038.533 7        43.219    22254539.506 7  91128623.36207      1038.633 7        43.781
G19  22029707.521 7 115766894.76707      3742.946 7        42.500    22029706.422 5  90207968.58205      2916.579 5        34.031
G22  22614101.218 7 118837902.98607      -816.151 7        43.906    22614101.546 5  92600965.85505      -635.961 5        32.063
G23  23625818.913 6 124154516.38506      -380.276 6        40.344    23625820.555 4  96743787.37404      -296.302 4        24.875    23625821.084 6  96743783.36506      -296.470 6        38.906
G24  20285937.993 8 106603323.83808      2565.883 8        48.531    20285939.920 8  83067528.89908      1999.391 8        52.500    20285940.369 7  83067528.90407      1999.365 7        47.281
> 2024 02 29 07 56 51.0000000  0 10
G10  23646631.896 6 124263889.97506      1857.000 6        40.781    23646634.726 4  96829010.98704      1447.021 4        29.375    23646635.378 7  96829006.98307      1446.969 7        43.219
G12  23255027.717 6 122205993.07306      5461.281 6        40.313    23255028.758 6  95225453.32106      4255.537 6        36.594    23255029.698 6  95225461.33206      4255.627 6        40.375
G13  23425424.205 6 123101438.09206     -1900.270 6        39.813    23425428.670 3  95923207.99703     -1480.724 3        23.781
G14  23927212.923 6 125738349.12406     -1516.384 6        38.750    23927216.793 3  97977947.23803     -1181.592 3        23.406    23927217.043 6  97977938.23606     -1181.717 6        40.281
G15  22022219.464 7 115727541.08407     -1269.477 7        44.344    22022220.075 6  90177306.58506      -989.198 6        41.188    22022220.402 6  90177301.58006      -989.177 6        41.688
G17  22254284.925 7 116947055.28107      1331.907 7        44.344    22254285.579 7  91127579.38207      1037.850 7        43.219    22254286.045 7  91127585.37607      1037.782 7        43.813
G19  22028995.251 7 115763152.46407      3742.080 7        42.781    22028994.262 5  90205052.50405      2915.900 5        34.031
G22  22614256.650 7 118838719.70007      -816.725 7        43.844    22614256.961 5  92601602.25505      -636.408 5        32.063
G23  23625891.593 6 124154897.55006      -381.278 6        40.219    23625893.036 4  96744084.37704      -297.092 4        24.844    23625893.466 6  96744080.35606      -297.243 6        39.000
G24  20285449.840 8 106600758.64908      2564.938 8        48.531    20285451.789 8  83065530.04708      1998.652 8        52.531    20285452.256 7  83065530.04907      1998.695 7        47.250
> 2024 02 29 07 56 52.0000000  0 10
G10  23646278.805 6 124262033.53206      1856.138 6        41.156    23646281.477 4  96827564.40004      1446.336 4        29.281    23646282.105 7  96827560.39407      1446.278 7        43.156
G12  23253988.505 6 122200531.98206      5460.934 6        40.844    23253989.566 6  95221197.92906      4255.271 6        36.750    23253990.511 6  95221205.93406      4255.145 6        40.125
G13  23425785.840 6 123103338.55206     -1900.915 6        40.219    23425790.344 3  95924688.86503     -1481.222 3        23.563
G14  23927501.430 6 125739865.75706     -1516.780 6        39.031    23927505.423 3  97979129.02403     -1181.897 3        23.188    23927505.811 6  97979120.03706     -1181.973 6        40.125
G15  22022461.192 7 115728810.96907     -1270.256 7        44.438    22022461.708 6  90178296.10606      -989.812 6        41.156    22022461.898 6  90178291.10706      -989.853 6        41.594
G17  22254031.557 7 116945723.95207      1330.878 7        44.594    22254032.217 7  91126541.97907      1037.047 7        43.156    22254032.664 7  91126547.99707      1036.941 7        43.719
G19  22028283.178 7 115759410.88707      3741.136 7        43.375    22028282.224 5  90202136.99105      2915.161 5        33.969
G22  22614412.142 7 118839536.82707      -817.439 7        43.906    22614412.475 5  92602238.97305      -636.966 5        32.031
G23  23625964.332 6 124155279.29306      -381.963 6        40.313    23625965.597 4  96744381.83904      -297.625 4        24.969    23625965.891 6  96744377.82906      -297.628 6        39.344
G24  20284961.769 8 106598194.15508      2564.070 8        49.094    20284963.787 8  83063531.73708      1997.976 8        52.500    20284964.268 7  83063531.74307      1997.949 7        47.313
> 2024 02 29 07 56 53.0000000  0 10
G10  23645925.705 6 124260177.67306      1855.155 6        41.313    23645928.330 4  96826118.27404      1445.572 4        29.344    23645929.049 7  96826114.26607      1445.559 7        43.438
G12  23252949.453 6 122195071.05506      5460.497 6        40.563    23252950.415 6  95216942.66106      4254.931 6        36.875    23252951.551 6  95216950.67506      4254.954 6        40.719
G13  23426147.309 6 123105239.13006     -1900.982 6        40.563    23426152.009 3  95926169.82903     -1481.280 3        23.594
G14  23927790.012 6 125741382.50406     -1517.101 6        38.688    23927794.093 3  97980310.90203     -1182.168 3        23.250    23927794.623 6  97980301.90206     -1182.069 6        40.156
G15  22022702.884 7 115730081.23107     -1270.726 7        44.531    22022703.404 6  90179285.91706      -990.175 6        41.188    22022703.719 6  90179280.92106      -990.244 6        41.531
G17  22253778.406 7 116944393.20607      1330.134 7        44.719    22253778.980 7  91125505.03607      1036.467 7        43.219    22253779.497 7  91125511.03807      1036.560 7        43.781
G19  22027571.302 7 115755669.82407      3740.493 7        43.125    22027570.283 5  90199221.87805      2914.666 5        34.031
G22  22614567.735 7 118840354.15407      -817.680 7        44.031    22614568.012 5  92602875.84705      -637.151 5        32.031
G23  23626037.178 6 124155661.49606      -382.797 6        40.281    23626038.314 4  96744679.65704      -298.286 4        24.938    23626038.714 6  96744675.64706      -298.311 6        39.531
G24  20284473.901 8 106595630.15108      2563.477 8        49.063    20284475.884 8  83061533.81208      1997.514 8        52.531    20284476.360 7  83061533.81507      1997.560 7        47.500
> 2024 02 29 07 56 54.0000000  0 10
G10  23645572.859 6 124258322.06706      1855.756 6        41.500    23645575.224 4  96824672.34504      1446.035 4        29.469    23645576.166 7  96824668.34407      1446.009 7        43.656
G12  23251910.267 6 122189609.97906      5461.612 6        41.094    23251911.228 6  95212687.28006      4255.803 6        37.094    23251912.125 6  95212695.29206      4255.796 6        40.906
G13  23426508.930 6 123107139.48406     -1899.830 6        40.469    23426513.634 3  95927650.61303     -1480.380 3        23.844
G14  23928078.431 6 125742898.97306     -1516.008 6        39.094    23928082.674 3  97981492.55603     -1181.304 3        23.125    23928082.951 6  97981483.55706     -1181.260 6        40.313
G15  22022944.654 7 115731351.49707     -1269.927 7        44.719    22022945.090 6  90180275.73406      -989.553 6        41.219    22022945.245 6  90180270.71506      -989.377 6        41.688
G17  22253525.127 7 116943062.68007      1330.789 7        44.781    22253525.775 7  91124468.26107      1036.979 7        43.281    22253526.297 7  91124474.26507      1037.063 7        43.813
G19  22026859.484 7 115751928.96907      3741.093 7        43.281    22026858.396 5  90196306.92505      2915.135 5        34.125
G22  22614723.411 7 118841171.37307      -816.809 7        43.938    22614723.530 5  92603512.63605      -636.470 5        32.031
G23  23626109.993 6 124156043.75606      -382.008 6        40.406    23626110.992 4  96744977.51604      -297.675 4        25.031    23626111.812 6  96744973.52806      -297.744 6        39.719
G24  20283986.049 8 106593066.30408      2564.173 8        49.281    20283988.008 8  83059536.00908      1998.057 8        52.594    20283988.503 7  83059536.01707      1998.075 7        47.500
> 2024 02 29 07 56 55.0000000  0 10
G10  23645220.027 6 124256466.83306      1854.157 6        41.188    23645222.194 4  96823226.70704      1444.799 4        29.438    23645223.176 7  96823222.70107      1444.787 7        43.438
G12  23250871.131 6 122184148.86906      5460.220 6        40.563    23250872.031 6  95208431.86506      4254.717 6        37.156    23250872.881 6  95208439.86906      4254.758 6        40.656
G13  23426870.469 6 123109039.76606     -1900.994 6        40.063    23426875.213 3  95929131.34703     -1481.285 3        23.625
G14  23928366.710 6 125744415.30906     -1517.104 6        38.563    23928371.214 3  97982674.11003     -1182.151 3        23.250    23928371.574 6  97982665.12006     -1182.318 6        40.156
G15  22023186.357 7 115732621.90607     -1271.347 7        44.625    22023186.808 6  90181265.66106      -990.656 6        41.281    22023187.023 6  90181260.65506      -990.675 6        41.750
G17  22253272.027 7 116941732.50507      1329.146 7        44.375    22253272.645 7  91123431.76007      1035.700 7        43.281    22253273.249 7  91123437.75607      1035.790 7        43.750
G19  22026147.802 7 115748188.39907      3739.475 7        42.906    22026146.554 5  90193392.19805      2913.872 5        34.063
G22  22614878.643 7 118841988.54007      -817.993 7        43.563    22614879.062 5  92604149.38705      -637.398 5        31.938
G23  23626183.221 6 124156426.24406      -383.438 6        39.531    23626183.763 4  96745275.55804      -298.787 4        25.000    23626184.902 6  96745271.53806      -298.757 6        39.781
G24  20283498.283 8 106590502.74008      2562.445 8        48.969    20283500.181 8  83057538.42608      1996.712 8        52.563    20283500.609 7  83057538.42707      1996.775 7        47.500
> 2024 02 29 07 56 56.0000000  0 10
G10  23644867.212 6 124254612.50006      1854.290 6        41.219    23644869.361 4  96821781.77004      1444.905 4        29.594    23644870.158 7  96821777.76707      1444.859 7        43.531
G12  23249832.125 6 122178688.21606      5460.808 6        40.125    23249832.911 6  95204176.81306      4255.173 6        37.250    23249833.926 6  95204184.82506      4255.091 6        40.844
G13  23427232.162 6 123110940.47106     -1900.410 6        39.875    23427236.936 3  95930612.40603     -1480.835 3        23.594
G14  23928655.254 6 125745932.06406     -1516.710 6        38.344    23928659.871 3  97983855.99103     -1181.853 3        23.156    23928659.905 6  97983846.98406     -1181.828 6        40.188
G15  22023428.285 7 115733892.95507     -1270.938 7        44.594    22023428.665 6  90182256.08606      -990.340 6        41.406    22023428.966 6  90182251.07706      -990.353 6        41.813
G17  22253019.124 7 116940403.18507      1329.383 7        44.188    22253019.681 7  91122395.92307      1035.886 7        43.344    22253020.194 7  91122401.92307      1035.906 7        43.844
G19  22025436.274 7 115744448.67107      3739.660 7        42.938    22025434.882 5  90190478.12505      2914.015 5        34.063
G22  22615034.132 7 118842806.24607      -817.544 7        43.688    22615034.684 5  92604786.55705      -637.046 5        31.875
G23  23626256.158 6 124156809.42406      -383.083 6        40.000    23626256.664 4  96745574.13604      -298.496 4        25.125    23626258.035 6  96745570.12306      -298.512 6        39.906
G24  20283010.709 8 106587939.96608      2562.818 8        48.781    20283012.510 8  83055541.45908      1997.002 8        52.625    20283012.871 7  83055541.46207      1996.967 7        47.625
> 2024 02 29 07 56 57.0000000  0 10
G10  23644514.472 6 124252758.16106      1853.313 6        41.281    23644516.514 4  96820336.82604      1444.140 4        29.688    23644517.158 7  96820332.82807      1444.072 7        43.531
G12  23248792.827 6 122173227.14606      5460.464 6        40.375    23248793.706 6  95199921.43306      4254.917 6        37.281    23248794.630 6  95199929.44706      4254.684 6        40.938
G13  23427593.561 6 123112840.70106     -1901.088 6        40.156    23427598.548 3  95932093.10103     -1481.355 3        23.625
G14  23928944.135 6 125747448.29406     -1517.140 6        37.969    23928948.416 3  97985037.47003     -1182.174 3        23.219    23928948.500 6  97985028.42706     -1182.028 6        39.906
G15  22023670.134 7 115735163.76407     -1271.661 7        44.625    22023670.473 6  90183246.32206      -990.903 6        41.469    22023670.755 6  90183241.32006      -990.981 6        41.719
G17  22252766.103 7 116939073.84607      1328.239 7        44.031    22252766.712 7  91121360.07207      1034.988 7        43.313    22252767.105 7  91121366.07307      1034.991 7        43.781
G19  22024724.528 7 115740708.86307      3738.743 7        43.188    22024723.197 5  90187563.99005      2913.308 5        34.094
G22  22615189.799 7 118843623.54407      -818.088 7        43.438    22615190.225 5  92605423.40705      -637.467 5        31.844
G23  23626329.145 6 124157192.43206      -383.915 6        39.688    23626329.520 4  96745872.57604      -299.152 4        25.188    23626331.045 6  96745868.55906      -299.134 6        40.094
G24  20282523.122 8 106585377.09108      2561.913 8        48.719    20282524.821 8  83053544.41108      1996.295 8        52.625    20282525.226 7  83053544.41707      1996.227 7        47.656
> 2024 02 29 07 56 58.0000000  0 10
G10  23644161.852 6 124250904.80306      1853.849 6        41.344    23644163.859 4  96818892.65004      1444.569 4        29.656    23644164.473 7  96818888.66007      1444.434 7        43.188
G12  23247753.657 6 122167766.68206      5460.982 6        40.344    23247754.617 6  95195666.52606      4255.315 6        37.281    23247755.291 6  95195674.52206      4255.297 6        40.719
G13  23427955.102 6 123114741.46406     -1900.162 6        40.063    23427960.257 3  95933574.20603     -1480.642 3        23.719
G14  23929232.620 6 125748964.97406     -1515.926 6        37.938    23929236.978 3  97986219.29103     -1181.232 3        23.125    23929237.070 6  97986210.27606     -1181.307 6        40.000
G15  22023912.148 7 115736435.32207     -1271.030 7        44.469    22023912.428 6  90184237.14606      -990.412 6        41.469    22023912.989 6  90184232.13806      -990.412 6        41.781
G17  22252513.278 7 116937745.46307      1328.786 7        44.125    22252513.922 7  91120324.96607      1035.422 7        43.281    22252514.237 7  91120330.96907      1035.384 7        43.875
G19  22024013.055 7 115736969.95407      3739.421 7        43.531    22024011.681 5  90184650.55605      2913.830 5        34.063
G22  22615345.373 7 118844441.44107      -817.234 7        43.563    22615345.877 5  92606060.72805      -636.804 5        31.875
G23  23626402.052 6 124157576.23506      -383.345 6        40.156    23626402.550 4  96746171.63804      -298.722 4        25.313    23626403.788 6  96746167.63706      -298.733 6        40.000
G24  20282035.593 8 106582815.08008      2562.525 8        48.875    20282037.294 8  83051548.03808      1996.776 8        52.594    20282037.696 7  83051548.04507      1996.771 7        47.531
> 2024 02 29 07 56 59.0000000  0 10
G10  23643809.239 6 124249051.97406      1852.709 6        41.344    23643811.308 4  96817448.88804      1443.678 4        29.625    23643811.573 7  96817444.87907      1443.667 7        43.469
G12  23246714.371 6 122162306.25506      5460.537 6        40.281    23246715.538 6  95191411.64506      4254.965 6        37.219    23246716.039 6  95191419.64406      4254.902 6        40.656
G13  23428316.837 6 123116642.22506     -1900.733 6        39.875    23428321.917 3  95935055.31203     -1481.090 3        23.688
G14  23929521.256 6 125750481.66306     -1516.539 6        38.250    23929525.590 3  97987401.11303     -1181.712 3        23.000    23929525.433 6  97987392.10406     -1181.873 6        39.750
G15  22024154.066 7 115737707.13307     -1271.945 7        44.688    22024154.432 6  90185228.16606      -991.120 6        41.438    22024155.210 6  90185223.16006      -991.115 6        41.938
G17  22252260.623 7 116936417.54207      1327.797 7        44.250    22252261.218 7  91119290.22207      1034.651 7        43.219    22252261.532 7  91119296.21507      1034.665 7        43.469
G19  22023301.830 7 115733231.51207      3738.319 7        43.531    22023300.250 5  90181737.48605      2912.976 5        33.969
G22  22615501.165 7 118845259.45007      -817.934 7        43.500    22615501.552 5  92606698.13205      -637.343 5        31.750
G23  23626475.014 6 124157960.38706      -384.195 6        40.188    23626475.657 4  96746470.97804      -299.371 4        25.344    23626476.883 6  96746466.95306      -299.435 6        40.281
G24  20281548.239 8 106580253.48008      2561.470 8        48.813    20281549.847 8  83049551.98708      1995.956 8        52.531    20281550.186 7  83049551.99007      1995.962 7        47.719
> 2024 02 29 07 57  0.0000000  0 10
G10  23643456.698 6 124247199.80206      1852.570 6        41.375    23643458.846 4  96816005.63304      1443.570 4        29.688    23643459.197 7  96816001.62707      1443.446 7        43.250
G12  23245675.177 6 122156846.12106      5460.573 6        40.719    23245676.520 6  95187156.99306      4254.989 6        37.219    23245676.975 6  95187165.01006      4255.044 6        40.531
G13  23428678.739 6 123118543.22706     -1900.452 6        39.938    23428683.605 3  95936536.60603     -1480.858 3        23.656
G14  23929809.670 6 125751998.55106     -1516.360 6        38.438    23929814.184 3  97988583.08503     -1181.563 3        23.094    23929814.230 6  97988574.08706     -1181.604 6        39.688
G15  22024396.216 7 115738979.39807     -1271.897 7        44.656    22024396.534 6  90186219.53706      -991.085 6        41.563    22024397.139 6  90186214.52106      -991.041 6        41.969
G17  22252007.968 7 116935090.28707      1327.529 7        44.375    22252008.643 7  91118255.99607      1034.444 7        43.219    22252008.873 7  91118261.99207      1034.454 7        43.375
G19  22022590.521 7 115729493.67607      3738.141 7        43.813    22022588.940 5  90178824.88605      2912.840 5        34.063
G22  22615656.933 7 118846077.75207      -817.769 7        43.406    22615657.277 5  92607335.76705      -637.213 5        31.688
G23  23626548.280 6 124158345.03406      -384.375 6        40.188    23626548.817 4  96746770.70004      -299.512 4        25.406    23626549.994 6  96746766.68206      -299.504 6        40.031
G24  20281060.888 8 106577692.46908      2561.329 8        49.000    20281062.507 8  83047556.39108      1995.842 8        52.563    20281062.791 7  83047556.39907      1995.853 7        47.531
> 2024 02 29 07 57  1.0000000  0 10
G10  23643104.245 6 124245347.99006      1851.594 6        41.406    23643106.441 4  96814562.66304      1442.799 4        29.625    23643106.897 7  96814558.63707      1442.879 7        43.531
G12  23244635.898 6 122151385.90106      5460.346 6        41.094    23244637.485 6  95182902.28106      4254.818 6        37.156    23244638.199 6  95182910.29306      4254.830 6        40.469
G13  23429040.778 6 123120444.07806     -1900.604 6        39.406    23429045.247 3  95938017.78303     -1480.969 3        23.344
G14  23930098.207 6 125753515.24606     -1516.639 6        38.438    23930102.796 3  97989764.91303     -1181.797 3        23.063    23930102.835 6  97989755.92206     -1181.791 6        39.688
G15  22024638.259 7 115740251.74507     -1272.331 7        44.500    22024638.650 6  90187210.97406      -991.422 6        41.563    22024639.528 6  90187205.96306      -991.452 6        41.719
G17  22251755.562 7 116933763.33507      1326.778 7        44.406    22251756.126 7  91117222.00507      1033.854 7        43.156    22251756.475 7  91117228.00107      1033.886 7        43.406
G19  22021879.406 7 115725756.10007      3737.479 7        43.594    22021877.675 5  90175912.49105      2912.325 5        34.000
G22  22615812.486 7 118846896.00407      -818.159 7        43.219    22615812.997 5  92607973.36305      -637.525 5        31.563
G23  23626621.313 6 124158729.83706      -384.933 6        40.531    23626622.058 4  96747070.54604      -299.942 4        25.375    23626623.035 6  96747066.53006      -299.861 6        39.719
G24  20280573.611 8 106575131.68708      2560.723 8        48.844    20280575.212 8  83045560.97708      1995.367 8        52.500    20280575.485 7  83045560.97907      1995.446 7        47.500
> 2024 02 29 07 57  2.0000000  0 10
G10  23642751.839 6 124243496.56606      1851.385 6        41.219    23642754.149 4  96813119.99604      1442.640 4        29.625    23642754.614 7  96813115.99607      1442.505 7        43.719
G12  23243596.796 6 122145925.69106      5460.264 6        41.219    23243598.441 6  95178647.57606      4254.750 6        37.313    23243599.310 6  95178655.57606      4254.837 6        40.625
G13  23429402.763 6 123122344.92906     -1900.848 6        38.938    23429406.912 3  95939498.95903     -1481.170 3        23.406
G14  23930386.793 6 125755031.86106     -1516.373 6        38.469    23930391.453 3  97990946.68503     -1181.604 3        22.875    23930391.493 6  97990937.69606     -1181.605 6        39.844
G15  22024880.465 7 115741524.26407     -1272.462 7        44.563    22024880.802 6  90188202.54406      -991.526 6        41.594    22024881.577 7  90188197.53907      -991.587 7        42.156
G17  22251503.230 7 116932436.77607      1326.543 7        44.188    22251503.676 7  91116188.31907      1033.672 7        43.125    22251504.046 7  91116194.31307      1033.614 7        43.313
G19  22021168.135 7 115722018.89107      3737.100 7        43.500    22021166.473 5  90173000.38005      2912.030 5        33.969
G22  22615968.088 7 118847714.29707      -818.197 7        43.281    22615968.676 5  92608610.99105      -637.551 5        31.594
G23  23626694.699 6 124159114.90806      -385.202 6        40.344    23626695.352 4  96747370.59804      -300.159 4        25.375    23626696.157 6  96747366.58106      -300.161 6        40.063
G24  20280086.433 8 106572571.23108      2560.400 8        48.781    20280087.979 8  83043565.81508      1995.117 8        52.500    20280088.190 7  83043565.82307      1995.090 7        47.625
> 2024 02 29 07 57  3.0000000  0 10
G10  23642399.506 6 124241645.70606      1851.344 6        41.406    23642401.960 4  96811677.76704      1442.604 4        29.656    23642402.179 7  96811673.76207      1442.428 7        43.500
G12  23242557.899 6 122140465.60206      5460.766 6        41.125    23242559.415 6  95174392.96106      4255.140 6        37.375    23242560.308 6  95174400.96706      4255.118 6        40.875
G13  23429764.317 6 123124245.77406     -1900.059 6        39.406    23429768.653 3  95940980.12503     -1480.548 3        23.313
G14  23930675.372 6 125756548.48706     -1515.733 6        37.906    23930680.096 3  97992128.47503     -1181.087 3        22.875    23930680.231 6  97992119.47906     -1181.144 6        40.188
G15  22025122.756 7 115742797.08707     -1272.305 7        44.469    22025123.017 6  90189194.35206      -991.404 6        41.719    22025123.845 7  90189189.34707      -991.313 7        42.469
G17  22251250.832 7 116931110.72807      1326.501 7        44.250    22251251.333 7  91115155.03607      1033.638 7        43.094    22251251.723 7  91115161.02907      1033.701 7        43.219
G19  22020457.032 7 115718282.14107      3737.241 7        43.281    22020455.368 5  90170088.62405      2912.139 5        34.000
G22  22616123.911 7 118848532.72907      -817.782 7        43.250    22616124.409 5  92609248.72705      -637.230 5        31.500
G23  23626767.906 6 124159500.30306      -384.823 6        40.094    23626768.700 4  96747670.91104      -299.869 4        25.375    23626769.790 6  96747666.88606      -299.842 6        40.000
G24  20279599.289 8 106570011.20708      2560.515 8        48.688    20279600.832 8  83041570.99108      1995.207 8        52.469    20279601.032 7  83041570.99807      1995.215 7        47.500
> 2024 02 29 07 57  4.0000000  0 10
G10  23642047.447 6 124239795.27006      1849.871 6        41.500    23642049.842 4  96810235.86404      1441.458 4        29.656    23642050.023 7  96810231.85007      1441.553 7        43.531
G12  23241518.899 6 122135005.49806      5460.035 6        40.781    23241520.406 6  95170138.33806      4254.567 6        37.375    23241521.173 6  95170146.35406      4254.555 6        40.938
G13  23430125.851 6 123126146.60006     -1900.864 6        39.563    23430130.389 3  95942461.28303     -1481.192 3        23.156
G14  23930963.935 6 125758065.06906     -1516.807 6        38.031    23930968.690 3  97993310.21803     -1181.921 3        22.563    23930968.916 6  97993301.19906     -1181.844 6        40.063
G15  22025365.005 7 115744070.08607     -1273.239 7        44.563    22025365.271 6  90190186.29706      -992.134 6        41.719    22025366.247 7  90190181.28707      -992.063 7        42.719
G17  22250998.506 7 116929785.05807      1325.274 7        44.125    22250999.057 7  91114122.04507      1032.681 7        43.031    22250999.353 7  91114128.04007      1032.813 7        43.469
G19  22019745.955 7 115714545.74107      3736.080 7        43.250    22019744.345 5  90167177.14605      2911.224 5        33.906
G22  22616279.812 7 118849351.18707      -818.642 7        43.156    22616280.156 5  92609886.48305      -637.901 5        31.406
G23  23626841.498 6 124159885.94806      -385.826 6        39.531    23626842.044 4  96747971.41004      -300.632 4        25.313    23626843.234 6  96747967.38606      -300.808 6        40.375
G24  20279112.122 8 106567451.49108      2559.408 8        48.625    20279113.742 8  83039576.40708      1994.344 8        52.406    20279113.930 7  83039576.41707      1994.341 7        47.563
> 2024 02 29 07 57  5.0000000  0 10
G10  23641695.311 6 124237945.28506      1849.210 6        41.344    23641697.809 4  96808794.31604      1440.945 4        29.719    23641698.093 7  96808790.31507      1440.993 7        43.500
G12  23240479.993 6 122129545.46606      5459.544 6        40.969    23240481.416 6  95165883.77306      4254.185 6        37.375    23240482.119 6  95165891.77406      4254.317 6        41.063
G13  23430487.645 6 123128047.44406     -1901.249 6        39.719    23430492.108 3  95943942.45903     -1481.495 3        23.219
G14  23931252.961 6 125759581.55306     -1516.719 6        37.813    23931257.275 3  97994491.88603     -1181.855 3        22.500    23931257.487 6  97994482.89406     -1181.906 6        40.156
G15  22025607.280 7 115745343.30707     -1273.671 7        44.531    22025607.575 6  90191178.41606      -992.472 6        41.813    22025608.531 7  90191173.41407      -992.481 7        43.031
G17  22250746.340 7 116928459.84707      1324.509 7        44.063    22250746.876 7  91113089.41307      1032.088 7        43.000    22250747.137 7  91113095.40707      1032.044 7        43.625
G19  22019034.698 7 115710809.76307      3735.238 7        43.344    22019033.406 5  90164265.99605      2910.571 5        33.875
G22  22616435.842 7 118850169.75407      -819.138 7        42.906    22616435.938 5  92610524.32005      -638.289 5        31.375
G23  23626914.960 6 124160271.91006      -386.536 6        39.469    23626915.463 4  96748272.15504      -301.188 4        25.375    23626916.746 6  96748268.13806      -301.137 6        40.563
G24  20278625.076 8 106564892.15308      2558.822 8        48.688    20278626.729 8  83037582.11908      1993.887 8        52.406    20278626.905 7  83037582.12707      1993.805 7        47.625
> 2024 02 29 07 57  6.0000000  0 10
G10  23641343.334 6 124236095.84406      1849.201 6        41.750    23641345.888 4  96807353.18804      1440.943 4        29.875    23641346.051 7  96807349.19207      1440.833 7        43.625
G12  23239441.097 6 122124085.54406      5459.802 6        40.656    23239442.417 6  95161629.28706      4254.382 6        37.438    23239443.307 6  95161637.29206      4254.576 6        41.563
G13  23430849.350 6 123129948.34806     -1901.017 6        39.688    23430853.813 3  95945423.68003     -1481.309 3        23.125
G14  23931541.521 6 125761098.12406     -1516.573 6        37.531    23931545.869 3  97995673.62603     -1181.749 3        22.625    23931546.227 6  97995664.60706     -1181.721 6        40.156
G15  22025849.582 7 115746616.82807     -1273.627 7        44.719    22025849.932 6  90192170.76606      -992.439 6        41.906    22025851.111 7  90192165.76207      -992.449 7        42.875
G17  22250494.224 7 116927135.12507      1324.391 7        43.625    22250494.793 7  91112057.15807      1031.995 7        43.031    22250495.209 7  91112063.15307      1031.992 7        43.875
G19  22018323.812 7 115707074.23007      3735.161 7        43.656    22018322.530 5  90161355.18605      2910.510 5        33.906
G22  22616591.491 7 118850988.44807      -818.842 7        42.844    22616591.747 5  92611162.26005      -638.055 5        31.438
G23  23626988.502 6 124160658.21906      -386.499 6        39.719    23626988.999 4  96748573.16404      -301.152 4        25.438    23626990.242 6  96748569.13206      -301.189 6        40.719
G24  20278138.009 8 106562333.24908      2558.656 8        48.625    20278139.787 8  83035588.16308      1993.758 8        52.406    20278139.930 7  83035588.16707      1993.741 7        47.563
> 2024 02 29 07 57  7.0000000  0 10
G10  23640991.583 6 124234247.28406      1848.335 6        41.125    23640994.105 4  96805912.75204      1440.260 4        29.906    23640994.077 7  96805908.74107      1440.224 7        43.719
G12  23238402.348 6 122118626.09506      5459.454 6        40.750    23238403.529 6  95157375.17306      4254.117 6        37.531    23238404.326 6  95157383.17906      4254.037 6        41.469
G13  23431211.113 6 123131849.64106     -1901.294 6        39.438    23431215.630 3  95946905.19503     -1481.517 3        23.250
G14  23931830.387 6 125762615.00706     -1516.861 6        37.594    23931834.504 3  97996855.60803     -1181.969 3        22.531    23931835.036 6  97996846.60906     -1182.038 6        40.031
G15  22026092.213 7 115747890.98307     -1274.224 7        44.188    22026092.411 7  90193163.61307      -992.901 7        42.000    22026093.664 7  90193158.59907      -992.840 7        42.969
G17  22250242.191 7 116925811.24307      1323.666 7        43.563    22250242.866 7  91111025.56107      1031.432 7        43.031    22250243.308 7  91111031.55407      1031.474 7        43.719
G19  22017613.039 7 115703339.50307      3734.618 7        43.313    22017611.819 5  90158445.01505      2910.093 5        33.906
G22  22616747.379 7 118851807.62507      -819.095 7        42.813    22616747.628 5  92611800.57805      -638.254 5        31.406
G23  23627062.192 6 124161045.21606      -387.192 6        39.813    23627062.642 4  96748874.71504      -301.705 4        25.500    23627063.967 6  96748870.69406      -301.573 6        40.656
G24  20277651.164 8 106559775.12008      2557.915 8        48.563    20277653.002 8  83033594.81708      1993.179 8        52.438    20277653.150 7  83033594.82807      1993.154 7        47.500
> 2024 02 29 07 57  8.0000000  0 10
G10  23640639.945 6 124232399.57806      1847.412 6        41.688    23640642.501 5  96804472.97705      1439.546 5        30.125    23640642.485 7  96804468.96207      1439.623 7        43.938
G12  23237363.332 6 122113167.06606      5458.982 6        40.750    23237364.731 6  95153121.38306      4253.754 6        37.688    23237365.493 6  95153129.38906      4253.649 6        41.406
G13  23431573.162 6 123133751.31806     -1901.534 6        39.031    23431577.563 3  95948387.01103     -1481.703 3        23.313
G14  23932119.378 6 125764132.24806     -1517.151 6        37.188    23932123.218 3  97998037.86603     -1182.189 3        22.531    23932123.767 6  97998028.86306     -1182.193 6        40.094
G15  22026334.732 7 115749165.71807     -1274.913 7        44.344    22026335.005 7  90194156.90907      -993.434 7        42.063    22026336.255 7  90194151.90707      -993.446 7        42.969
G17  22249990.344 7 116924488.19107      1322.841 7        43.813    22249991.096 7  91109994.61007      1030.789 7        43.031    22249991.736 7  91110000.60807      1030.767 7        43.781
G19  22016902.545 7 115699605.59107      3733.714 7        43.219    22016901.265 5  90155535.47205      2909.395 5        33.969
G22  22616903.383 7 118852627.26707      -819.690 7        42.688    22616903.612 5  92612439.25605      -638.709 5        31.406
G23  23627135.913 6 124161432.88106      -387.845 6        39.344    23627136.370 4  96749176.78504      -302.203 4        25.375    23627137.631 6  96749172.77706      -302.196 6        40.813
G24  20277164.437 8 106557217.73008      2557.154 8        48.688    20277166.351 8  83031602.04608      1992.587 8        52.438    20277166.430 7  83031602.05207      1992.612 7        47.563
> 2024 02 29 07 57  9.0000000  0 10
G10  23640288.168 6 124230551.98206      1846.894 6        41.281    23640290.969 5  96803033.29005      1439.138 5        30.156    23640290.783 7  96803029.29207      1439.126 7        43.875
G12  23236324.306 6 122107707.75406      5458.819 6        40.625    23236325.866 6  95148867.37406      4253.627 6        37.688    23236326.561 6  95148875.37206      4253.633 6        41.313
G13  23431935.328 6 123135652.66606     -1901.826 6        39.188    23431939.415 3  95949868.57503     -1481.945 3        23.406
G14  23932407.951 6 125765649.12406     -1517.137 6        38.094    23932411.866 3  97999219.83303     -1182.181 3        22.563    23932412.210 6  97999210.81406     -1182.268 6        40.000
G15  22026577.352 7 115750440.35207     -1275.113 7        44.375    22026577.573 7  90195150.12807      -993.593 7        42.188    22026578.708 7  90195145.11507      -993.600 7        43.031
G17  22249738.546 7 116923165.23607      1322.271 7        43.875    22249739.348 7  91108963.73407      1030.338 7        43.063    22249740.082 7  91108969.72707      1030.389 7        43.781
G19  22016192.151 7 115695871.70707      3733.304 7        43.375    22016190.719 5  90152625.95105      2909.069 5        34.000
G22  22617059.289 7 118853446.64007      -819.742 7        42.688    22617059.528 5  92613077.72605      -638.759 5        31.375
G23  23627209.630 6 124161820.49706      -388.294 6        39.750    23627210.103 4  96749478.81704      -302.565 4        25.438    23627211.227 6  96749474.82406      -302.478 6        40.906
G24  20276677.768 8 106554660.37508      2556.716 8        48.719    20276679.704 8  83029609.30108      1992.246 8        52.500    20276679.757 7  83029609.30707      1992.248 7        47.469
> 2024 02 29 07 57 10.0000000  0 10
G10  23639936.474 6 124228704.99506      1846.403 6        41.813    23639939.549 5  96801594.08105      1438.763 5        30.344    23639939.399 7  96801590.08207      1438.858 7        44.188
G12  23235285.324 6 122102248.62006      5458.672 6        40.375    23235287.054 6  95144613.50606      4253.515 6        37.625    23235287.627 6  95144621.51406      4253.479 6        41.688
G13  23432297.185 6 123137554.13006     -1901.682 6        39.344    23432301.277 3  95951350.22903     -1481.817 3        23.250
G14  23932696.466 6 125767166.10006     -1517.336 6        37.969    23932700.572 3  98000401.89303     -1182.337 3        22.625    23932700.826 6  98000392.87606     -1182.376 6        40.250
G15  22026819.934 7 115751715.34807     -1275.505 7        44.469    22026820.212 7  90196143.62907      -993.897 7        42.188    22026821.328 7  90196138.60807      -993.812 7        43.188
G17  22249486.828 7 116921842.85207      1321.824 7        43.875    22249487.716 7  91107933.30307      1029.997 7        43.063    22249488.464 7  91107939.30407      1029.983 7        43.906
G19  22015481.723 7 115692138.37207      3732.840 7        43.406    22015480.272 5  90149716.86005      2908.705 5        34.031
G22  22617215.202 7 118854266.25107      -820.046 7        43.031    22617215.490 5  92613716.38105      -638.989 5        31.344
G23  23627283.359 6 124162208.56206      -388.707 6        39.844    23627283.916 4  96749781.21304      -302.881 4        25.531    23627285.157 6  96749777.18906      -302.775 6        40.875
G24  20276191.229 8 106552103.51608      2556.316 8        48.844    20276193.156 8  83027616.94308      1991.934 8        52.500    20276193.216 7  83027616.95507      1991.893 7        47.500
> 2024 02 29 07 57 11.0000000  0 10
G10  23639585.094 7 124226858.56007      1845.862 7        42.156    23639588.209 5  96800155.29505      1438.337 5        30.406    23639588.150 7  96800151.29707      1438.432 7        44.125
G12  23234246.432 6 122096789.61706      5458.691 6        41.344    23234248.265 6  95140359.73506      4253.528 6        37.688    23234248.817 6  95140367.74506      4253.558 6        41.750
G13  23432659.082 6 123139455.68306     -1901.881 6        39.344    23432663.143 3  95952831.95303     -1481.973 3        23.531
G14  23932984.764 6 125768683.08606     -1517.231 6        38.688    23932989.206 3  98001583.95503     -1182.240 3        22.656    23932989.570 6  98001574.93206     -1182.439 6        40.281
G15  22027062.662 7 115752990.63707     -1275.679 7        44.969    22027062.918 7  90197137.35607      -994.031 7        42.281    22027063.904 7  90197132.35107      -994.052 7        43.375
G17  22249235.259 7 116920520.98507      1321.277 7        44.313    22249236.169 7  91106903.27407      1029.567 7        43.156    22249236.913 7  91106909.26507      1029.643 7        43.969
G19  22014771.259 7 115688405.51707      3732.407 7        44.031    22014769.915 5  90146808.14205      2908.370 5        34.031
G22  22617371.169 7 118855085.98507      -820.010 7        43.563    22617371.460 5  92614355.13205      -638.961 5        31.406
G23  23627357.330 6 124162596.97006      -388.868 6        40.281    23627357.805 4  96750083.86204      -303.001 4        25.594    23627359.007 6  96750079.83506      -303.056 6        41.063
G24  20275704.827 8 106549547.10908      2555.960 8        49.250    20275706.697 8  83025624.93808      1991.657 8        52.563    20275706.681 7  83025624.95207      1991.626 7        47.719
> 2024 02 29 07 57 12.0000000  0 10
G10  23639234.058 7 124225013.26007      1844.594 7        42.031    23639237.079 5  96798717.39805      1437.343 5        30.594    23639237.203 7  96798713.40307      1437.356 7        44.125
G12  23233207.657 6 122091331.35506      5457.732 6        41.688    23233209.614 6  95136106.54906      4252.781 6        37.781    23233210.294 6  95136114.54306      4252.890 6        41.656
G13  23433020.669 6 123141357.87706     -1902.631 6        39.594    23433025.166 3  95954314.18103     -1482.556 3        23.594
G14  23933273.874 6 125770200.69706     -1518.044 6        38.281    23933277.984 3  98002766.50103     -1182.888 3        22.688    23933278.403 6  98002757.49506     -1182.946 6        40.313
G15  22027305.461 7 115754266.83407     -1276.715 7        44.906    22027305.803 7  90198131.79207      -994.837 7        42.344    22027306.703 7  90198126.77707      -994.845 7        43.375
G17  22248983.951 7 116919200.20807      1320.161 7        44.250    22248984.837 7  91105874.09607      1028.700 7        43.156    22248985.616 7  91105880.10107      1028.638 7        43.625
G19  22014061.194 7 115684673.73207      3731.134 7        44.094    22014059.785 5  90143900.26005      2907.377 5        34.063
G22  22617527.393 7 118855906.49107      -820.946 7        43.344    22617527.582 5  92614994.48605      -639.698 5        31.344
G23  23627431.459 6 124162986.34406      -390.126 6        39.906    23627431.940 4  96750387.26104      -303.984 4        25.438    23627433.122 6  96750383.24706      -303.690 6        41.063
G24  20275218.598 8 106546991.73508      2554.804 8        49.156    20275220.435 8  83023633.73808      1990.758 8        52.563    20275220.535 7  83023633.74207      1990.817 7        47.469
> 2024 02 29 07 57 13.0000000  0 10
G10  23638883.052 6 124223168.96606      1844.408 6        41.469    23638886.151 5  96797280.28405      1437.203 5        30.500    23638886.416 7  96797276.28907      1437.154 7        43.750
G12  23232169.078 6 122085873.66606      5458.105 6        41.000    23232171.066 6  95131853.80606      4253.068 6        37.781    23232171.494 6  95131861.79506      4253.028 6        41.531
G13  23433382.849 6 123143260.63606     -1902.494 6        39.438    23433387.278 3  95955796.83803     -1482.453 3        23.500
G14  23933562.869 6 125771718.82306     -1517.786 6        37.656    23933566.886 3  98003949.44303     -1182.676 3        22.625    23933567.262 6  98003940.44506     -1182.663 6        40.063
G15  22027548.431 7 115755543.79007     -1276.716 7        44.688    22027548.827 7  90199126.81907      -994.843 7        42.438    22027549.578 7  90199121.80807      -994.911 7        43.219
G17  22248732.971 7 116917880.42707      1319.932 7        43.563    22248733.693 7  91104845.69007      1028.521 7        43.188    22248734.241 7  91104851.70007      1028.565 7        43.844
G19  22013351.297 7 115680942.90207      3730.924 7        43.594    22013349.839 5  90140993.11805      2907.210 5        34.125
G22  22617683.650 7 118856727.61407      -820.816 7        43.094    22617683.838 5  92615634.31905      -639.596 5        31.313
G23  23627505.527 6 124163376.54206      -389.934 6        39.688    23627506.272 4  96750691.30804      -303.851 4        25.625    23627507.261 6  96750687.31306      -303.977 6        41.375
G24  20274732.542 8 106544437.28008      2554.634 8        48.969    20274734.343 8  83021643.25308      1990.624 8        52.594    20274734.508 7  83021643.25707      1990.607 7        47.594
> 2024 02 29 07 57 14.0000000  0 10
G10  23638532.129 6 124221324.81106      1843.993 6        41.500    23638535.227 5  96795843.28005      1436.882 5        30.438    23638535.517 7  96795839.27707      1436.836 7        43.531
G12  23231130.495 6 122080415.68706      5457.873 6        40.750    23231132.470 6  95127600.83306      4252.884 6        37.688    23231132.993 6  95127608.84206      4252.756 6        41.719
G13  23433745.140 6 123145163.04506     -1902.484 6        39.219    23433749.296 3  95957279.22903     -1482.445 3        23.313
G14  23933851.662 6 125773236.57306     -1517.651 6        37.688    23933855.615 3  98005132.10303     -1182.590 3        22.469    23933855.982 6  98005123.09606     -1182.631 6        40.375
G15  22027791.386 7 115756820.63007     -1276.972 7        44.594    22027791.824 7  90200121.75407      -995.037 7        42.469    22027792.625 7  90200116.74107      -995.064 7        43.406
G17  22248481.869 7 116916560.74107      1319.437 7        43.719    22248482.567 7  91103817.36207      1028.133 7        43.219    22248483.113 7  91103823.37107      1028.164 7        43.688
G19  22012641.262 7 115677212.13207      3730.460 7        43.719    22012639.920 5  90138086.02205      2906.856 5        34.156
G22  22617839.973 7 118857548.48107      -820.974 7        42.875    22617840.019 5  92616273.94905      -639.716 5        31.313
G23  23627579.770 6 124163766.70306      -390.333 6        39.656    23627580.564 4  96750995.33304      -304.167 4        25.594    23627581.448 6  96750991.33106      -304.214 6        41.531
G24  20274246.479 8 106541882.84408      2554.207 8        48.750    20274248.250 8  83019652.78208      1990.294 8        52.594    20274248.469 7  83019652.78907      1990.239 7        47.625
> 2024 02 29 07 57 15.0000000  0 10
G10  23638181.109 6 124219481.16006      1843.231 6        41.563    23638184.401 5  96794406.66105      1436.287 5        30.375    23638184.583 7  96794402.66907      1436.216 7        43.438
G12  23230091.929 6 122074957.81806      5457.532 6        41.000    23230093.877 6  95123347.94806      4252.621 6        37.719    23230094.313 6  95123355.94606      4252.675 6        41.406
G13  23434107.206 6 123147065.49106     -1902.761 6        39.313    23434111.358 3  95958761.64403     -1482.665 3        23.250
G14  23934140.636 6 125774754.31906     -1517.936 6        37.563    23934144.365 3  98006314.75603     -1182.794 3        22.406    23934144.775 6  98006305.73506     -1182.658 6        40.281
G15  22028034.364 7 115758097.73207     -1277.481 7        44.438    22028034.884 7  90201116.89607      -995.437 7        42.469    22028035.655 7  90201111.88607      -995.477 7        43.375
G17  22248231.005 7 116915241.53807      1318.679 7        43.781    22248231.535 7  91102789.41207      1027.544 7        43.188    22248231.983 7  91102795.41307      1027.642 7        43.500
G19  22011931.307 7 115673481.79107      3729.939 7        43.563    22011930.068 5  90135179.26405      2906.444 5        34.063
G22  22617996.220 7 118858369.46807      -821.349 7        42.875    22617996.222 5  92616913.67305      -640.010 5        31.219
G23  23627654.211 6 124164157.19206      -390.872 6        39.781    23627654.936 4  96751299.61004      -304.559 4        25.500    23627655.850 6  96751295.59306      -304.451 6        41.406
G24  20273760.535 8 106539328.81708      2553.534 8        48.719    20273762.239 8  83017662.63008      1989.773 8        52.531    20273762.534 7  83017662.63507      1989.755 7        47.594
> 2024 02 29 07 57 16.0000000  0 10
G10  23637830.191 6 124217637.47006      1843.879 6        41.469    23637833.576 5  96792970.01905      1436.791 5        30.438    23637833.776 7  96792966.02207      1436.814 7        43.344
G12  23229053.482 6 122069499.47406      5458.589 6        40.938    23229055.213 6  95119094.69506      4253.449 6        37.719    23229055.657 6  95119102.68906      4253.593 6        41.438
G13  23434469.358 6 123148967.42606     -1901.754 6        39.031    23434473.265 3  95960243.67403     -1481.861 3        23.344
G14  23934429.498 6 125776271.49806     -1516.848 6        38.094    23934433.013 3  98007496.96803     -1181.935 3        22.406    23934433.356 6  98007487.97106     -1181.999 6        40.406
G15  22028277.404 7 115759374.55807     -1276.684 7        44.500    22028277.898 7  90202111.82107      -994.813 7        42.469    22028278.644 7  90202106.80807      -994.718 7        43.375
G17  22247979.926 7 116913922.25507      1319.369 7        44.063    22247980.489 7  91101761.39907      1028.078 7        43.188    22247980.931 7  91101767.40107      1028.078 7        43.469
G19  22011221.401 7 115669751.33207      3730.638 7        43.781    22011220.193 5  90132272.41505      2906.992 5        34.125
G22  22618152.321 7 118859189.99207      -820.134 7        43.094    22618152.353 5  92617553.04105      -639.058 5        31.313
G23  23627728.493 6 124164547.44606      -389.936 6        39.938    23627729.209 4  96751603.69804      -303.833 4        25.375    23627730.086 6  96751599.68406      -303.831 6        41.500
G24  20273274.527 8 106536774.63308      2554.377 8        48.813    20273276.196 8  83015672.35608      1990.426 8        52.563    20273276.530 7  83015672.36007      1990.408 7        47.594
> 2024 02 29 07 57 17.0000000  0 10
G10  23637479.567 6 124215794.36406      1843.651 6        41.656    23637482.871 5  96791533.83005      1436.614 5        30.469    23637482.917 7  96791529.82707      1436.652 7        43.313
G12  23228014.838 6 122064041.28006      5458.967 6        41.281    23228016.558 6  95114841.55906      4253.739 6        37.719    23228016.998 6  95114849.56906      4253.630 6        41.313
G13  23434831.344 6 123150869.43506     -1901.088 6        39.469    23434835.126 3  95961725.74303     -1481.344 3        23.250
G14  23934718.178 6 125777788.75106     -1516.263 6        38.438    23934721.754 3  98008679.23503     -1181.504 3        22.344    23934722.217 6  98008670.24506     -1181.658 6        40.438
G15  22028520.339 7 115760651.69007     -1276.360 7        44.688    22028520.980 7  90203106.98507      -994.560 7        42.469    22028521.678 7  90203101.97107      -994.475 7        43.375
G17  22247729.077 7 116912603.51307      1319.390 7        44.156    22247729.546 7  91100733.80807      1028.103 7        43.219    22247729.969 7  91100739.81207      1028.131 7        43.406
G19  22010511.669 7 115666021.39807      3730.556 7        43.750    22010510.417 5  90129365.97405      2906.929 5        34.156
G22  22618308.529 7 118860010.72707      -819.964 7        43.313    22618308.530 5  92618192.57205      -638.919 5        31.281
G23  23627802.974 6 124164938.09406      -389.689 6        40.344    23627803.586 4  96751908.08904      -303.641 4        25.531    23627804.446 6  96751904.09506      -303.756 6        41.531
G24  20272788.589 8 106534220.92708      2554.368 8        48.938    20272790.247 8  83013682.45508      1990.417 8        52.563    20272790.599 7  83013682.45807      1990.424 7        47.563
> 2024 02 29 07 57 18.0000000  0 10
G10  23637128.828 6 124213951.87906      1842.318 6        41.563    23637132.278 5  96790098.13005      1435.585 5        30.469    23637132.364 7  96790094.14007      1435.547 7        43.438
G12  23226976.376 6 122058583.33706      5457.974 6        41.406    23226977.948 6  95110588.61906      4252.968 6        37.688    23226978.213 6  95110596.61606      4253.103 6        41.250
G13  23435193.368 6 123152771.65606     -1902.063 6        39.219    23435197.091 3  95963207.99403     -1482.109 3        23.250
G14  23935006.836 6 125779306.18006     -1517.465 6        38.438    23935010.532 3  98009861.63103     -1182.429 3        22.469    23935011.035 6  98009852.60906     -1182.139 6        40.563
G15  22028763.381 7 115761929.23907     -1277.432 7        44.750    22028764.120 7  90204102.47507      -995.390 7        42.500    22028764.850 7  90204097.47107      -995.500 7        43.219
G17  22247478.221 7 116911285.40807      1318.103 7        44.375    22247478.723 7  91099706.70907      1027.096 7        43.219    22247479.035 7  91099712.71707      1027.042 7        43.375
G19  22009802.052 7 115662292.04807      3729.389 7        43.781    22009800.739 5  90126459.98705      2906.018 5        34.156
G22  22618464.781 7 118860831.73207      -820.909 7        43.063    22618464.772 5  92618832.31405      -639.662 5        31.219
G23  23627877.293 6 124165329.24606      -391.206 6        40.438    23627878.034 4  96752212.87904      -304.824 4        25.594    23627878.727 6  96752208.88306      -304.862 6        41.625
G24  20272302.759 8 106531667.77508      2553.062 8        48.875    20272304.400 8  83011692.98508      1989.398 8        52.563    20272304.732 7  83011692.98907      1989.481 7        47.344
> 2024 02 29 07 57 19.0000000  0 10
G10  23636778.418 6 124212109.83806      1841.408 6        41.656    23636781.779 5  96788662.76705      1434.872 5        30.406    23636781.786 7  96788658.76707      1434.838 7        43.406
G12  23225937.886 6 122053125.39606      5457.392 6        41.219    23225939.337 6  95106335.67906      4252.515 6        37.719    23225939.597 6  95106343.68506      4252.552 6        41.594
G13  23435555.528 6 123154673.80506     -1902.554 6        38.594    23435559.055 3  95964690.16703     -1482.490 3        23.219
G14  23935295.532 6 125780823.45706     -1517.649 6        38.438    23935299.309 3  98011043.92403     -1182.578 3        22.375    23935299.750 6  98011034.90606     -1182.718 6        40.313
G15  22029006.557 7 115763206.97707     -1278.224 7        44.438    22029007.300 7  90205098.11207      -996.015 7        42.531    22029008.019 7  90205093.09807      -996.091 7        43.531
G17  22247227.543 7 116909967.69507      1317.010 7        44.250    22247227.982 7  91098679.91807      1026.245 7        43.219    22247228.301 7  91098685.92307      1026.229 7        43.313
G19  22009092.222 7 115658563.05807      3728.345 7        43.656    22009091.129 5  90123554.28105      2905.201 5        34.125
G22  22618621.085 7 118861652.75107      -821.433 7        43.094    22618621.019 5  92619472.06405      -640.071 5        31.188
G23  23627951.727 6 124165720.63006      -392.003 6        40.688    23627952.527 4  96752517.85204      -305.460 4        25.688    23627953.299 6  96752513.85406      -305.579 6        41.656
G24  20271817.003 8 106529114.94008      2552.219 8        48.906    20271818.612 8  83009703.76208      1988.745 8        52.531    20271818.946 7  83009703.77007      1988.689 7        47.625
> 2024 02 29 07 57 20.0000000  0 10
G10  23636427.778 6 124210268.47806      1841.254 6        41.563    23636431.414 5  96787227.93805      1434.745 5        30.344    23636431.501 7  96787223.93307      1434.724 7        43.375
G12  23224899.379 6 122047667.70206      5457.833 6        41.125    23224900.776 6  95102082.92906      4252.858 6        37.719    23224900.975 6  95102090.93806      4253.037 6        41.344
G13  23435917.552 6 123156576.17506     -1902.164 6        38.375    23435921.060 3  95966172.53203     -1482.196 3        23.156
G14  23935584.287 6 125782340.93906     -1517.370 6        37.750    23935588.131 3  98012226.36803     -1182.368 3        22.250    23935588.481 6  98012217.36606     -1182.402 6        40.375
G15  22029249.753 7 115764485.12007     -1278.105 7        44.688    22029250.561 7  90206094.06407      -995.920 7        42.563    22029251.156 7  90206089.05507      -995.901 7        43.344
G17  22246976.870 7 116908650.61007      1317.066 7        44.313    22246977.356 7  91097653.61907      1026.288 7        43.250    22246977.718 7  91097659.62707      1026.234 7        43.469
G19  22008382.665 7 115654834.68407      3728.277 7        43.531    22008381.665 5  90120649.05605      2905.149 5        34.156
G22  22618777.291 7 118862474.05307      -821.092 7        43.219    22618777.298 5  92620112.03305      -639.806 5        31.125
G23  23628026.276 6 124166112.49506      -391.912 6        40.656    23628027.140 4  96752823.19804      -305.393 4        25.625    23628027.902 6  96752819.18706      -305.187 6        41.531
G24  20271331.381 8 106526562.68108      2552.277 8        48.750    20271332.940 8  83007714.98908      1988.788 8        52.563    20271333.234 7  83007714.99207      1988.755 7        47.438
> 2024 02 29 07 57 21.0000000  0 10
G10  23636077.612 6 124208427.56106      1841.093 6        41.688    23636081.125 5  96785793.45405      1434.621 5        30.250    23636081.375 7  96785789.46807      1434.627 7        43.500
G12  23223860.801 6 122042210.06606      5458.076 6        41.188    23223862.233 6  95097830.23006      4253.043 6        37.531    23223862.691 6  95097838.23506      4253.066 6        41.500
G13  23436279.127 6 123158478.50306     -1901.744 6        38.375    23436283.065 3  95967654.86903     -1481.891 3        23.063
G14  23935872.939 6 125783858.34706     -1516.923 6        38.344    23935876.900 3  98013408.76803     -1182.024 3        22.125    23935877.283 6  98013399.75306     -1181.936 6        40.531
G15  22029493.048 7 115765763.48707     -1277.993 7        44.656    22029493.862 7  90207090.19107      -995.837 7        42.438    22029494.476 7  90207085.19107      -995.914 7        43.469
G17  22246726.358 7 116907333.96007      1316.911 7        44.281    22246726.816 7  91096627.65607      1026.171 7        43.125    22246727.418 7  91096633.65807      1026.164 7        43.438
G19  22007673.200 7 115651106.68807      3728.126 7        43.563    22007672.283 5  90117744.12505      2905.035 5        34.063
G22  22618933.546 7 118863295.43607      -820.932 7        42.969    22618933.581 5  92620752.06905      -639.684 5        31.000
G23  23628100.920 6 124166504.64106      -391.848 6        40.875    23628101.816 4  96753128.76004      -305.333 4        25.500    23628102.488 6  96753124.75806      -305.382 6        41.813
G24  20270845.733 8 106524010.77408      2552.104 8        48.844    20270847.327 8  83005726.48908      1988.657 8        52.469    20270847.647 7  83005726.49107      1988.680 7        47.500
> 2024 02 29 07 57 22.0000000  0 10
G10  23635727.546 6 124206587.22006      1840.320 6        41.219    23635730.961 5  96784359.42205      1434.014 5        30.219    23635731.259 7  96784355.42307      1434.013 7        43.875
G12  23222822.311 6 122036752.57006      5457.682 6        41.031    23222823.725 6  95093577.63606      4252.740 6        37.406    23222824.148 6  95093585.64506      4252.655 6        41.531
G13  23436641.256 6 123160380.95506     -1902.089 6        38.219    23436645.177 3  95969137.29603     -1482.139 3        23.219
G14  23936161.835 6 125785375.80506     -1517.126 6        38.438    23936165.637 3  98014591.19103     -1182.154 3        22.188    23936166.198 6  98014582.19306     -1182.252 6        40.531
G15  22029736.459 7 115767042.16907     -1278.585 7        44.469    22029737.221 7  90208086.56207      -996.293 7        42.438    22029737.721 7  90208081.55607      -996.313 7        43.406
G17  22246475.987 7 116906017.83107      1316.165 7        44.125    22246476.369 7  91095602.10107      1025.588 7        43.094    22246476.975 7  91095608.10307      1025.576 7        43.406
G19  22006964.057 7 115647379.18007      3727.542 7        43.406    22006962.990 5  90114839.57305      2904.579 5        34.094
G22  22619089.704 7 118864116.99407      -821.347 7        42.875    22619089.904 5  92621392.24205      -640.007 5        30.906
G23  23628175.603 6 124166897.15606      -392.256 6        40.625    23628176.550 4  96753434.61704      -305.650 4        25.719    23628177.168 7  96753430.61307      -305.769 7        42.125
G24  20270360.164 8 106521459.33408      2551.432 8        48.750    20270361.807 8  83003738.35508      1988.130 8        52.469    20270362.031 7  83003738.35907      1988.190 7        47.500
> 2024 02 29 07 57 23.0000000  0 10
G10  23635377.408 6 124204747.30406      1840.341 6        41.844    23635380.859 5  96782925.72005      1434.038 5        30.188    23635381.053 7  96782921.72907      1433.958 7        43.750
G12  23221783.484 6 122031295.12506      5457.989 6        41.094    23221785.213 6  95089325.07906      4252.978 6        37.281    23221785.659 6  95089333.07106      4253.073 6        41.281
G13  23437003.300 6 123162283.39306     -1901.780 6        38.250    23437007.248 3  95970619.69903     -1481.879 3        23.156
G14  23936450.392 6 125786893.22206     -1516.865 6        38.250    23936454.419 3  98015773.58303     -1181.963 3        22.031    23936454.935 6  98015764.58806     -1181.925 6        40.563
G15  22029979.856 7 115768321.06907     -1278.366 7        44.469    22029980.634 7  90209083.10607      -996.127 7        42.375    22029981.229 7  90209078.09307      -996.061 7        43.219
G17  22246225.644 7 116904702.14007      1316.083 7        44.469    22246226.007 7  91094576.88307      1025.524 7        43.063    22246226.598 7  91094582.88907      1025.570 7        43.438
G19  22006254.711 7 115643652.06107      3727.525 7        43.594    22006253.759 5  90111935.32405      2904.564 5        34.156
G22  22619245.873 7 118864938.60307      -821.020 7        42.875    22619246.255 5  92622032.45405      -639.748 5        30.875
G23  23628250.343 6 124167289.97606      -392.323 6        40.906    23628251.311 4  96753740.70704      -305.702 4        25.688    23628251.902 6  96753736.70406      -305.758 6        41.938
G24  20269874.617 8 106518908.23508      2551.568 8        48.938    20269876.350 8  83001750.48508      1988.234 8        52.469    20269876.579 7  83001750.49407      1988.261 7        47.438
> 2024 02 29 07 57 24.0000000  0 10
G10  23635027.453 6 124202907.96606      1839.056 6        41.906    23635030.875 5  96781492.46505      1433.034 5        30.219    23635030.883 7  96781488.48507      1432.943 7        43.625
G12  23220744.765 6 122025837.80806      5457.170 6        40.969    23220746.719 6  95085072.62706      4252.339 6        37.094    23220747.232 6  95085080.63106      4252.499 6        41.375
G13  23437365.151 6 123164185.90006     -1902.639 6        38.500    23437369.262 3  95972102.16103     -1482.557 3        23.063
G14  23936739.457 6 125788410.69506     -1517.593 6        38.063    23936743.227 3  98016956.02703     -1182.539 3        22.313    23936743.693 6  98016947.00806     -1182.395 6        40.531
G15  22030223.366 7 115769600.28207     -1279.437 7        44.250    22030224.105 7  90210079.89007      -996.956 7        42.375    22030224.522 7  90210074.88307      -996.986 7        43.156
G17  22245975.453 7 116903386.96707      1314.937 7        44.188    22245975.744 7  91093552.07407      1024.628 7        43.063    22245976.419 7  91093558.08307      1024.495 7        43.313
G19  22005545.757 7 115639925.43107      3726.370 7        43.656    22005544.627 5  90109031.45905      2903.668 5        34.156
G22  22619402.211 7 118865760.38407      -821.915 7        43.125    22619402.645 5  92622672.80205      -640.441 5        30.844
G23  23628325.371 6 124167683.18506      -393.588 6        41.063    23628326.157 4  96754047.09704      -306.689 4        25.875    23628326.611 6  96754043.08706      -306.530 6        41.906
G24  20269389.200 8 106516357.60708      2550.383 8        48.875    20269390.982 8  82999762.98408      1987.312 8        52.438    20269391.144 7  82999762.99107      1987.255 7        47.406
> 2024 02 29 07 57 25.0000000  0 10
G10  23634677.641 6 124201069.54406      1838.780 6        41.438    23634681.051 5  96780059.92905      1432.821 5        30.219    23634680.997 7  96780055.92407      1432.824 7        43.406
G12  23219706.321 6 122020380.99106      5457.420 6        40.719    23219708.319 6  95080820.56106      4252.535 6        36.969    23219708.892 6  95080828.55406      4252.585 6        41.125
G13  23437727.151 6 123166088.81106     -1902.180 6        37.781    23437731.320 3  95973584.94703     -1482.216 3        23.000
G14  23937028.015 6 125789928.53106     -1517.175 6        37.625    23937032.058 3  98018138.74303     -1182.208 3        22.281    23937032.461 6  98018129.74306     -1182.202 6        40.313
G15  22030466.931 7 115770880.13107     -1279.252 7        43.719    22030467.688 7  90211077.17107      -996.814 7        42.313    22030467.979 7  90211072.16207      -996.781 7        42.906
G17  22245725.478 7 116902072.65907      1314.704 7        43.781    22245725.646 7  91092527.93507      1024.447 7        43.063    22245726.425 7  91092533.94207      1024.525 7        43.313
G19  22004836.764 7 115636199.62907      3726.191 7        43.063    22004835.664 5  90106128.23505      2903.527 5        34.188
G22  22619558.689 7 118866582.67007      -821.701 7        42.563    22619559.107 5  92623313.53805      -640.279 5        30.813
G23  23628400.481 6 124168077.06506      -393.406 6        40.250    23628401.142 4  96754354.01704      -306.551 4        25.938    23628401.403 6  96754350.00506      -306.528 6        41.844
G24  20268903.975 8 106513807.77308      2550.252 8        48.594    20268905.766 8  82997776.09908      1987.213 8        52.438    20268905.987 7  82997776.10407      1987.212 7        47.250
> 2024 02 29 07 57 26.0000000  0 10
G10  23634327.947 6 124199231.56706      1837.575 6        41.719    23634331.312 5  96778627.73305      1431.875 5        30.281    23634331.305 7  96778623.74707      1431.747 7        43.281
G12  23218667.666 6 122014924.20706      5456.514 6        41.594    23218669.932 6  95076568.52706      4251.829 6        37.000    23218670.456 6  95076576.52806      4251.832 6        41.094
G13  23438089.333 6 123167991.75706     -1903.288 6        38.375    23438093.477 3  95975067.75103     -1483.097 3        22.813
G14  23937316.927 6 125791446.36206     -1518.037 6        38.281    23937320.889 3  98019321.46003     -1182.882 3        22.281    23937321.134 6  98019312.45606     -1182.987 6        40.469
G15  22030710.513 7 115772160.22907     -1280.504 7        43.969    22030711.320 7  90212074.64507      -997.796 7        42.250    22030711.619 7  90212069.63607      -997.765 7        42.906
G17  22245475.386 7 116900758.80607      1313.329 7        44.156    22245475.638 7  91091504.14907      1023.372 7        43.031    22245476.272 7  91091510.15507      1023.370 7        43.406
G19  22004127.919 7 115632474.25207      3724.807 7        43.438    22004126.800 5  90103225.34705      2902.445 5        34.219
G22  22619715.134 7 118867405.04407      -822.725 7        43.250    22619715.587 5  92623954.34705      -641.080 5        30.781
G23  23628475.676 6 124168471.27706      -394.683 6        40.906    23628476.180 4  96754661.19204      -307.539 4        25.969    23628476.446 7  96754657.18307      -307.515 7        42.188
G24  20268418.869 8 106511258.30808      2548.992 8        49.031    20268420.617 8  82995789.50308      1986.225 8        52.438    20268420.826 7  82995789.50507      1986.246 7        47.281
> 2024 02 29 07 57 27.0000000  0 10
G10  23633978.355 6 124197394.49206      1837.368 6        41.594    23633981.711 5  96777196.24605      1431.714 5        30.250    23633981.845 7  96777192.24007      1431.669 7        43.406
G12  23217629.007 6 122009467.89906      5456.831 6        41.813    23217631.635 6  95072316.86006      4252.076 6        37.094    23217632.159 6  95072324.86106      4252.093 6        40.969
G13  23438451.745 6 123169895.08706     -1902.726 6        38.438    23438455.674 3  95976550.86003     -1482.628 3        22.906
G14  23937605.583 6 125792964.53806     -1517.751 6        38.188    23937609.855 3  98020504.44403     -1182.671 3        22.063    23937610.040 6  98020495.43106     -1182.496 6        40.469
G15  22030954.106 7 115773440.94307     -1280.349 7        43.563    22030955.063 7  90213072.60207      -997.674 7        42.219    22030955.411 7  90213067.59207      -997.641 7        42.938
G17  22245225.317 7 116899445.78407      1313.387 7        44.406    22245225.795 7  91090481.01507      1023.418 7        43.063    22245226.421 7  91090487.02207      1023.343 7        43.188
G19  22003419.199 7 115628749.66507      3724.869 7        43.563    22003418.062 5  90100323.07305      2902.490 5        34.250
G22  22619871.739 7 118868227.88907      -822.463 7        43.250    22619872.166 5  92624595.52405      -640.881 5        30.813
G23  23628550.660 6 124168866.16206      -394.573 6        40.469    23628551.384 4  96754968.88704      -307.451 4        26.094    23628551.679 7  96754964.89107      -307.415 7        42.219
G24  20267933.852 8 106508709.62408      2549.020 8        49.063    20267935.612 8  82993803.51508      1986.250 8        52.438    20267935.831 7  82993803.51607      1986.257 7        47.156
> 2024 02 29 07 57 28.0000000  0 10
G10  23633629.109 6 124195557.90206      1835.651 6        41.250    23633632.249 5  96775765.13305      1430.379 5        30.250    23633632.430 7  96775761.14307      1430.342 7        43.406
G12  23216590.718 6 122004011.68906      5455.589 6        41.406    23216593.355 6  95068065.26906      4251.104 6        37.031    23216593.682 6  95068073.25706      4251.042 6        41.000
G13  23438814.035 6 123171798.45406     -1904.058 6        37.813    23438817.844 3  95978033.99303     -1483.684 3        22.719
G14  23937894.301 6 125794482.72006     -1518.889 6        37.656    23937898.838 3  98021687.43003     -1183.545 3        22.031    23937898.924 6  98021678.41606     -1183.440 6        40.531
G15  22031197.806 7 115774721.92707     -1281.757 7        43.156    22031198.870 7  90214070.76707      -998.770 7        42.125    22031199.177 7  90214065.75407      -998.778 7        43.000
G17  22244975.617 7 116898133.23807      1311.731 7        43.969    22244976.032 7  91089458.24807      1022.128 7        43.000    22244976.620 7  91089464.25507      1022.074 7        43.531
G19  22002710.519 7 115625025.52107      3723.223 7        43.281    22002709.412 5  90097421.14405      2901.211 5        34.219
G22  22620028.404 7 118869050.85407      -823.624 7        42.938    22620028.744 5  92625236.79005      -641.788 5        30.781
G23  23628625.728 6 124169261.37006      -395.985 6        40.094    23628626.633 4  96755276.83604      -308.572 4        26.063    23628626.930 7  96755272.83707      -308.539 7        42.000
G24  20267448.975 8 106506161.32508      2547.492 8        48.688    20267450.682 8  82991817.82708      1985.059 8        52.406    20267450.966 7  82991817.82707      1985.079 7        47.125
> 2024 02 29 07 57 29.0000000  0 10
G10  23633279.689 6 124193722.03806      1835.791 6        41.469    23633282.899 5  96774334.58205      1430.489 5        30.313    23633282.892 7  96774330.59307      1430.506 7        43.250
G12  23215552.531 6 121998555.78206      5456.028 6        41.813    23215555.143 6  95063813.91306      4251.445 6        37.094    23215555.309 6  95063821.90506      4251.320 6        40.844
G13  23439176.468 6 123173702.09606     -1903.631 6        38.344    23439180.059 3  95979517.34803     -1483.353 3        22.656
G14  23938183.447 6 125796001.10006     -1518.254 6        37.906    23938187.790 3  98022870.57503     -1183.050 3        22.031    23938188.024 6  98022861.56906     -1183.018 6        40.469
G15  22031441.554 7 115776003.37707     -1281.357 7        43.406    22031442.756 7  90215069.29607      -998.457 7        42.125    22031443.079 7  90215064.28807      -998.477 7        43.031
G17  22244726.048 7 116896821.39707      1311.683 7        44.500    22244726.408 7  91088436.03507      1022.090 7        43.063    22244727.033 7  91088442.03807      1022.141 7        43.563
G19  22002001.933 7 115621302.04207      3723.428 7        44.031    22002000.893 5  90094519.73405      2901.366 5        34.281
G22  22620185.204 7 118869874.16607      -823.213 7        43.500    22620185.389 5  92625878.32805      -641.464 5        30.875
G23  23628700.998 6 124169657.12406      -395.680 6        40.406    23628702.002 4  96755585.21704      -308.321 4        26.094    23628702.365 7  96755581.22907      -308.451 7        42.219
G24  20266964.140 8 106503613.66708      2547.583 8        49.125    20266965.873 8  82989832.63708      1985.127 8        52.438    20266966.158 7  82989832.63507      1985.117 7        47.094
> 2024 02 29 07 57 30.0000000  0 10
G10  23632930.258 6 124191886.86506      1834.240 6        41.688    23632933.652 5  96772904.57605      1429.272 5        30.313    23632933.699 7  96772900.59307      1429.265 7        43.250
G12  23214514.349 6 121993100.14606      5454.948 6        41.531    23214516.980 6  95059562.77006      4250.601 6        37.063    23214517.086 6  95059570.76806      4250.588 6        40.938
G13  23439538.690 6 123175605.92006     -1904.420 6        38.156    23439542.341 3  95981000.83703     -1483.953 3        22.625
G14  23938472.398 6 125797519.68006     -1519.308 6        38.313    23938476.777 3  98024053.87803     -1183.866 3        22.031    23938477.045 6  98024044.87306     -1183.724 6        40.594
G15  22031685.447 7 115777285.29407     -1282.742 7        43.469    22031686.728 7  90216068.18907      -999.539 7        42.063    22031687.001 7  90216063.17707      -999.484 7        42.906
G17  22244476.431 7 116895510.20907      1310.259 7        44.625    22244476.905 7  91087414.32907      1020.979 7        43.031    22244477.474 7  91087420.33807      1020.995 7        43.500
G19  22001293.609 7 115617579.20207      3722.015 7        43.875    22001292.503 5  90091618.82005      2900.274 5        34.219
G22  22620341.865 7 118870697.77807      -824.358 7        43.438    22620342.115 5  92626520.09605      -642.348 5        30.813
G23  23628776.268 6 124170053.41306      -397.065 6        40.719    23628777.487 4  96755894.00804      -309.400 4        26.094    23628777.773 7  96755890.00507      -309.391 7        42.156
G24  20266479.390 8 106501066.60008      2546.257 8        49.219    20266481.176 8  82987847.90808      1984.099 8        52.406    20266481.476 7  82987847.90807      1984.077 7        47.188
> 2024 02 29 07 57 31.0000000  0 10
G10  23632581.318 6 124190052.35406      1835.284 6        41.719    23632584.544 5  96771475.09205      1430.087 5        30.250    23632584.497 7  96771471.09407      1430.054 7        43.375
G12  23213476.214 6 121987644.75606      5456.364 6        41.406    23213478.852 6  95055311.82106      4251.704 6        37.063    23213478.929 6  95055319.82306      4251.685 6        40.813
G13  23439901.301 6 123177509.96906     -1903.194 6        38.031    23439904.681 3  95982484.51103     -1483.010 3        22.594
G14  23938761.705 6 125799038.37406     -1517.700 6        38.031    23938765.787 3  98025237.26303     -1182.617 3        21.813    23938766.008 6  98025228.27906     -1182.659 6        40.188
G15  22031929.390 7 115778567.60507     -1281.348 7        43.031    22031930.780 7  90217067.39107      -998.452 7        42.000    22031931.003 7  90217062.38707      -998.464 7        42.938
G17  22244227.125 7 116894199.64507      1311.444 7        44.688    22244227.519 7  91086393.11107      1021.904 7        43.031    22244228.054 7  91086399.10907      1021.920 7        43.438
G19  22000585.332 7 115613856.93007      3723.123 7        44.000    22000584.198 5  90088718.35205      2901.132 5        34.219
G22  22620498.839 7 118871521.64007      -822.908 7        43.219    22620498.886 5  92627162.06405      -641.226 5        30.844
G23  23628851.741 6 124170450.16606      -396.020 6        40.531    23628853.084 4  96756203.16504      -308.587 4        26.125    23628853.359 7  96756199.14607      -308.402 7        42.156
G24  20265994.762 8 106498520.07508      2547.339 8        49.094    20265996.591 8  82985863.60308      1984.938 8        52.406    20265996.839 7  82985863.60207      1984.983 7        47.188
> 2024 02 29 07 57 32.0000000  0 10
G10  23632232.451 6 124188218.49406      1834.196 6        41.656    23632235.592 5  96770046.11105      1429.248 5        30.219    23632235.581 7  96770042.11607      1429.232 7        43.281
G12  23212438.221 6 121982189.60606      5455.499 6        41.531    23212440.756 6  95051061.05406      4251.036 6        36.938    23212440.789 6  95051069.05506      4251.058 6        40.719
G13  23440263.913 6 123179414.16806     -1903.772 6        38.344    23440266.999 3  95983968.29503     -1483.434 3        22.375
G14  23939050.878 6 125800557.26306     -1518.433 6        38.063    23939054.895 3  98026420.82003     -1183.195 3        21.688    23939055.368 6  98026411.81006     -1183.219 6        40.188
G15  22032173.358 7 115779850.34207     -1282.349 7        43.031    22032174.908 6  90218066.92006      -999.228 6        41.906    22032175.163 7  90218061.92407      -999.340 7        43.031
G17  22243977.897 7 116892889.70707      1310.157 7        44.750    22243978.248 7  91085372.37707      1020.904 7        43.000    22243978.876 7  91085378.38007      1020.909 7        43.688
G19  21999877.135 7 115610135.25507      3721.937 7        44.000    21999876.009 5  90085818.34205      2900.209 5        34.250
G22  22620655.650 7 118872345.77607      -823.708 7        43.063    22620655.701 5  92627804.24905      -641.840 5        30.813
G23  23628927.544 6 124170847.39606      -396.864 6        40.656    23628928.744 4  96756512.69304      -309.245 4        26.156    23628928.997 7  96756508.67907      -309.396 7        42.219
G24  20265510.245 8 106495974.12508      2546.311 8        48.969    20265512.104 8  82983879.74408      1984.141 8        52.375    20265512.372 7  82983879.74807      1984.159 7        47.219
> 2024 02 29 07 57 33.0000000  0 10
G10  23631883.636 6 124186385.15906      1833.135 6        41.875    23631886.738 5  96768617.53605      1428.418 5        30.219    23631886.690 7  96768613.54307      1428.380 7        43.469
G12  23211400.242 6 121976734.55106      5455.025 6        41.500    23211402.696 6  95046810.36406      4250.670 6        36.906    23211402.575 6  95046818.37106      4250.571 6        40.781
G13  23440626.338 6 123181318.43806     -1904.400 6        37.781    23440629.325 3  95985452.12603     -1483.922 3        22.313
G14  23939339.829 6 125802076.12406     -1518.784 6        37.813    23939343.945 3  98027604.35103     -1183.461 3        21.688    23939344.305 6  98027595.33506     -1183.488 6        40.375
G15  22032417.518 7 115781133.35007     -1283.062 7        43.063    22032419.090 6  90219066.66006      -999.784 6        41.906    22032419.371 7  90219061.64507      -999.747 7        43.094
G17  22243728.808 7 116891580.26607      1309.228 7        44.531    22243729.080 7  91084352.03207      1020.179 7        43.063    22243729.720 7  91084358.03107      1020.269 7        43.719
G19  21999169.149 7 115606414.04107      3721.099 7        44.094    21999167.905 5  90082918.69805      2899.556 5        34.344
G22  22620812.481 7 118873170.02507      -824.197 7        43.500    22620812.543 5  92628446.51505      -642.225 5        30.813
G23  23629003.271 6 124171244.95606      -397.657 6        40.531    23629004.485 4  96756822.47504      -309.862 4        26.344    23629004.637 7  96756818.45507      -309.846 7        42.219
G24  20265025.928 8 106493428.58208      2545.353 8        48.969    20265027.698 8  82981896.20508      1983.396 8        52.438    20265027.980 7  82981896.20407      1983.481 7        47.281
> 2024 02 29 07 57 34.0000000  0 10
G10  23631534.989 6 124184551.97106      1833.197 6        41.438    23631537.889 5  96767189.07705      1428.464 5        30.125    23631537.892 7  96767185.08607      1428.443 7        43.313
G12  23210362.151 6 121971279.23706      5455.516 6        41.188    23210364.578 6  95042559.47406      4251.050 6        36.906    23210364.386 6  95042567.47306      4251.064 6        40.813
G13  23440988.688 6 123183222.37506     -1903.663 6        37.625    23440991.549 3  95986935.71103     -1483.375 3        22.219
G14  23939628.728 6 125803594.64206     -1518.038 6        37.813    23939632.924 3  98028787.59203     -1182.866 3        21.594    23939633.152 6  98028778.59006     -1183.135 6        40.125
G15  22032661.692 7 115782416.27407     -1282.816 7        43.000    22032663.250 6  90220066.33506      -999.594 6        41.813    22032663.512 7  90220061.32307      -999.601 7        43.094
G17  22243479.702 7 116890270.94207      1309.361 7        44.469    22243479.939 7  91083331.77907      1020.283 7        43.031    22243480.557 7  91083337.78107      1020.304 7        43.469
G19  21998460.974 7 115602692.91907      3721.218 7        44.156    21998459.828 5  90080019.12305      2899.650 5        34.344
G22  22620969.323 7 118873994.06207      -823.857 7        43.063    22620969.345 5  92629088.61905      -641.962 5        30.750
G23  23629078.911 6 124171642.50106      -397.412 6        40.594    23629080.176 4  96757132.24604      -309.672 4        26.438    23629080.323 7  96757128.22307      -309.638 7        42.250
G24  20264541.465 8 106490883.09508      2545.579 8        48.781    20264543.305 8  82979912.70808      1983.569 8        52.375    20264543.567 7  82979912.70907      1983.605 7        47.219
> 2024 02 29 07 57 35.0000000  0 10
G10  23631186.218 6 124182719.71506      1832.014 6        41.625    23631189.219 5  96765761.34405      1427.546 5        30.094    23631189.269 7  96765757.35607      1427.487 7        43.250
G12  23209324.300 6 121965824.43806      5454.792 6        41.438    23209326.548 6  95038308.98106      4250.484 6        36.813    23209326.495 6  95038316.98306      4250.449 6        40.750
G13  23441350.912 6 123185126.76106     -1904.398 6        37.469    23441353.938 3  95988419.65003     -1483.955 3        22.094
G14  23939917.724 6 125805113.58006     -1519.002 6        37.750    23939922.059 3  98029971.17003     -1183.626 3        21.375    23939922.116 6  98029962.16306     -1183.609 6        40.250
G15  22032905.926 7 115783699.85207     -1283.723 7        42.906    22032907.535 6  90221066.52306     -1000.300 6        41.750    22032907.673 7  90221061.52007     -1000.413 7        43.063
G17  22243230.750 7 116888962.52207      1308.194 7        44.281    22243230.964 7  91082312.23007      1019.376 7        43.063    22243231.468 7  91082318.23207      1019.329 7        43.656
G19  21997753.014 7 115598972.65307      3720.020 7        44.344    21997751.903 5  90077120.21705      2898.721 5        34.313
G22  22621126.205 7 118874818.61307      -824.497 7        43.250    22621126.228 5  92629731.12105      -642.459 5        30.719
G23  23629154.650 6 124172040.78606      -398.518 6        40.406    23629156.050 4  96757442.59104      -310.525 4        26.625    23629155.971 7  96757438.57107      -310.420 7        42.188
G24  20264057.238 8 106488338.44308      2544.445 8        48.906    20264059.068 8  82977929.86108      1982.686 8        52.406    20264059.370 7  82977929.86807      1982.682 7        47.219
> 2024 02 29 07 57 36.0000000  0 10
G10  23630837.572 6 124180887.93906      1831.256 6        41.906    23630840.642 5  96764333.98705      1426.954 5        30.094    23630840.712 7  96764330.00507      1426.883 7        43.250
G12  23208286.349 6 121960369.71906      5454.317 6        41.406    23208288.551 6  95034058.54706      4250.108 6        36.813    23208288.594 6  95034066.53806      4250.228 6        40.844
G13  23441713.316 6 123187031.17206     -1904.761 6        37.281    23441716.403 3  95989903.58703     -1484.218 3        22.063
G14  23940206.746 6 125806632.46606     -1519.253 6        37.594    23940211.185 3  98031154.71603     -1183.833 3        21.313    23940211.082 6  98031145.70206     -1183.663 6        40.188
G15  22033150.446 7 115784983.69007     -1284.331 7        42.813    22033151.869 6  90222066.91206     -1000.773 6        41.688    22033151.993 7  90222061.90007     -1000.796 7        43.063
G17  22242981.888 7 116887654.55607      1307.342 7        44.375    22242982.073 7  91081293.03407      1018.711 7        43.094    22242982.518 7  91081299.03907      1018.598 7        43.813
G19  21997045.231 7 115595252.80107      3719.264 7        44.250    21997044.050 5  90074221.62905      2898.131 5        34.281
G22  22621283.109 7 118875643.28407      -825.123 7        43.125    22621283.173 5  92630373.72005      -642.952 5        30.656
G23  23629230.447 6 124172439.37106      -399.135 6        40.375    23629231.974 4  96757753.17204      -311.014 4        26.594    23629231.711 7  96757749.16707      -311.011 7        42.188
G24  20263573.113 8 106485794.16408      2543.647 8        48.844    20263574.899 8  82975947.30608      1982.062 8        52.375    20263575.252 7  82975947.30807      1982.078 7        47.313
> 2024 02 29 07 57 37.0000000  0 10
G10  23630489.389 6 124179056.76906      1830.758 6        41.500    23630492.151 5  96762907.10405      1426.563 5        30.188    23630492.320 7  96762903.09907      1426.704 7        43.313
G12  23207248.501 6 121954915.15506      5454.522 6        41.250    23207250.584 6  95029808.24306      4250.272 6        36.844    23207250.783 6  95029816.23206      4250.409 6        40.750
G13  23442075.746 6 123188935.68606     -1904.561 6        37.344    23442078.878 3  95991387.62903     -1484.092 3        22.188
G14  23940495.841 6 125808151.43406     -1518.831 6        37.906    23940500.280 3  98032338.32403     -1183.495 3        21.531    23940500.077 6  98032329.32706     -1183.694 6        40.156
G15  22033394.940 7 115786267.85507     -1284.240 7        43.031    22033396.256 6  90223067.55406     -1000.702 6        41.750    22033396.480 7  90223062.54907     -1000.830 7        43.094
G17  22242733.102 7 116886347.13707      1307.202 7        44.188    22242733.290 7  91080274.26207      1018.602 7        43.188    22242733.865 7  91080280.26507      1018.574 7        43.750
G19  21996337.498 7 115591533.47807      3719.026 7        44.219    21996336.299 5  90071323.45705      2897.939 5        34.344
G22  22621440.194 7 118876468.11707      -824.864 7        42.969    22621440.127 5  92631016.44605      -642.750 5        30.719
G23  23629306.369 6 124172838.36706      -399.161 6        40.406    23629307.938 4  96758064.07604      -311.028 4        26.625    23629307.618 7  96758060.06907      -311.020 7        42.063
G24  20263089.037 8 106483250.37808      2543.496 8        48.875    20263090.823 8  82973965.13508      1981.947 8        52.438    20263091.190 7  82973965.13807      1981.980 7        47.281
> 2024 02 29 07 57 38.0000000  0 10
G10  23630141.084 6 124177225.69206      1829.821 6        41.344    23630143.709 5  96761480.28705      1425.835 5        30.125    23630143.812 7  96761476.29407      1425.711 7        43.094
G12  23206210.592 6 121949460.28306      5453.785 6        40.844    23206212.569 6  95025557.69306      4249.698 6        36.875    23206212.689 6  95025565.69706      4249.764 6        40.813
G13  23442438.204 6 123190839.85206     -1905.210 6        37.219    23442441.285 3  95992871.38303     -1484.580 3        22.219
G14  23940784.852 6 125809670.03906     -1519.897 6        37.656    23940789.245 3  98033521.64503     -1184.340 3        21.594    23940789.007 6  98033512.62606     -1184.097 6        40.250
G15  22033639.491 7 115787551.88507     -1285.214 7        42.719    22033640.608 6  90224068.09106     -1001.463 6        41.781    22033640.821 7  90224063.08107     -1001.431 7        42.938
G17  22242484.107 7 116885039.79707      1306.026 7        43.875    22242484.511 7  91079255.55407      1017.682 7        43.250    22242484.911 7  91079261.55907      1017.635 7        43.688
G19  21995629.548 7 115587814.19807      3717.905 7        44.094    21995628.549 5  90068425.31705      2897.063 5        34.344
G22  22621597.163 7 118877292.69207      -825.780 7        42.719    22621597.014 5  92631658.96805      -643.464 5        30.750
G23  23629382.282 6 124173237.29306      -400.023 6        40.375    23629383.897 4  96758374.92904      -311.701 4        26.625    23629383.567 6  96758370.91806      -311.885 6        41.938
G24  20262604.935 8 106480706.59408      2542.517 8        48.938    20262606.752 8  82971982.96508      1981.182 8        52.500    20262607.086 7  82971982.97307      1981.161 7        47.188
> 2024 02 29 07 57 39.0000000  0 10
G10  23629792.734 6 124175395.14706      1830.804 6        41.656    23629795.378 5  96760053.89005      1426.598 5        30.094    23629795.472 7  96760049.89807      1426.623 7        43.063
G12  23205172.521 6 121944005.54706      5455.165 6        41.156    23205174.571 6  95021307.24906      4250.776 6        36.844    23205175.002 6  95021315.25306      4250.719 6        40.688
G13  23442800.453 6 123192744.06406     -1903.679 6        37.469    23442803.611 3  95994355.17403     -1483.371 3        22.188
G14  23941073.774 6 125811188.63406     -1518.100 6        38.000    23941078.184 3  98034704.96403     -1182.938 3        21.813    23941078.090 6  98034695.93306     -1182.903 6        40.219
G15  22033883.887 7 115788836.20807     -1284.005 7        43.031    22033885.009 6  90225068.85706     -1000.521 6        41.719    22033885.213 7  90225063.84907     -1000.572 7        42.844
G17  22242235.377 7 116883732.95507      1307.037 7        43.844    22242235.831 7  91078237.23407      1018.469 7        43.250    22242236.272 7  91078243.24207      1018.456 7        43.688
G19  21994921.937 7 115584095.37107      3719.083 7        44.188    21994920.915 5  90065527.53505      2897.983 5        34.344
G22  22621754.016 7 118878117.39207      -824.335 7        42.938    22621753.959 5  92632301.58905      -642.332 5        30.813
G23  23629458.148 6 124173636.56506      -398.993 6        40.500    23629459.946 4  96758686.04204      -310.904 4        26.594    23629459.530 6  96758682.02906      -310.903 6        41.594
G24  20262121.031 8 106478163.23908      2543.527 8        48.813    20262122.762 8  82970001.12908      1981.969 8        52.500    20262123.039 7  82970001.13007      1981.949 7        47.188
> 2024 02 29 07 57 40.0000000  0 10
G10  23629444.393 6 124173564.86906      1830.513 6        41.594    23629447.070 5  96758627.69605      1426.374 5        30.063    23629447.076 7  96758623.70407      1426.328 7        43.094
G12  23204134.393 6 121938550.64406      5455.385 6        41.219    23204136.533 6  95017056.67506      4250.948 6        36.844    23204136.816 6  95017064.67406      4250.951 6        40.688
G13  23443162.905 6 123194648.08306     -1903.553 6        37.156    23443165.911 3  95995838.81103     -1483.276 3        22.188
G14  23941362.883 6 125812706.97106     -1517.969 6        37.656    23941367.055 3  98035888.07003     -1182.823 3        21.625    23941367.202 6  98035879.04906     -1182.750 6        40.125
G15  22034128.298 7 115790120.53507     -1283.975 7        42.906    22034129.414 6  90226069.63006     -1000.492 6        41.688    22034129.714 7  90226064.62507     -1000.472 7        42.656
G17  22241986.716 7 116882426.34907      1306.814 7        43.781    22241987.204 7  91077219.09907      1018.298 7        43.281    22241987.582 7  91077225.11207      1018.309 7        43.656
G19  21994214.183 7 115580376.74107      3718.868 7        44.188    21994213.325 5  90062629.90305      2897.819 5        34.375
G22  22621910.843 7 118878941.96907      -824.110 7        42.906    22621910.872 5  92632944.10505      -642.160 5        30.844
G23  23629534.171 6 124174035.92406      -399.057 6        40.375    23629535.946 4  96758997.22704      -310.956 4        26.594    23629535.569 6  96758993.20906      -310.812 6        41.281
G24  20261637.076 8 106475620.04808      2543.434 8        48.906    20261638.798 8  82968019.42108      1981.898 8        52.531    20261639.092 7  82968019.42307      1981.844 7        47.156
> 2024 02 29 07 57 41.0000000  0 10
G10  23629096.363 6 124171735.56706      1828.967 6        41.500    23629098.945 4  96757202.26404      1425.176 4        29.906    23629099.057 7  96757198.27407      1425.135 7        43.125
G12  23203096.528 6 121933096.32006      5454.141 6        40.938    23203098.602 6  95012806.55506      4249.980 6        36.844    23203098.820 6  95012814.55406      4250.022 6        40.656
G13  23443525.440 6 123196552.59806     -1904.439 6        37.031    23443528.336 3  95997322.84403     -1483.967 3        22.000
G14  23941651.774 6 125814225.79706     -1518.852 6        38.000    23941656.083 3  98037071.55703     -1183.503 3        21.563    23941656.201 6  98037062.55206     -1183.573 6        39.969
G15  22034372.793 7 115791405.59407     -1285.169 7        43.219    22034373.967 6  90227070.96906     -1001.422 6        41.656    22034374.159 7  90227065.98107     -1001.555 7        42.781
G17  22241738.075 7 116881120.70307      1305.351 7        43.875    22241738.761 7  91076201.71107      1017.163 7        43.281    22241739.224 7  91076207.70307      1017.220 7        43.781
G19  21993506.638 7 115576659.05707      3717.323 7        44.281    21993505.879 5  90059733.00505      2896.616 5        34.375
G22  22622068.022 7 118879767.13207      -825.352 7        42.906    22622067.911 5  92633587.08705      -643.125 5        30.875
G23  23629610.473 6 124174436.07706      -400.303 6        40.031    23629612.089 4  96759309.02704      -311.909 4        26.500    23629611.723 6  96759305.02306      -312.098 6        41.531
G24  20261153.266 8 106473077.72208      2542.038 8        48.781    20261155.004 8  82966038.38708      1980.811 8        52.531    20261155.340 7  82966038.39207      1980.774 7        47.219
> 2024 02 29 07 57 42.0000000  0 10
G10  23628748.270 6 124169906.82206      1828.884 6        41.594    23628750.959 4  96755777.26804      1425.108 4        29.813    23628751.056 7  96755773.27007      1425.221 7        43.063
G12  23202058.568 6 121927642.12706      5454.568 6        40.906    23202060.689 6  95008556.53706      4250.312 6        36.750    23202060.802 6  95008564.53106      4250.324 6        40.563
G13  23443887.772 6 123198457.17806     -1904.041 6        37.656    23443890.748 3  95998806.91703     -1483.655 3        22.031
G14  23941940.850 6 125815744.65206     -1518.483 6        37.875    23941945.124 3  98038255.07403     -1183.236 3        21.563    23941945.107 6  98038246.06106     -1183.174 6        39.813
G15  22034617.384 7 115792690.99007     -1285.118 7        43.188    22034618.579 6  90228072.57706     -1001.383 6        41.594    22034618.795 7  90228067.56407     -1001.283 7        42.469
G17  22241489.693 7 116879815.56107      1305.335 7        43.906    22241490.407 7  91075184.71307      1017.148 7        43.250    22241490.799 7  91075190.72107      1017.117 7        43.719
G19  21992799.339 7 115572941.83907      3717.451 7        44.313    21992798.526 5  90056836.47205      2896.716 5        34.375
G22  22622225.035 7 118880592.45107      -825.004 7        42.906    22622224.959 5  92634230.19005      -642.858 5        30.719
G23  23629686.187 6 124174836.60706      -400.214 6        40.531    23629688.339 4  96759621.12804      -311.844 4        26.500    23629687.930 6  96759617.12006      -311.928 6        41.500
G24  20260669.567 8 106470535.86808      2542.079 8        48.813    20260671.309 8  82964057.72208      1980.844 8        52.469    20260671.647 7  82964057.72707      1980.837 7        47.125
> 2024 02 29 07 57 43.0000000  0 10
G10  23628400.193 6 124168078.55606      1828.109 6        41.531    23628403.022 4  96754352.64804      1424.497 4        29.750    23628403.104 7  96754348.65407      1424.403 7        43.156
G12  23201020.683 6 121922188.00606      5454.154 6        41.156    23201022.790 6  95004306.57506      4249.988 6        36.688    23201022.889 6  95004314.56006      4250.028 6        40.219
G13  23444250.023 6 123200361.76006     -1904.704 6        37.813    23444253.155 3  96000290.99803     -1484.175 3        21.938
G14  23942230.129 6 125817263.48406     -1518.828 6        37.750    23942234.174 3  98039438.58003     -1183.489 3        21.375    23942234.284 6  98039429.55906     -1183.364 6        39.781
G15  22034862.018 7 115793976.60707     -1285.725 7        43.219    22034863.226 6  90229074.35406     -1001.861 6        41.594    22034863.286 7  90229069.34107     -1001.747 7        42.594
G17  22241241.455 7 116878510.87907      1304.459 7        44.031    22241242.147 7  91074168.07707      1016.466 7        43.281    22241242.443 7  91074174.07707      1016.480 7        43.750
G19  21992092.077 7 115569225.02907      3716.763 7        44.469    21992091.258 5  90053940.25605      2896.181 5        34.406
G22  22622382.220 7 118881417.86107      -825.285 7        43.125    22622382.016 5  92634873.36705      -643.083 5        30.813
G23  23629762.455 6 124175237.44306      -400.965 6        40.563    23629764.665 4  96759933.46504      -312.439 4        26.406    23629764.344 6  96759929.43906      -312.258 6        41.469
G24  20260185.981 8 106467994.38508      2541.346 8        48.938    20260187.676 8  82962077.34308      1980.274 8        52.500    20260188.057 7  82962077.35507      1980.209 7        47.156
> 2024 02 29 07 57 44.0000000  0 10
G10  23628052.506 6 124166250.86206      1827.858 6        41.500    23628055.215 4  96752928.46604      1424.302 4        29.719    23628055.241 7  96752924.47107      1424.263 7        43.125
G12  23199982.603 6 121916734.00906      5454.424 6        40.906    23199984.913 6  95000056.70606      4250.201 6        36.688    23199984.885 6  95000064.70906      4250.205 6        40.125
G13  23444612.409 6 123202266.45806     -1904.461 6        37.563    23444615.593 3  96001775.17403     -1483.976 3        22.031
G14  23942519.168 6 125818782.35606     -1518.484 6        37.750    23942523.153 3  98040622.10203     -1183.195 3        21.563    23942523.365 6  98040613.09406     -1183.113 6        39.844
G15  22035106.705 7 115795262.52307     -1285.567 7        43.094    22035107.922 6  90230076.35906     -1001.736 6        41.625    22035108.076 7  90230071.35807     -1001.786 7        42.469
G17  22240993.360 7 116877206.72307      1304.295 7        44.188    22240993.976 7  91073151.85107      1016.335 7        43.375    22240994.315 7  91073157.84707      1016.406 7        43.938
G19  21991384.811 7 115565508.73207      3716.543 7        44.281    21991384.080 5  90051044.43905      2896.008 5        34.438
G22  22622539.321 7 118882243.44807      -825.261 7        43.250    22622539.140 5  92635516.68205      -643.056 5        30.875
G23  23629838.767 6 124175638.64406      -400.972 6        40.344    23629841.036 4  96760246.08404      -312.434 4        26.500    23629840.626 6  96760242.06506      -312.371 6        41.469
G24  20259702.409 8 106465453.36008      2541.281 8        48.875    20259704.133 8  82960097.32308      1980.221 8        52.563    20259704.598 7  82960097.33107      1980.211 7        47.031
> 2024 02 29 07 57 45.0000000  0 10
G10  23627704.835 6 124164423.67406      1826.744 6        41.469    23627707.506 4  96751504.68404      1423.434 4        29.625    23627707.562 7  96751500.69107      1423.324 7        43.219
G12  23198944.783 6 121911280.13406      5453.534 6        40.656    23198947.058 6  94995806.93606      4249.502 6        36.625    23198947.094 6  94995814.94106      4249.520 6        40.281
G13  23444975.055 6 123204171.16206     -1905.020 6        37.844    23444978.009 3  96003259.35303     -1484.433 3        22.094
G14  23942808.207 6 125820301.22706     -1519.043 6        37.406    23942812.154 3  98041805.62603     -1183.664 3        21.500    23942812.359 6  98041796.64606     -1183.816 6        39.906
G15  22035351.362 7 115796548.72807     -1286.629 7        43.125    22035352.676 6  90231078.59406     -1002.566 6        41.656    22035352.843 7  90231073.58807     -1002.468 7        42.531
G17  22240745.320 7 116875903.03907      1303.182 7        44.281    22240745.904 7  91072135.99107      1015.469 7        43.375    22240746.190 7  91072142.00407      1015.471 7        43.969
G19  21990677.862 7 115561792.90107      3715.449 7        44.281    21990676.974 5  90048148.98605      2895.155 5        34.438
G22  22622696.639 7 118883069.16207      -825.985 7        43.000    22622696.286 5  92636160.09305      -643.627 5        30.844
G23  23629915.280 6 124176040.18806      -401.957 6        40.125    23629917.407 4  96760558.96704      -313.205 4        26.563    23629917.153 6  96760554.95606      -313.121 6        41.375
G24  20259218.927 8 106462912.76608      2540.142 8        48.844    20259220.674 8  82958117.63908      1979.332 8        52.563    20259221.124 7  82958117.64807      1979.252 7        47.094
> 2024 02 29 07 57 46.0000000  0 10
G10  23627357.329 6 124162597.21306      1826.070 6        41.281    23627359.909 4  96750081.46204      1422.912 4        29.500    23627359.820 7  96750077.47307      1422.927 7        43.156
G12  23197907.006 6 121905826.57406      5453.436 6        41.000    23197909.266 6  94991557.40906      4249.431 6        36.625    23197909.440 6  94991565.40506      4249.450 6        40.250
G13  23445337.635 6 123206076.13906     -1904.876 6        38.375    23445340.519 3  96004743.75103     -1484.305 3        21.875
G14  23943097.102 6 125821820.33106     -1519.319 6        37.875    23943101.226 3  98042989.34403     -1183.869 3        21.438    23943101.375 6  98042980.34506     -1183.772 6        40.031
G15  22035596.256 7 115797835.39307     -1286.812 7        43.469    22035597.502 6  90232081.18606     -1002.707 6        41.688    22035597.580 7  90232076.19007     -1002.767 7        42.344
G17  22240497.441 7 116874600.07707      1302.629 7        44.406    22240497.971 7  91071120.69407      1015.037 7        43.469    22240498.316 7  91071126.68807      1015.144 7        43.750
G19  21989970.765 7 115558077.71507      3714.898 7        44.281    21989970.006 5  90045254.03705      2894.727 5        34.375
G22  22622853.765 7 118883895.20507      -826.192 7        43.125    22622853.495 5  92636803.76205      -643.779 5        30.813
G23  23629992.101 6 124176442.27806      -402.288 6        40.531    23629993.898 4  96760872.28004      -313.478 4        26.500    23629993.677 6  96760868.25806      -313.514 6        41.375
G24  20258735.595 8 106460372.80108      2539.670 8        48.875    20258737.332 8  82956138.44408      1978.964 8        52.563    20258737.818 7  82956138.44407      1979.004 7        47.063
> 2024 02 29 07 57 47.0000000  0 10
G10  23627009.785 6 124160771.58306      1825.491 6        41.156    23627012.513 4  96748658.89104      1422.456 4        29.531    23627012.421 7  96748654.88907      1422.650 7        43.000
G12  23196869.276 6 121900373.40406      5453.344 6        40.969    23196871.555 6  94987308.18806      4249.357 6        36.688    23196871.810 6  94987316.19406      4249.432 6        40.281
G13  23445700.262 6 123207981.47006     -1905.275 6        38.063    23445703.079 3  96006228.41003     -1484.631 3        21.781
G14  23943386.088 6 125823339.75006     -1519.272 6        37.594    23943390.375 3  98044173.29403     -1183.843 3        21.313    23943390.780 6  98044164.25906     -1183.676 6        39.969
G15  22035841.321 7 115799122.64007     -1287.164 7        43.750    22035842.448 6  90233084.23206     -1002.984 6        41.719    22035842.650 7  90233079.23707     -1003.099 7        42.250
G17  22240249.592 7 116873297.88807      1302.130 7        44.469    22240250.180 7  91070106.00007      1014.648 7        43.500    22240250.500 7  91070112.00807      1014.618 7        43.844
G19  21989263.867 7 115554363.28707      3714.368 7        44.313    21989263.185 5  90042359.67805      2894.314 5        34.500
G22  22623010.924 7 118884721.67207      -826.366 7        43.375    22623010.784 5  92637447.75905      -643.918 5        30.875
G23  23630068.631 6 124176844.99206      -402.672 6        40.656    23630070.578 4  96761186.07404      -313.760 4        26.406    23630070.200 6  96761182.08006      -313.835 6        41.125
G24  20258252.398 8 106457833.54408      2539.241 8        48.844    20258254.133 8  82954159.80108      1978.630 8        52.594    20258254.490 7  82954159.80007      1978.661 7        47.000
> 2024 02 29 07 57 48.0000000  0 10
G10  23626662.496 6 124158946.57606      1825.165 6        40.781    23626665.247 4  96747236.80604      1422.207 4        29.563    23626665.083 7  96747232.81507      1422.214 7        43.063
G12  23195831.498 6 121894920.47406      5453.277 6        41.094    23195833.897 6  94983059.15006      4249.306 6        36.781    23195834.205 6  94983067.14506      4249.313 6        40.250
G13  23446062.817 6 123209886.94606     -1905.242 6        37.969    23446065.682 3  96007713.19303     -1484.602 3        21.594
G14  23943675.331 6 125824859.27806     -1519.262 6        37.594    23943679.510 3  98045357.33803     -1183.843 3        21.563    23943679.786 6  98045348.30906     -1183.740 6        39.875
G15  22036086.415 7 115800410.27907     -1287.403 7        43.656    22036087.466 6  90234087.58606     -1003.169 6        41.844    22036087.480 6  90234082.58106     -1003.218 6        41.969
G17  22240001.909 7 116871996.30907      1301.749 7        44.688    22240002.506 7  91069091.78307      1014.354 7        43.594    22240002.690 7  91069097.78707      1014.296 7        43.875
G19  21988557.131 7 115550649.43207      3713.925 7        44.156    21988556.463 5  90039465.76305      2893.969 5        34.563
G22  22623168.365 7 118885548.39707      -826.500 7        43.406    22623168.109 5  92638091.95205      -644.026 5        30.969
G23  23630145.335 6 124177248.18606      -402.997 6        40.469    23630147.333 4  96761500.24704      -314.011 4        26.406    23630146.867 6  96761496.22606      -313.979 6        41.219
G24  20257769.357 8 106455294.82908      2538.854 8        48.781    20257771.032 8  82952181.58108      1978.328 8        52.688    20257771.422 7  82952181.58107      1978.360 7        47.094
> 2024 02 29 07 57 49.0000000  0 10
G10  23626315.101 6 124157122.03006      1825.063 6        40.563    23626318.070 4  96745815.08104      1422.123 4        29.469    23626317.913 7  96745811.08507      1422.124 7        43.063
G12  23194793.892 6 121889467.57106      5453.581 6        41.188    23194796.235 6  94978810.14006      4249.540 6        36.875    23194796.460 6  94978818.14606      4249.485 6        40.313
G13  23446425.163 6 123211792.42006     -1904.737 6        37.781    23446428.264 3  96009197.97803     -1484.211 3        21.688
G14  23943964.309 6 125826378.75206     -1518.589 6        37.406    23943968.609 3  98046541.34503     -1183.316 3        21.688    23943968.891 6  98046532.32406     -1183.407 6        39.906
G15  22036331.646 7 115801698.11907     -1287.238 7        43.594    22036332.516 6  90235091.09206     -1003.042 6        41.938    22036332.345 7  90235086.08507     -1003.051 7        42.031
G17  22239754.319 7 116870695.15807      1301.620 7        44.750    22239754.908 7  91068077.89607      1014.256 7        43.688    22239755.050 7  91068083.89707      1014.288 7        43.875
G19  21987850.535 7 115546935.95307      3714.097 7        43.906    21987849.835 5  90036572.14105      2894.103 5        34.656
G22  22623325.688 7 118886375.17207      -826.033 7        43.344    22623325.452 5  92638736.19505      -643.664 5        31.063
G23  23630222.322 6 124177651.64706      -402.929 6        40.656    23630224.106 4  96761814.62404      -313.959 4        26.406    23630223.842 6  96761810.61806      -313.972 6        41.281
G24  20257286.421 8 106452756.46708      2538.894 8        48.719    20257287.994 8  82950203.63508      1978.361 8        52.750    20257288.406 7  82950203.64107      1978.387 7        47.219
> 2024 02 29 07 57 50.0000000  0 10
G10  23625967.747 6 124155297.56406      1824.206 6        40.500    23625970.889 4  96744393.42104      1421.461 4        29.250    23625970.579 7  96744389.41807      1421.485 7        43.281
G12  23193756.236 6 121884014.33506      5453.174 6        41.344    23193758.519 6  94974560.86906      4249.221 6        36.875    23193758.824 6  94974568.86506      4249.243 6        40.250
G13  23446787.820 6 123213697.49606     -1904.938 6        38.000    23446790.823 3  96010682.45103     -1484.373 3        21.594
G14  23944253.066 6 125827897.79206     -1518.952 6        37.531    23944257.650 3  98047724.99603     -1183.609 3        21.344    23944258.116 6  98047715.98706     -1183.690 6        39.844
G15  22036576.766 7 115802985.78407     -1287.841 7        43.813    22036577.525 6  90236094.46506     -1003.510 6        41.844    22036577.479 6  90236089.46106     -1003.405 6        41.938
G17  22239506.870 7 116869394.03807      1300.961 7        44.531    22239507.314 7  91067064.03407      1013.740 7        43.594    22239507.443 7  91067070.03607      1013.725 7        44.000
G19  21987143.695 7 115543222.51307      3713.289 7        43.875    21987143.189 5  90033678.55305      2893.471 5        34.531
G22  22623482.997 7 118887201.65107      -826.460 7        43.531    22623482.724 5  92639380.19905      -643.990 5        31.000
G23  23630299.130 6 124178054.99706      -403.517 6        40.594    23630300.853 4  96762128.91304      -314.419 4        26.438    23630300.602 6  96762124.90406      -314.391 6        41.344
G24  20256803.330 8 106450218.08008      2538.210 8        48.781    20256804.956 8  82948225.67008      1977.827 8        52.656    20256805.326 7  82948225.67607      1977.878 7        47.188
> 2024 02 29 07 57 51.0000000  0 10
G10  23625620.784 6 124153473.69106      1822.677 6        40.313    23625623.810 4  96742972.22104      1420.269 4        29.219    23625623.475 7  96742968.21407      1420.174 7        43.031
G12  23192718.458 6 121878561.26806      5451.990 6        41.281    23192720.834 6  94970311.73206      4248.300 6        36.969    23192721.300 6  94970319.73306      4248.263 6        40.406
G13  23447150.192 6 123215602.73806     -1906.425 6        37.906    23447153.405 3  96012167.04703     -1485.514 3        21.656
G14  23944542.407 6 125829416.92506     -1520.378 6        37.625    23944546.710 3  98048908.72403     -1184.685 3        21.313    23944547.062 6  98048899.70606     -1184.503 6        39.656
G15  22036821.786 7 115804273.79407     -1289.157 7        44.156    22036822.592 6  90237098.10606     -1004.529 6        41.813    22036822.623 6  90237093.10106     -1004.488 6        41.750
G17  22239259.344 7 116868093.49007      1299.339 7        44.500    22239259.828 7  91066050.62007      1012.479 7        43.531    22239260.082 7  91066056.62507      1012.440 7        43.906
G19  21986437.127 7 115539509.56907      3711.763 7        44.000    21986436.637 5  90030785.35105      2892.282 5        34.531
G22  22623640.298 7 118888028.33907      -827.800 7        43.656    22623640.022 5  92640024.36705      -645.029 5        31.031
G23  23630376.080 6 124178458.74206      -404.987 6        40.781    23630377.689 4  96762443.51504      -315.569 4        26.438    23630377.537 6  96762439.50206      -315.534 6        41.094
G24  20256320.313 8 106447680.17808      2536.685 8        48.781    20256322.012 8  82946248.08408      1976.640 8        52.594    20256322.377 7  82946248.08407      1976.665 7        47.125
> 2024 02 29 07 57 52.0000000  0 10
G10  23625273.675 6 124151650.34206      1823.127 6        40.500    23625276.839 4  96741551.42304      1420.625 4        29.000    23625276.518 7  96741547.42107      1420.633 7        43.250
G12  23191680.703 6 121873108.33506      5453.057 6        41.156    23191683.185 6  94966062.69406      4249.133 6        36.906    23191683.541 6  94966070.70906      4248.921 6        40.000
G13  23447512.960 6 123217508.03706     -1905.400 6        37.844    23447516.017 3  96013651.68303     -1484.700 3        21.406
G14  23944831.578 6 125830936.05006     -1519.058 6        37.969    23944835.804 3  98050092.45703     -1183.665 3        21.031    23944836.421 6  98050083.43406     -1183.528 6        39.438
G15  22037066.991 7 115805562.09407     -1288.269 7        44.031    22037067.727 6  90238101.97306     -1003.842 6        41.781    22037067.847 6  90238096.96706     -1003.805 6        41.750
G17  22239011.984 7 116866793.45507      1299.910 7        44.375    22239012.444 7  91065037.60307      1012.920 7        43.531    22239012.659 7  91065043.60407      1012.915 7        44.000
G19  21985730.667 7 115535797.12407      3712.337 7        43.719    21985730.179 5  90027892.53805      2892.735 5        34.469
G22  22623797.741 7 118888855.15607      -826.729 7        43.781    22623797.378 5  92640668.64005      -644.198 5        30.906
G23  23630452.995 6 124178862.84106      -404.113 6        40.781    23630454.592 4  96762758.39604      -314.884 4        26.375    23630454.543 6  96762754.39006      -315.027 6        40.906
G24  20255837.507 8 106445142.72108      2537.357 8        48.813    20255839.148 8  82944270.84408      1977.164 8        52.594    20255839.483 7  82944270.84507      1977.171 7        47.094
> 2024 02 29 07 57 53.0000000  0 10
G10  23624926.780 6 124149827.47306      1822.686 6        40.344    23624929.962 4  96740131.00104      1420.282 4        28.938    23624929.919 7  96740127.01807      1420.133 7        43.219
G12  23190643.077 6 121867655.48806      5452.792 6        41.188    23190645.522 6  94961813.72606      4248.928 6        36.938    23190645.830 6  94961821.71706      4249.052 6        40.031
G13  23447875.733 6 123219413.30106     -1905.200 6        38.063    23447878.559 3  96015136.28903     -1484.561 3        21.594
G14  23945120.751 6 125832455.17206     -1519.023 6        38.063    23945124.868 3  98051276.18103     -1183.641 3        20.969    23945125.537 6  98051267.16806     -1183.481 6        39.281
G15  22037312.075 7 115806850.64407     -1288.503 7        44.125    22037312.901 6  90239106.03306     -1004.023 6        41.875    22037313.087 6  90239101.02406     -1004.154 6        41.469
G17  22238764.516 7 116865493.87207      1299.403 7        44.625    22238765.141 7  91064024.93907      1012.525 7        43.656    22238765.381 7  91064030.94307      1012.468 7        44.031
G19  21985024.335 7 115532085.10007      3711.708 7        43.781    21985023.814 5  90025000.04905      2892.244 5        34.469
G22  22623955.024 7 118889682.06807      -826.882 7        43.969    22623954.757 5  92641312.98605      -644.318 5        30.969
G23  23630529.837 6 124179267.27706      -404.614 6        40.906    23630531.535 4  96763073.53404      -315.276 4        26.438    23630531.582 6  96763069.52706      -315.270 6        41.031
G24  20255354.663 8 106442605.64308      2536.970 8        48.844    20255356.356 8  82942293.90208      1976.861 8        52.625    20255356.782 7  82942293.90907      1976.778 7        47.156
> 2024 02 29 07 57 54.0000000  0 10
G10  23624580.024 6 124148005.41406      1821.473 6        40.344    23624583.259 4  96738711.21704      1419.336 4        28.813    23624583.370 7  96738707.20207      1419.421 7        43.125
G12  23189605.654 6 121862202.99706      5452.189 6        40.625    23189607.927 6  94957565.02906      4248.468 6        36.813    23189608.156 6  94957573.03306      4248.368 6        40.094
G13  23448238.282 6 123221318.89606     -1905.912 6        37.875    23448241.180 3  96016621.16903     -1485.116 3        21.281
G14  23945409.783 6 125833974.56906     -1519.673 6        38.094    23945414.008 3  98052460.11703     -1184.159 3        20.875    23945414.416 6  98052451.12106     -1184.127 6        38.938
G15  22037557.307 7 115808139.71607     -1289.586 7        44.281    22037558.161 6  90240110.50306     -1004.863 6        41.813    22037558.372 6  90240105.48006     -1004.696 6        41.750
G17  22238517.393 7 116864195.04207      1298.236 7        44.438    22238517.976 7  91063012.86107      1011.615 7        43.625    22238518.135 7  91063018.85907      1011.659 7        43.938
G19  21984318.049 7 115528373.78707      3710.850 7        43.844    21984317.580 5  90022108.11905      2891.577 5        34.406
G22  22624112.398 7 118890509.36907      -827.625 7        44.156    22624112.185 5  92641957.63105      -644.892 5        30.938
G23  23630606.744 6 124179672.29106      -405.502 6        41.156    23630608.617 4  96763389.11704      -315.970 4        26.469    23630608.715 6  96763385.12006      -315.848 6        41.031
G24  20254871.936 8 106440069.26108      2535.953 8        48.875    20254873.698 8  82940317.50008      1976.068 8        52.563    20254874.109 7  82940317.50607      1976.024 7        47.250
> 2024 02 29 07 57 55.0000000  0 10
G10  23624233.103 6 124146184.16006      1820.727 6        40.125    23624236.700 4  96737292.06104      1418.751 4        28.656    23624236.933 7  96737288.06407      1418.817 7        43.125
G12  23188568.306 6 121856750.92406      5451.782 6        40.719    23188570.430 6  94953316.66106      4248.143 6        36.813    23188570.713 6  94953324.64906      4248.255 6        40.063
G13  23448600.735 6 123223224.85106     -1906.310 6        38.063    23448603.883 3  96018106.32903     -1485.439 3        21.313
G14  23945699.162 6 125835494.29606     -1520.145 6        37.844    23945703.223 3  98053644.31103     -1184.522 3        20.906    23945703.622 6  98053635.29606     -1184.424 6        39.094
G15  22037802.731 7 115809429.36707     -1290.021 7        44.406    22037803.532 6  90241115.42206     -1005.209 6        41.844    22037803.757 6  90241110.41906     -1005.139 6        41.313
G17  22238270.348 7 116862897.00407      1297.476 7        44.344    22238270.955 7  91062001.40107      1011.024 7        43.625    22238271.200 7  91062007.40207      1011.030 7        43.906
G19  21983611.997 7 115524663.25707      3709.993 7        43.938    21983611.497 5  90019216.79305      2890.903 5        34.406
G22  22624269.997 7 118891337.10507      -827.988 7        43.969    22624269.698 5  92642602.61805      -645.183 5        30.938
G23  23630683.893 6 124180077.96506      -406.129 6        41.344    23630685.806 4  96763705.22604      -316.471 4        26.563    23630685.919 6  96763701.21906      -316.371 6        40.844
G24  20254389.407 8 106437533.61108      2535.125 8        48.813    20254391.183 8  82938341.66808      1975.423 8        52.594    20254391.564 7  82938341.66907      1975.519 7        47.188
> 2024 02 29 07 57 56.0000000  0 10
G10  23623886.896 6 124144363.82406      1819.800 6        40.281    23623890.301 4  96735873.61304      1418.027 4        28.594    23623890.471 7  96735869.61907      1417.899 7        43.156
G12  23187530.893 6 121851299.32506      5451.142 6        41.250    23187533.023 6  94949068.66106      4247.636 6        36.938    23187533.392 6  94949076.66206      4247.904 6        39.969
G13  23448963.523 6 123225131.22306     -1906.732 6        38.281    23448966.657 3  96019591.80603     -1485.775 3        21.656
G14  23945988.240 6 125837014.36506     -1520.415 6        38.031    23945992.510 3  98054828.76703     -1184.747 3        21.031    23945992.753 6  98054819.78306     -1184.780 6        38.781
G15  22038048.299 7 115810719.65707     -1290.659 7        44.219    22038049.033 6  90242120.84506     -1005.710 6        41.906    22038049.416 6  90242115.84006     -1005.752 6        41.281
G17  22238023.512 7 116861599.82507      1296.647 7        44.594    22238024.099 7  91060990.61007      1010.373 7        43.719    22238024.418 7  91060996.60607      1010.411 7        43.875
G19  21982906.037 7 115520953.53907      3709.273 7        43.625    21982905.589 5  90016326.10505      2890.337 5        34.438
G22  22624427.481 7 118892165.33707      -828.654 7        44.125    22624427.287 5  92643247.99205      -645.713 5        31.094
G23  23630761.263 6 124180484.32406      -406.733 6        41.094    23630763.134 4  96764021.86304      -316.929 4        26.688    23630763.283 6  96764017.86306      -316.978 6        40.813
G24  20253906.978 8 106434998.74608      2534.386 8        48.938    20253908.812 8  82936366.44708      1974.848 8        52.625    20253909.163 7  82936366.45107      1974.793 7        47.344
> 2024 02 29 07 57 57.0000000  0 10
G10  23623540.436 6 124142543.38006      1819.408 6        40.125    23623543.867 4  96734455.08304      1417.724 4        28.563    23623543.849 7  96734451.09107      1417.650 7        43.156
G12  23186493.455 6 121845847.24306      5451.122 6        40.969    23186495.521 6  94944820.28506      4247.630 6        36.969    23186495.962 6  94944828.28006      4247.625 6        40.000
G13  23449325.902 6 123227037.03406     -1906.719 6        38.281    23449329.278 3  96021076.84303     -1485.755 3        21.594
G14  23946277.483 6 125838533.86606     -1520.369 6        37.625    23946281.659 3  98056012.79303     -1184.704 3        21.000    23946281.862 6  98056003.77706     -1184.643 6        39.000
G15  22038293.680 7 115812009.62407     -1290.877 7        44.375    22038294.472 6  90243126.01106     -1005.875 6        41.938    22038294.947 6  90243121.01406     -1005.905 6        41.344
G17  22237776.600 7 116860302.52507      1296.305 7        44.594    22237777.216 7  91059979.72607      1010.109 7        43.719    22237777.534 7  91059985.73607      1010.025 7        44.188
G19  21982200.106 7 115517243.68507      3708.895 7        43.375    21982199.645 5  90013435.31205      2890.051 5        34.438
G22  22624585.014 7 118892993.09807      -828.657 7        43.938    22624584.777 5  92643892.99705      -645.703 5        31.125
G23  23630838.627 6 124180890.44006      -407.116 6        41.313    23630840.430 4  96764338.31404      -317.233 4        26.719    23630840.826 6  96764334.30406      -317.172 6        40.969
G24  20253424.572 8 106432463.68008      2534.191 8        48.938    20253426.408 8  82934391.07208      1974.694 8        52.625    20253426.713 7  82934391.07507      1974.659 7        47.313
> 2024 02 29 07 57 58.0000000  0 10
G10  23623194.311 6 124140723.55006      1819.179 6        40.063    23623197.575 4  96733037.03304      1417.537 4        28.406    23623197.388 7  96733033.04507      1417.606 7        43.156
G12  23185455.886 6 121840395.33306      5451.499 6        40.906    23185458.051 6  94940572.04606      4247.923 6        37.031    23185458.757 6  94940580.04506      4247.936 6        40.250
G13  23449688.351 6 123228942.98406     -1906.441 6        38.188    23449691.963 3  96022561.99503     -1485.527 3        21.719
G14  23946566.492 6 125840053.45806     -1519.981 6        37.656    23946570.834 3  98057196.89603     -1184.388 3        21.000    23946570.929 6  98057187.89006     -1184.442 6        38.656
G15  22038539.267 7 115813299.95407     -1290.859 7        44.406    22038539.977 7  90244131.45907     -1005.861 7        42.000    22038540.470 6  90244126.47006     -1005.919 6        41.313
G17  22237529.967 7 116859005.81807      1296.066 7        44.531    22237530.450 7  91058969.30407      1009.922 7        43.750    22237530.861 7  91058975.31007      1009.856 7        44.031
G19  21981494.174 7 115513534.37607      3708.727 7        43.344    21981493.804 5  90010544.94305      2889.915 5        34.406
G22  22624742.481 7 118893821.06707      -828.449 7        43.750    22624742.330 5  92644538.16605      -645.544 5        31.156
G23  23630915.890 6 124181296.96906      -407.040 6        40.906    23630917.803 4  96764655.08404      -317.166 4        26.688    23630918.079 6  96764651.08706      -317.101 6        40.906
G24  20252942.362 8 106429929.15608      2533.886 8        48.688    20252944.104 8  82932416.11708      1974.459 8        52.625    20252944.404 7  82932416.12207      1974.429 7        47.438
> 2024 02 29 07 57 59.0000000  0 10
G10  23622848.151 6 124138904.79506      1818.875 6        40.063    23622851.472 4  96731619.82204      1417.307 4        28.531    23622851.116 7  96731615.82207      1417.238 7        43.125
G12  23184418.494 6 121834944.09706      5451.405 6        41.031    23184420.715 6  94936324.33006      4247.849 6        37.094    23184421.542 6  94936332.32906      4247.856 6        40.063
G13  23450051.068 6 123230849.50906     -1906.350 6        38.563    23450054.781 3  96024047.59503     -1485.462 3        21.594
G14  23946855.531 6 125841573.59406     -1519.839 6        37.688    23946860.166 3  98058381.40403     -1184.264 3        21.094    23946860.376 6  98058372.40206     -1184.430 6        38.781
G15  22038784.842 7 115814591.10707     -1291.204 7        44.813    22038785.639 7  90245137.54707     -1006.126 7        42.063    22038785.910 6  90245132.53006     -1005.907 6        41.313
G17  22237283.484 7 116857710.13407      1295.745 7        44.844    22237283.889 7  91057959.67907      1009.676 7        43.813    22237284.366 7  91057965.68607      1009.605 7        44.188
G19  21980788.446 7 115509826.05807      3708.353 7        43.656    21980788.155 5  90007655.34805      2889.627 5        34.438
G22  22624900.187 7 118894649.71307      -828.436 7        43.844    22624900.045 5  92645183.85805      -645.525 5        31.219
G23  23630993.237 6 124181704.40606      -407.440 6        41.563    23630995.345 4  96764972.56204      -317.470 4        26.781    23630995.627 6  96764968.55506      -317.354 6        41.000
G24  20252460.322 8 106427395.57608      2533.546 8        48.875    20252461.978 8  82930441.90008      1974.196 8        52.688    20252462.338 7  82930441.89907      1974.283 7        47.438
> 2024 02 29 07 58  0.0000000  0 10
G10  23622502.178 6 124137086.38506      1818.770 6        39.531    23622505.444 4  96730202.87604      1417.228 4        28.500    23622505.066 7  96730198.87507      1417.394 7        43.125
G12  23183381.356 6 121829492.78506      5451.838 6        40.875    23183383.361 6  94932076.55406      4248.185 6        37.063    23183384.209 6  94932084.55706      4248.248 6        40.344
G13  23450413.639 6 123232755.92006     -1905.777 6        38.875    23450417.591 3  96025533.10503     -1484.999 3        21.500
G14  23947144.784 6 125843093.59006     -1519.621 6        37.688    23947149.507 3  98059565.80703     -1184.130 3        21.063    23947149.471 6  98059556.78506     -1183.971 6        38.969
G15  22039030.649 7 115815882.33607     -1290.772 7        44.344    22039031.314 7  90246143.69507     -1005.796 7        42.031    22039031.746 6  90246138.69006     -1005.789 6        41.156
G17  22237037.045 7 116856414.77807      1295.716 7        44.969    22237037.391 7  91056950.31107      1009.648 7        43.813    22237037.787 7  91056956.31207      1009.630 7        44.063
G19  21980082.915 7 115506118.04507      3708.382 7        43.250    21980082.568 5  90004765.99005      2889.647 5        34.375
G22  22625057.787 7 118895478.31007      -828.010 7        43.906    22625057.745 5  92645829.51605      -645.206 5        31.156
G23  23631070.876 6 124182111.96606      -407.071 6        41.094    23631072.887 4  96765290.14004      -317.196 4        26.719    23631072.895 6  96765286.14306      -317.178 6        41.125
G24  20251978.341 8 106424862.24108      2533.817 8        48.656    20251979.897 8  82928467.87008      1974.403 8        52.625    20251980.259 7  82928467.87907      1974.342 7        47.438
> 2024 02 29 07 58  1.0000000  0 10
G10  23622156.645 6 124135268.31806      1818.081 6        39.156    23622159.497 4  96728786.20404      1416.680 4        28.313    23622159.096 7  96728782.19007      1416.707 7        43.188
G12  23182344.073 6 121824041.38406      5451.756 6        40.844    23182345.985 6  94927828.70506      4248.115 6        37.063    23182346.847 6  94927836.72106      4247.978 6        40.313
G13  23450776.150 6 123234662.16606     -1905.850 6        39.219    23450780.329 3  96027018.47603     -1485.077 3        21.719
G14  23947434.037 6 125844613.35206     -1519.175 6        37.531    23947438.767 3  98060750.03303     -1183.773 3        20.813    23947438.858 6  98060741.04306     -1184.066 6        39.094
G15  22039276.380 7 115817173.66407     -1291.186 7        44.313    22039277.017 7  90247149.92407     -1006.119 7        42.000    22039277.499 6  90247144.90406     -1005.965 6        41.219
G17  22236790.587 7 116855119.70507      1295.221 7        44.969    22236790.942 7  91055941.16207      1009.264 7        43.781    22236791.399 7  91055947.16807      1009.221 7        44.031
G19  21979377.524 7 115502410.28007      3707.970 7        43.500    21979377.009 5  90001876.82205      2889.324 5        34.344
G22  22625215.450 7 118896306.84207      -828.254 7        43.938    22625215.415 5  92646475.12505      -645.396 5        31.250
G23  23631148.435 6 124182519.69606      -407.577 6        40.875    23631150.506 4  96765607.85104      -317.593 4        26.719    23631150.542 6  96765603.85906      -317.625 6        40.781
G24  20251496.340 8 106422329.13908      2533.269 8        48.688    20251497.860 8  82926494.02508      1973.976 8        52.594    20251498.186 7  82926494.02707      1974.005 7        47.500
> 2024 02 29 07 58  2.0000000  0 10
G10  23621810.708 6 124133450.61706      1817.400 6        39.594    23621813.586 4  96727369.81004      1416.168 4        28.281    23621813.280 7  96727365.80107      1416.170 7        43.469
G12  23181306.725 6 121818589.96106      5451.290 6        41.000    23181308.614 6  94923580.84406      4247.758 6        37.094    23181309.378 6  94923588.84906      4247.744 6        40.156
G13  23451138.878 6 123236568.34306     -1906.262 6        39.469    23451143.120 3  96028503.80303     -1485.379 3        21.906
G14  23947723.104 6 125846133.03506     -1519.642 6        37.625    23947727.929 3  98061934.19103     -1184.130 3        20.844    23947728.320 6  98061925.20006     -1184.218 6        38.594
G15  22039522.098 7 115818465.10907     -1291.588 7        44.531    22039522.741 7  90248156.24107     -1006.432 7        42.031    22039523.293 6  90248151.25606     -1006.537 6        41.188
G17  22236544.328 7 116853825.00907      1294.358 7        45.094    22236544.565 7  91054932.30707      1008.592 7        43.781    22236545.047 7  91054938.30007      1008.638 7        44.031
G19  21978672.059 7 115498702.85707      3707.088 7        43.750    21978671.512 5  89998987.92005      2888.643 5        34.344
G22  22625372.968 7 118897135.36707      -828.712 7        44.250    22625373.089 5  92647120.72505      -645.747 5        31.281
G23  23631226.118 6 124182927.63906      -408.112 6        40.813    23631228.182 4  96765925.72504      -318.008 4        26.594    23631228.076 6  96765921.73006      -318.128 6        40.844
G24  20251014.353 8 106419796.33208      2532.490 8        48.844    20251015.886 8  82924520.40908      1973.369 8        52.594    20251016.243 7  82924520.41307      1973.353 7        47.531
> 2024 02 29 07 58  3.0000000  0 10
G10  23621464.876 6 124131633.64006      1816.929 6        39.594    23621467.862 4  96725953.98304      1415.789 4        28.313    23621467.691 7  96725949.96507      1415.939 7        43.250
G12  23180269.295 6 121813138.83706      5451.334 6        41.094    23180271.291 6  94919333.21506      4247.795 6        37.156    23180272.200 6  94919341.19706      4247.877 6        40.375
G13  23451501.887 6 123238474.76506     -1906.168 6        39.531    23451505.943 3  96029989.32503     -1485.320 3        21.813
G14  23948012.267 6 125847652.91706     -1519.699 6        37.906    23948017.105 3  98063118.50303     -1184.175 3        20.813    23948017.462 6  98063109.48406     -1183.972 6        38.688
G15  22039767.861 7 115819757.05007     -1291.777 7        44.531    22039768.560 7  90249162.94407     -1006.579 7        42.063    22039769.368 6  90249157.93606     -1006.557 6        41.344
G17  22236298.043 7 116852530.97507      1294.060 7        45.000    22236298.312 7  91053923.96807      1008.363 7        43.781    22236298.536 7  91053929.96307      1008.393 7        44.000
G19  21977966.721 7 115494996.08407      3706.711 7        43.813    21977966.127 5  89996099.52305      2888.347 5        34.375
G22  22625530.762 7 118897964.21807      -828.624 7        44.281    22625530.821 5  92647766.57805      -645.674 5        31.281
G23  23631304.128 6 124183336.10506      -408.306 6        40.625    23631305.944 4  96766244.00604      -318.156 4        26.594    23631305.798 6  96766239.99606      -318.201 6        40.625
G24  20250532.417 8 106417264.12208      2532.297 8        48.813    20250534.015 8  82922547.25508      1973.222 8        52.625    20250534.372 7  82922547.25907      1973.199 7        47.375
> 2024 02 29 07 58  4.0000000  0 10
G10  23621119.182 6 124129817.07406      1815.814 6        39.500    23621122.241 4  96724538.47504      1414.921 4        28.313    23621121.977 7  96724534.48207      1414.959 7        43.125
G12  23179232.068 6 121807687.73106      5450.550 6        41.188    23179233.960 6  94915085.60206      4247.185 6        37.063    23179234.821 6  94915093.58806      4247.266 6        40.156
G13  23451864.872 6 123240381.11006     -1906.943 6        39.313    23451868.780 3  96031474.78503     -1485.936 3        21.594
G14  23948301.613 6 125849172.70206     -1520.331 6        37.531    23948306.284 3  98064302.74303     -1184.673 3        20.719    23948306.834 6  98064293.75106     -1184.634 6        38.781
G15  22040013.708 7 115821049.14107     -1292.655 7        44.594    22040014.401 7  90250169.76707     -1007.260 7        42.000    22040015.311 6  90250164.78306     -1007.332 6        41.406
G17  22236051.944 7 116851237.34807      1292.843 7        44.969    22236052.136 7  91052915.94407      1007.411 7        43.750    22236052.314 7  91052921.94007      1007.466 7        43.938
G19  21977261.477 7 115491289.66507      3705.750 7        43.406    21977260.836 5  89993211.40905      2887.599 5        34.313
G22  22625688.446 7 118898793.12207      -829.556 7        44.031    22625688.571 5  92648412.47405      -646.405 5        31.188
G23  23631381.843 6 124183744.82406      -409.513 6        40.813    23631383.688 4  96766562.48604      -319.099 4        26.344    23631383.636 6  96766558.48106      -318.936 6        40.563
G24  20250050.597 8 106414732.25208      2531.171 8        48.750    20250052.216 8  82920574.36908      1972.343 8        52.531    20250052.663 7  82920574.37407      1972.311 7        47.406
> 2024 02 29 07 58  5.0000000  0 10
G10  23620773.613 6 124128001.73706      1815.349 6        39.625    23620776.840 4  96723123.92504      1414.560 4        28.313    23620776.408 7  96723119.91007      1414.578 7        43.188
G12  23178195.014 6 121802237.40906      5450.428 6        40.906    23178196.780 6  94910838.59406      4247.091 6        37.031    23178197.681 6  94910846.59106      4247.112 6        40.219
G13  23452227.756 6 123242288.21006     -1906.897 6        39.344    23452231.692 3  96032960.83703     -1485.897 3        21.625
G14  23948591.131 6 125850693.17906     -1520.358 6        37.344    23948595.670 3  98065487.52903     -1184.698 3        20.594    23948596.226 6  98065478.52706     -1184.785 6        39.250
G15  22040259.757 7 115822342.20807     -1293.019 7        44.563    22040260.434 6  90251177.35006     -1007.546 6        41.938    22040261.430 6  90251172.35706     -1007.579 6        41.531
G17  22235805.919 7 116849944.88407      1292.415 7        44.969    22235806.174 7  91051908.82607      1007.081 7        43.688    22235806.206 7  91051914.82507      1007.044 7        43.844
G19  21976556.302 7 115487584.39707      3705.150 7        43.906    21976555.773 5  89990324.19005      2887.132 5        34.219
G22  22625846.153 7 118899622.81407      -829.598 7        44.188    22625846.472 5  92649058.98505      -646.435 5        31.094
G23  23631459.732 6 124184154.54606      -409.795 6        40.531    23631461.641 4  96766881.75204      -319.315 4        26.031    23631461.523 6  96766877.73706      -319.253 6        40.594
G24  20249568.935 8 106412201.47908      2530.687 8        48.781    20249570.618 8  82918602.33808      1971.968 8        52.500    20249571.105 7  82918602.33807      1971.954 7        47.469
> 2024 02 29 07 58  6.0000000  0 10
G10  23620428.247 6 124126186.79106      1814.072 6        39.750    23620431.465 4  96721709.67704      1413.564 4        28.406    23620431.014 7  96721705.66907      1413.657 7        43.219
G12  23177157.723 6 121796787.06106      5449.993 6        41.219    23177159.587 6  94906591.56706      4246.747 6        37.063    23177160.346 6  94906599.56506      4246.562 6        40.125
G13  23452590.912 6 123244195.22806     -1907.631 6        39.156    23452594.605 3  96034446.81403     -1486.446 3        21.688
G14  23948880.454 6 125852213.51306     -1520.712 6        37.188    23948885.051 3  98066672.19103     -1184.962 3        20.875    23948885.690 6  98066663.20806     -1185.044 6        38.813
G15  22040505.958 7 115823635.40707     -1293.874 7        44.406    22040506.494 7  90252185.03507     -1008.212 7        42.000    22040507.614 6  90252180.03306     -1008.157 6        41.813
G17  22235560.055 7 116848652.77807      1291.428 7        45.063    22235560.289 7  91050901.98907      1006.308 7        43.781    22235560.341 7  91050907.99507      1006.255 7        43.938
G19  21975851.367 7 115483879.45107      3704.195 7        43.500    21975850.750 5  89987437.21705      2886.389 5        34.250
G22  22626004.205 7 118900452.51607      -830.252 7        44.094    22626004.361 5  92649705.50005      -646.954 5        31.156
G23  23631537.941 6 124184564.48506      -410.752 6        40.656    23631539.604 4  96767201.17904      -320.055 4        25.813    23631539.470 6  96767197.17106      -319.912 6        40.844
G24  20249087.412 8 106409671.00408      2529.805 8        48.719    20249089.078 8  82916630.54008      1971.276 8        52.563    20249089.534 7  82916630.54407      1971.224 7        47.438
> 2024 02 29 07 58  7.0000000  0 10
G10  23620083.025 6 124124372.23306      1814.180 6        39.438    23620086.198 4  96720295.73504      1413.655 4        28.406    23620085.782 7  96720291.73107      1413.531 7        43.188
G12  23176120.485 6 121791336.72506      5450.097 6        40.719    23176122.408 6  94902344.55306      4246.832 6        37.063    23176123.147 6  94902352.54506      4246.799 6        40.031
G13  23452953.741 6 123246102.15306     -1907.225 6        39.031    23452957.526 3  96035932.71003     -1486.138 3        21.750
G14  23949169.873 6 125853733.78706     -1520.520 6        37.094    23949174.387 3  98067856.81603     -1184.824 3        20.906    23949174.944 6  98067847.79106     -1184.741 6        38.688
G15  22040752.080 7 115824928.75807     -1293.595 7        44.219    22040752.590 7  90253192.83807     -1007.996 7        42.031    22040753.621 6  90253187.83806     -1008.058 6        41.844
G17  22235314.281 7 116847361.04907      1291.345 7        44.750    22235314.470 7  91049895.44507      1006.248 7        43.781    22235314.362 7  91049901.45507      1006.177 7        43.750
G19  21975146.459 7 115480174.84607      3704.175 7        43.063    21975145.794 5  89984550.51205      2886.375 5        34.219
G22  22626162.081 7 118901282.22307      -829.850 7        43.906    22626162.245 5  92650352.02205      -646.634 5        31.188
G23  23631615.946 6 124184974.63706      -410.436 6        40.344    23631617.576 4  96767520.76904      -319.813 4        25.781    23631617.365 6  96767516.76206      -319.863 6        40.656
G24  20248606.001 8 106407140.83108      2529.754 8        48.313    20248607.605 8  82914658.97308      1971.241 8        52.563    20248608.073 7  82914658.98107      1971.226 7        47.250
> 2024 02 29 07 58  8.0000000  0 10
G10  23619738.002 6 124122558.57806      1812.153 6        39.656    23619741.078 4  96718882.49104      1412.063 4        28.438    23619740.696 7  96718878.48607      1412.084 7        42.813
G12  23175083.526 6 121785886.84606      5448.711 6        40.531    23175085.291 6  94898097.89306      4245.750 6        37.031    23175086.002 6  94898105.88406      4245.767 6        39.906
G13  23453316.904 6 123248009.48606     -1908.350 6        39.188    23453320.483 3  96037418.93603     -1487.012 3        21.656
G14  23949459.352 6 125855254.39706     -1521.571 6        36.906    23949463.777 3  98069041.70203     -1185.643 3        21.000    23949464.307 6  98069032.72006     -1185.956 6        38.938
G15  22040998.320 7 115826222.73207     -1295.226 7        44.031    22040998.806 7  90254201.12807     -1009.267 7        42.031    22040999.782 7  90254196.12807     -1009.208 7        42.063
G17  22235068.700 7 116846070.18207      1289.540 7        44.656    22235068.817 7  91048889.57307      1004.838 7        43.781    22235068.515 7  91048895.57407      1004.860 7        43.719
G19  21974441.635 7 115476471.08207      3702.523 7        43.000    21974440.995 5  89981664.46205      2885.086 5        34.250
G22  22626319.989 7 118902112.42507      -831.315 7        44.125    22626320.227 5  92650998.93105      -647.781 5        31.219
G23  23631694.103 6 124185385.51106      -412.187 6        40.531    23631695.699 4  96767840.93004      -321.194 4        25.781    23631695.455 6  96767836.93006      -321.202 6        40.906
G24  20248124.573 8 106404611.45308      2528.138 8        48.625    20248126.279 8  82912688.03108      1969.979 8        52.563    20248126.703 7  82912688.03207      1969.985 7        47.375
> 2024 02 29 07 58  9.0000000  0 10
G10  23619392.707 6 124120745.48806      1811.865 6        40.406    23619396.066 4  96717469.69104      1411.850 4        28.531    23619395.624 7  96717465.69207      1411.790 7        42.938
G12  23174046.558 6 121780437.13706      5448.632 6        40.375    23174048.214 6  94893851.36506      4245.687 6        37.000    23174048.919 6  94893859.36806      4245.627 6        40.281
G13  23453679.852 6 123249916.94806     -1908.467 6        38.969    23453683.454 3  96038905.25003     -1487.109 3        21.656
G14  23949748.854 6 125856775.09606     -1521.664 6        37.000    23949753.149 3  98070226.66203     -1185.716 3        21.031    23949753.600 6  98070217.65606     -1185.669 6        38.531
G15  22041244.601 7 115827517.06307     -1295.470 7        44.156    22041245.099 7  90255209.69307     -1009.456 7        42.063    22041246.066 6  90255204.69406     -1009.411 6        41.969
G17  22234823.123 7 116844779.86007      1289.066 7        44.688    22234823.263 7  91047884.12507      1004.468 7        43.813    22234823.060 7  91047890.12907      1004.442 7        43.625
G19  21973736.921 7 115472767.81607      3701.977 7        42.938    21973736.326 5  89978778.79905      2884.656 5        34.219
G22  22626478.104 7 118902942.81807      -831.354 7        44.125    22626478.290 5  92651645.98905      -647.803 5        31.344
G23  23631772.225 6 124185796.77806      -412.435 6        40.344    23631773.984 4  96768161.38704      -321.368 4        25.719    23631773.783 6  96768157.38306      -321.384 6        40.906
G24  20247643.303 8 106402082.55308      2527.693 8        48.531    20247645.039 8  82910717.45708      1969.631 8        52.594    20247645.499 7  82910717.46307      1969.609 7        47.281
> 2024 02 29 07 58 10.0000000  0 10
G10  23619047.722 6 124118933.31106      1811.782 6        40.375    23619051.223 4  96716057.60004      1411.778 4        28.469    23619050.724 7  96716053.59207      1411.745 7        42.938
G12  23173009.648 6 121774987.93506      5449.023 6        40.094    23173011.250 6  94889605.23206      4245.989 6        36.875    23173012.118 6  94889613.22606      4246.033 6        40.375
G13  23454042.771 6 123251824.83606     -1908.049 6        39.281    23454046.523 3  96040391.90503     -1486.783 3        21.875
G14  23950038.205 6 125858296.17306     -1521.098 6        37.219    23950042.584 3  98071411.90403     -1185.244 3        20.781    23950042.933 6  98071402.90706     -1185.486 6        38.719
G15  22041490.933 7 115828812.04607     -1295.202 7        44.094    22041491.516 7  90256218.77007     -1009.248 7        42.031    22041492.456 7  90256213.76507     -1009.341 7        42.219
G17  22234577.691 7 116843490.41107      1289.115 7        44.813    22234577.882 7  91046879.35807      1004.507 7        43.781    22234577.755 7  91046885.36707      1004.417 7        43.625
G19  21973032.490 7 115469065.40407      3702.021 7        42.750    21973031.790 5  89975893.80505      2884.692 5        34.125
G22  22626636.143 7 118903773.72507      -831.056 7        43.938    22626636.447 5  92652293.44405      -647.570 5        31.375
G23  23631850.564 6 124186208.75506      -412.253 6        40.563    23631852.381 4  96768482.40504      -321.237 4        25.688    23631852.192 6  96768478.40206      -321.194 6        40.938
G24  20247162.243 8 106399554.46008      2527.729 8        48.594    20247163.955 8  82908747.51308      1969.659 8        52.594    20247164.444 7  82908747.51507      1969.716 7        47.438
> 2024 02 29 07 58 11.0000000  0 10
G10  23618702.960 6 124117121.73906      1811.396 6        40.281    23618706.465 4  96714645.98204      1411.480 4        28.563    23618705.855 7  96714641.97507      1411.478 7        42.906
G12  23171972.842 6 121769538.91406      5449.002 6        40.250    23171974.325 6  94885359.24106      4245.972 6        36.906    23171975.389 6  94885367.24706      4245.997 6        40.156
G13  23454405.706 6 123253732.82506     -1907.866 6        39.656    23454409.596 3  96041878.65003     -1486.655 3        21.844
G14  23950327.638 6 125859817.33106     -1520.870 6        37.313    23950332.077 3  98072597.21003     -1185.085 3        20.656    23950332.587 6  98072588.22006     -1185.124 6        38.656
G15  22041737.401 7 115830107.38207     -1295.325 7        44.250    22041737.997 7  90257228.12207     -1009.344 7        42.063    22041738.980 7  90257223.11907     -1009.373 7        42.406
G17  22234332.460 7 116842201.53707      1288.695 7        44.781    22234332.614 7  91045875.04207      1004.180 7        43.813    22234332.792 7  91045881.03807      1004.299 7        43.250
G19  21972327.908 7 115465363.51907      3701.787 7        42.875    21972327.344 5  89973009.22105      2884.505 5        34.156
G22  22626794.414 7 118904604.84607      -831.108 7        44.125    22626794.640 5  92652941.06705      -647.618 5        31.469
G23  23631929.142 6 124186621.14706      -412.378 6        40.250    23631930.840 4  96768803.74204      -321.326 4        25.625    23631930.887 6  96768799.74806      -321.351 6        40.813
G24  20246681.252 8 106397026.86508      2527.466 8        48.594    20246682.965 8  82906777.95908      1969.454 8        52.656    20246683.490 7  82906777.96307      1969.445 7        47.563
> 2024 02 29 07 58 12.0000000  0 10
G10  23618358.388 6 124115310.92806      1810.253 6        40.594    23618361.873 4  96713234.96104      1410.584 4        28.625    23618361.372 7  96713230.96307      1410.661 7        43.031
G12  23170936.052 6 121764090.24806      5448.422 6        40.313    23170937.454 6  94881113.52806      4245.524 6        36.875    23170938.507 6  94881121.52106      4245.570 6        40.125
G13  23454768.516 6 123255641.14006     -1908.512 6        39.656    23454772.714 3  96043365.64003     -1487.137 3        21.531
G14  23950617.047 6 125861338.76606     -1521.558 6        37.594    23950621.632 3  98073782.74303     -1185.629 3        20.688    23950622.289 6  98073773.74406     -1185.640 6        39.000
G15  22041984.033 7 115831403.24007     -1296.196 7        44.156    22041984.575 7  90258237.87707     -1010.024 7        42.063    22041985.577 7  90258232.86907     -1010.013 7        42.625
G17  22234087.313 7 116840913.40007      1287.629 7        44.844    22234087.475 7  91044871.29707      1003.348 7        43.813    22234087.681 7  91044877.29907      1003.402 7        43.281
G19  21971623.480 7 115461662.34707      3700.844 7        43.094    21971623.023 5  89970125.19505      2883.774 5        34.156
G22  22626952.720 7 118905436.33307      -831.723 7        44.250    22626952.891 5  92653588.97805      -648.093 5        31.500
G23  23632007.541 6 124187034.12906      -413.275 6        40.000    23632009.406 4  96769125.54104      -322.038 4        25.625    23632009.484 6  96769121.55406      -322.141 6        40.750
G24  20246200.405 8 106394499.94808      2526.458 8        48.656    20246202.104 8  82904808.93208      1968.668 8        52.688    20246202.537 7  82904808.93407      1968.641 7        47.719
> 2024 02 29 07 58 13.0000000  0 10
G10  23618013.993 6 124113501.04606      1810.060 6        40.625    23618017.464 4  96711824.65804      1410.442 4        28.750    23618017.051 7  96711820.66107      1410.541 7        42.813
G12  23169899.268 6 121758642.09706      5448.516 6        40.375    23169900.677 6  94876868.21606      4245.596 6        36.844    23169901.636 6  94876876.22506      4245.653 6        40.156
G13  23455131.618 6 123257549.88206     -1908.369 6        39.906    23455135.877 3  96044852.96203     -1487.036 3        21.594
G14  23950906.900 6 125862860.62606     -1521.452 6        37.844    23950911.273 3  98074968.60203     -1185.529 3        20.594    23950911.715 6  98074959.58606     -1185.400 6        38.844
G15  22042230.816 7 115832699.78807     -1296.262 7        44.156    22042231.301 7  90259248.17107     -1010.072 7        42.063    22042232.282 7  90259243.15107     -1009.950 7        42.469
G17  22233842.260 7 116839626.15807      1287.486 7        44.813    22233842.506 7  91043868.25007      1003.236 7        43.719    22233842.726 7  91043874.25407      1003.217 7        43.344
G19  21970919.127 7 115457962.04407      3700.651 7        42.938    21970918.859 5  89967241.83905      2883.621 5        34.125
G22  22627111.063 7 118906268.34907      -831.538 7        44.094    22627111.213 5  92654237.29905      -647.947 5        31.531
G23  23632086.345 6 124187447.85206      -413.332 6        39.906    23632088.080 4  96769447.92104      -322.082 4        25.625    23632088.209 6  96769443.93106      -322.137 6        40.688
G24  20245719.780 8 106391973.85108      2526.341 8        48.625    20245721.405 8  82902840.54408      1968.576 8        52.625    20245721.812 7  82902840.54907      1968.535 7        47.656
> 2024 02 29 07 58 14.0000000  0 10
G10  23617669.801 6 124111691.28706      1809.227 6        40.594    23617673.064 4  96710414.45204      1409.787 4        28.719    23617672.705 7  96710410.45407      1409.745 7        42.813
G12  23168862.452 6 121753193.64806      5448.068 6        40.438    23168863.842 6  94872622.67306      4245.246 6        36.844    23168864.944 6  94872630.67506      4245.197 6        40.188
G13  23455494.636 6 123259458.27306     -1908.698 6        39.750    23455498.986 3  96046340.01603     -1487.300 3        21.375
G14  23951196.591 6 125864382.05906     -1521.738 6        37.375    23951200.784 3  98076154.12403     -1185.768 3        20.500    23951201.235 6  98076145.12506     -1185.919 6        38.719
G15  22042477.407 7 115833996.17907     -1296.898 7        44.094    22042478.001 7  90260258.34407     -1010.572 7        42.063    22042478.930 7  90260253.32407     -1010.449 7        42.656
G17  22233597.296 7 116838339.00707      1286.592 7        44.750    22233597.551 7  91042865.27507      1002.541 7        43.719    22233597.783 7  91042871.27107      1002.516 7        43.156
G19  21970215.287 7 115454261.79707      3699.703 7        42.781    21970214.722 5  89964358.52805      2882.884 5        34.031
G22  22627269.300 7 118907100.08507      -832.154 7        44.094    22627269.486 5  92654885.40005      -648.427 5        31.469
G23  23632165.168 6 124187861.51706      -414.207 6        40.000    23632166.767 4  96769770.25304      -322.757 4        25.563    23632166.848 6  96769766.25206      -322.645 6        40.500
G24  20245239.087 8 106389447.76608      2525.425 8        48.500    20245240.701 8  82900872.16408      1967.863 8        52.656    20245241.050 7  82900872.16507      1967.895 7        47.688
> 2024 02 29 07 58 15.0000000  0 10
G10  23617325.738 6 124109882.32506      1808.472 6        40.688    23617328.812 4  96709004.87104      1409.204 4        28.750    23617328.571 7  96709000.87007      1409.275 7        42.938
G12  23167825.872 6 121747745.60006      5447.886 6        40.438    23167827.087 6  94868377.44506      4245.107 6        36.750    23167828.114 6  94868385.46106      4244.915 6        40.281
G13  23455857.826 6 123261366.98606     -1908.961 6        40.188    23455862.176 3  96047827.32203     -1487.491 3        21.688
G14  23951486.188 6 125865903.81106     -1522.033 6        37.219    23951490.361 3  98077339.88803     -1185.992 3        20.438    23951490.577 6  98077330.89606     -1186.068 6        38.875
G15  22042724.355 7 115835293.14807     -1297.260 7        44.063    22042724.808 7  90261268.96907     -1010.852 7        42.031    22042725.733 7  90261263.95207     -1010.920 7        42.563
G17  22233352.520 7 116837052.62507      1285.944 7        44.438    22233352.743 7  91041862.89707      1002.032 7        43.656    22233353.234 7  91041868.90807      1002.066 7        43.063
G19  21969511.343 7 115450562.30807      3698.976 7        42.563    21969510.709 5  89961475.81205      2882.315 5        33.969
G22  22627427.623 7 118907932.23907      -832.384 7        44.156    22627427.848 5  92655533.83005      -648.609 5        31.500
G23  23632243.942 6 124188275.80406      -414.634 6        39.938    23632245.566 4  96770093.07404      -323.091 4        25.344    23632245.664 6  96770089.08406      -323.169 6        40.469
G24  20244758.491 8 106386922.39108      2524.948 8        48.469    20244760.136 8  82898904.34008      1967.489 8        52.594    20244760.510 7  82898904.34707      1967.439 7        47.719
> 2024 02 29 07 58 16.0000000  0 10
G10  23616981.943 6 124108074.18306      1807.857 6        40.781    23616984.725 4  96707595.93204      1408.719 4        28.844    23616984.469 7  96707591.93207      1408.606 7        42.750
G12  23166789.173 6 121742297.97006      5447.570 6        40.438    23166790.422 6  94864132.53806      4244.860 6        36.750    23166791.604 6  94864140.55006      4244.814 6        40.156
G13  23456221.245 6 123263276.05706     -1909.143 6        40.406    23456225.379 3  96049314.90403     -1487.644 3        21.781
G14  23951775.676 6 125867425.86606     -1522.194 6        37.594    23951779.966 3  98078525.89603     -1186.109 3        20.344    23951780.369 6  98078516.87406     -1185.974 6        38.781
G15  22042971.314 7 115836590.67307     -1297.713 7        44.094    22042971.713 7  90262280.02407     -1011.200 7        42.031    22042972.779 7  90262275.01407     -1011.295 7        42.719
G17  22233107.977 7 116835767.04207      1285.307 7        44.563    22233108.091 7  91040861.14107      1001.537 7        43.656    22233108.718 7  91040867.14307      1001.522 7        43.250
G19  21968807.568 7 115446863.57407      3698.440 7        42.531    21968806.840 5  89958593.68005      2881.904 5        33.875
G22  22627586.056 7 118908764.81907      -832.651 7        44.188    22627586.305 5  92656182.58905      -648.808 5        31.500
G23  23632322.651 6 124188690.71906      -414.973 6        39.281    23632324.504 4  96770416.38504      -323.353 4        25.156    23632324.575 6  96770412.39606      -323.560 6        40.406
G24  20244278.049 8 106384397.73808      2524.320 8        48.375    20244279.709 8  82896937.07708      1967.004 8        52.563    20244280.187 7  82896937.08407      1967.036 7        47.844
> 2024 02 29 07 58 17.0000000  0 10
G10  23616638.016 6 124106266.38006      1807.828 6        40.594    23616640.732 4  96706187.25604      1408.701 4        28.969    23616640.455 7  96706183.25807      1408.693 7        42.938
G12  23165752.563 6 121736850.27406      5447.988 6        40.500    23165753.735 6  94859887.58106      4245.184 6        36.813    23165755.075 6  94859895.57606      4245.247 6        40.344
G13  23456584.565 6 123265184.98106     -1908.723 6        40.219    23456588.685 3  96050802.36603     -1487.293 3        21.344
G14  23952065.380 6 125868947.72806     -1521.342 6        36.469    23952069.597 3  98079711.75503     -1185.452 3        20.375    23952069.830 6  98079702.76406     -1185.757 6        39.125
G15  22043218.134 7 115837888.29607     -1297.473 7        43.969    22043218.640 7  90263291.15707     -1011.016 7        42.031    22043219.881 7  90263286.14607     -1010.996 7        42.750
G17  22232863.532 7 116834481.77407      1285.304 7        44.719    22232863.498 7  91039859.63207      1001.539 7        43.625    22232864.235 7  91039865.63807      1001.526 7        43.125
G19  21968103.939 7 115443165.09407      3698.482 7        42.594    21968103.029 5  89955711.74905      2881.935 5        33.875
G22  22627744.450 7 118909597.34607      -832.197 7        44.281    22627744.730 5  92656831.30905      -648.459 5        31.531
G23  23632401.704 6 124189105.77906      -414.837 6        39.563    23632403.441 4  96770739.80904      -323.246 4        24.938    23632403.513 6  96770735.80606      -323.355 6        40.625
G24  20243797.740 8 106381873.33208      2524.441 8        48.375    20243799.323 8  82894970.00508      1967.100 8        52.594    20243799.957 7  82894970.01107      1967.127 7        47.844
> 2024 02 29 07 58 18.0000000  0 10
G10  23616294.033 6 124104459.26406      1806.474 6        40.875    23616296.864 4  96704779.10904      1407.649 4        29.156    23616296.626 7  96704775.10007      1407.647 7        42.719
G12  23164716.125 6 121731402.83406      5446.889 6        40.563    23164717.101 6  94855642.82206      4244.323 6        36.875    23164718.434 6  94855650.81706      4244.500 6        40.375
G13  23456947.858 6 123267094.12006     -1909.508 6        40.063    23456952.035 3  96052290.00703     -1487.921 3        21.500
G14  23952355.051 6 125870469.75806     -1522.480 6        37.125    23952359.260 3  98080897.75403     -1186.352 3        20.500    23952359.507 6  98080888.75606     -1186.395 6        38.750
G15  22043465.090 7 115839186.34207     -1298.598 7        43.969    22043465.657 7  90264302.62007     -1011.892 7        42.063    22043466.731 7  90264297.60807     -1011.858 7        42.813
G17  22232619.022 7 116833197.13907      1284.011 7        44.750    22232619.021 7  91038858.61707      1000.529 7        43.688    22232619.550 7  91038864.62507      1000.430 7        42.875
G19  21967400.223 7 115439467.24907      3697.078 7        42.500    21967399.330 5  89952830.31305      2880.838 5        33.938
G22  22627902.994 7 118910430.15707      -833.292 7        43.938    22627903.240 5  92657480.25005      -649.315 5        31.531
G23  23632480.764 6 124189521.35706      -416.213 6        39.969    23632482.477 4  96771063.63304      -324.310 4        25.031    23632482.642 6  96771059.62006      -324.366 6        40.219
G24  20243317.385 8 106379349.49608      2523.217 8        48.375    20243319.048 8  82893003.37908      1966.142 8        52.656    20243319.730 7  82893003.38207      1966.135 7        47.594
> 2024 02 29 07 58 19.0000000  0 10
G10  23615950.232 6 124102652.94006      1805.352 6        40.781    23615953.108 4  96703371.58004      1406.771 4        29.219    23615953.026 7  96703367.58007      1406.779 7        42.813
G12  23163679.484 6 121725955.76806      5446.456 6        40.719    23163680.543 6  94851398.36006      4243.987 6        36.875    23163681.715 6  94851406.36206      4243.927 6        40.625
G13  23457311.277 6 123269003.55306     -1910.004 6        40.125    23457315.301 3  96053777.86803     -1488.306 3        21.438
G14  23952644.897 6 125871992.07306     -1522.799 6        36.719    23952648.990 3  98082083.97003     -1186.608 3        20.625    23952649.505 6  98082074.95306     -1186.708 6        38.781
G15  22043712.385 7 115840484.92107     -1299.265 7        43.375    22043712.777 7  90265314.49607     -1012.414 7        42.031    22043713.745 7  90265309.48607     -1012.366 7        42.656
G17  22232374.737 7 116831913.26807      1283.082 7        44.563    22232374.696 7  91037858.19807       999.804 7        43.688    22232375.102 7  91037864.19707       999.773 7        42.938
G19  21966696.674 7 115435770.12907      3696.256 7        42.406    21966695.756 5  89949949.43905      2880.197 5        33.813
G22  22628061.477 7 118911263.35007      -833.816 7        44.094    22628061.822 5  92658129.48905      -649.727 5        31.594
G23  23632560.108 6 124189937.51606      -416.948 6        39.781    23632561.638 4  96771387.90504      -324.890 4        25.031    23632561.839 6  96771383.91606      -324.885 6        40.469
G24  20242837.246 8 106376826.35408      2522.297 8        48.313    20242838.907 8  82891037.29408      1965.426 8        52.688    20242839.524 7  82891037.30107      1965.426 7        47.750
> 2024 02 29 07 58 20.0000000  0 10
G10  23615606.698 6 124100847.26806      1805.227 6        40.531    23615609.469 4  96701964.55704      1406.672 4        29.375    23615609.392 7  96701960.56507      1406.676 7        42.844
G12  23162643.099 6 121720508.94506      5446.567 6        40.594    23162644.030 6  94847154.08106      4244.078 6        36.969    23162645.102 6  94847162.08906      4244.076 6        40.719
G13  23457674.777 6 123270913.17706     -1909.704 6        39.969    23457678.616 3  96055265.88003     -1488.086 3        21.438
G14  23952934.334 6 125873514.53406     -1522.596 6        37.031    23952938.702 3  98083270.29303     -1186.411 3        20.875    23952939.393 6  98083261.27806     -1186.385 6        39.094
G15  22043959.508 7 115841783.90807     -1299.314 7        43.250    22043959.973 7  90266326.68707     -1012.447 7        42.031    22043960.830 7  90266321.68007     -1012.362 7        42.656
G17  22232130.497 7 116830630.01207      1282.882 7        44.625    22232130.487 7  91036858.25807       999.651 7        43.719    22232130.891 7  91036864.25807       999.571 7        42.906
G19  21965993.277 7 115432073.61007      3696.015 7        42.500    21965992.289 5  89947069.03505      2880.009 5        33.813
G22  22628219.840 7 118912096.82707      -833.739 7        44.031    22628220.443 5  92658778.94805      -649.666 5        31.625
G23  23632639.441 6 124190354.16206      -416.872 6        40.094    23632640.866 4  96771712.55504      -324.834 4        25.156    23632641.140 6  96771708.56106      -324.956 6        40.500
G24  20242357.185 8 106374303.76808      2522.201 8        48.406    20242358.874 8  82889071.64308      1965.351 8        52.688    20242359.538 7  82889071.64407      1965.416 7        47.719
> 2024 02 29 07 58 21.0000000  0 10
G10  23615263.238 6 124099042.23706      1804.857 6        40.688    23615265.945 4  96700558.03804      1406.382 4        29.469    23615266.000 7  96700554.03607      1406.583 7        43.063
G12  23161606.629 6 121715062.35506      5446.849 6        40.500    23161607.561 6  94842909.98506      4244.297 6        36.969    23161608.547 6  94842918.00206      4244.231 6        40.906
G13  23458038.311 6 123272822.97206     -1909.594 6        39.969    23458042.065 3  96056754.03103     -1487.996 3        21.406
G14  23953224.087 6 125875037.10506     -1522.204 6        36.875    23953228.427 3  98084456.70003     -1186.117 3        20.969    23953229.194 6  98084447.70106     -1186.218 6        38.750
G15  22044206.689 7 115843083.29607     -1299.287 7        43.250    22044207.240 7  90267339.19307     -1012.430 7        42.000    22044207.986 7  90267334.18907     -1012.429 7        42.594
G17  22231886.260 7 116829347.37407      1282.648 7        44.469    22231886.395 7  91035858.79807       999.467 7        43.719    22231886.841 7  91035864.79407       999.434 7        43.125
G19  21965290.037 7 115428377.66607      3696.053 7        42.281    21965288.934 5  89944189.07805      2880.041 5        33.844
G22  22628378.463 7 118912930.54507      -833.492 7        43.969    22628379.106 5  92659428.59905      -649.470 5        31.688
G23  23632719.015 6 124190771.28206      -417.126 6        40.188    23632720.197 4  96772037.58504      -325.031 4        25.125    23632720.556 6  96772033.57006      -325.045 6        40.406
G24  20241877.281 8 106371781.72308      2522.041 8        48.406    20241878.949 8  82887106.41308      1965.227 8        52.750    20241879.542 7  82887106.41607      1965.248 7        47.688
> 2024 02 29 07 58 22.0000000  0 10
G10  23614919.561 6 124097237.66106      1804.229 6        40.938    23614922.511 4  96699151.87504      1405.896 4        29.469    23614922.623 7  96699147.88307      1405.845 7        42.813
G12  23160570.018 6 121709615.83106      5446.310 6        40.719    23160571.120 6  94838665.94106      4243.880 6        36.969    23160572.115 6  94838673.94706      4243.949 6        40.750
G13  23458401.635 6 123274732.74906     -1909.955 6        40.188    23458405.545 3  96058242.15803     -1488.249 3        21.281
G14  23953513.963 6 125876559.64906     -1522.582 6        36.594    23953518.130 3  98085643.10003     -1186.394 3        20.844    23953518.878 6  98085634.07706     -1186.393 6        38.875
G15  22044453.972 7 115844382.89107     -1299.903 7        43.375    22044454.552 6  90268351.86206     -1012.907 6        41.969    22044455.316 7  90268346.84707     -1012.716 7        42.875
G17  22231642.179 7 116828065.17407      1281.790 7        44.750    22231642.383 7  91034859.67807       998.798 7        43.688    22231642.877 7  91034865.67207       998.908 7        42.844
G19  21964586.551 7 115424682.16307      3695.094 7        42.344    21964585.660 5  89941309.46405      2879.298 5        33.844
G22  22628537.070 7 118913764.32907      -833.915 7        44.188    22628537.759 5  92660078.29905      -649.799 5        31.688
G23  23632798.502 6 124191188.65306      -417.709 6        40.000    23632799.596 4  96772362.80404      -325.478 4        25.000    23632800.080 6  96772358.79706      -325.358 6        40.188
G24  20241397.518 8 106369260.05808      2521.292 8        48.406    20241399.090 8  82885141.47808      1964.645 8        52.719    20241399.653 7  82885141.47407      1964.719 7        47.656
> 2024 02 29 07 58 23.0000000  0 10
G10  23614576.144 6 124095433.89606      1804.207 6        40.906    23614579.265 4  96697746.34204      1405.878 4        29.563    23614579.402 7  96697742.33607      1405.928 7        42.906
G12  23159533.426 6 121704169.66306      5446.862 6        40.906    23159534.741 6  94834422.17606      4244.305 6        36.969    23159535.642 6  94834430.19706      4244.122 6        40.781
G13  23458765.051 6 123276642.84706     -1909.512 6        40.250    23458769.021 3  96059730.54203     -1487.939 3        21.500
G14  23953803.622 6 125878082.46106     -1522.301 6        36.500    23953807.878 3  98086829.68703     -1186.200 3        20.969    23953808.644 6  98086820.69706     -1186.303 6        38.625
G15  22044701.462 7 115845683.03107     -1299.633 7        43.531    22044701.976 6  90269364.95606     -1012.698 6        41.906    22044702.624 7  90269359.93707     -1012.646 7        42.813
G17  22231398.143 7 116826783.71507      1281.823 7        44.625    22231398.518 7  91033861.13907       998.824 7        43.656    22231399.079 7  91033867.13707       998.871 7        42.563
G19  21963883.412 7 115420987.33407      3695.315 7        42.313    21963882.524 5  89938430.37705      2879.463 5        33.781
G22  22628696.017 7 118914598.51307      -833.530 7        44.031    22628696.506 5  92660728.31105      -649.504 5        31.688
G23  23632877.950 6 124191606.63306      -417.562 6        39.875    23632879.088 4  96772688.49804      -325.372 4        25.063    23632879.435 6  96772684.51106      -325.344 6        40.344
G24  20240917.784 8 106366739.05608      2521.485 8        48.469    20240919.356 8  82883177.06008      1964.792 8        52.750    20240919.843 7  82883177.06307      1964.796 7        47.469
> 2024 02 29 07 58 24.0000000  0 10
G10  23614232.995 6 124093630.11006      1804.462 6        41.344    23614236.005 4  96696340.78704      1406.062 4        29.688    23614236.134 7  96696336.80507      1406.011 7        42.938
G12  23158496.886 6 121698723.12306      5447.276 6        41.125    23158498.277 6  94830178.11906      4244.631 6        37.063    23158499.086 6  94830186.12306      4244.686 6        41.094
G13  23459128.443 6 123278552.46906     -1908.843 6        40.406    23459132.492 3  96061218.55003     -1487.413 3        21.688
G14  23954093.120 6 125879604.76906     -1521.388 6        36.000    23954097.657 3  98088015.89203     -1185.482 3        20.719    23954098.082 6  98088006.88706     -1185.640 6        38.313
G15  22044948.957 7 115846982.92007     -1299.266 7        43.375    22044949.355 6  90270377.85306     -1012.408 6        41.875    22044949.822 7  90270372.84207     -1012.412 7        42.844
G17  22231154.233 7 116825502.23607      1282.037 7        44.813    22231154.645 7  91032862.58007       998.993 7        43.656    22231155.272 7  91032868.58807       998.954 7        42.594
G19  21963180.338 7 115417292.47307      3695.503 7        42.250    21963179.384 5  89935551.26405      2879.616 5        33.781
G22  22628854.985 7 118915432.30507      -832.965 7        44.031    22628855.208 5  92661378.01405      -649.057 5        31.688
G23  23632957.482 6 124192024.42306      -417.051 6        40.250    23632958.539 4  96773014.05104      -324.969 4        25.000    23632958.682 6  96773010.04206      -325.008 6        39.781
G24  20240438.088 8 106364217.98208      2521.706 8        48.531    20240439.605 8  82881212.58408      1964.965 8        52.719    20240440.022 7  82881212.59507      1965.008 7        47.375
> 2024 02 29 07 58 25.0000000  0 10
G10  23613889.656 6 124091826.98406      1802.566 6        41.344    23613892.884 4  96694935.76004      1404.595 4        29.688    23613893.066 7  96694931.76107      1404.604 7        43.125
G12  23157460.389 6 121693276.77606      5445.923 6        40.969    23157461.875 6  94825934.21906      4243.572 6        37.031    23157462.599 6  94825942.22106      4243.602 6        41.094
G13  23459491.889 6 123280462.24006     -1910.144 6        40.594    23459495.982 3  96062706.68003     -1488.413 3        21.781
G14  23954382.617 6 125881127.17406     -1522.917 6        36.563    23954387.409 3  98089202.17503     -1186.684 3        20.844    23954387.734 6  98089193.17406     -1186.796 6        38.594
G15  22045196.387 7 115848283.18107     -1300.766 7        43.219    22045196.801 6  90271391.04006     -1013.583 6        41.781    22045197.290 7  90271386.02907     -1013.594 7        42.719
G17  22230910.581 7 116824221.35307      1280.218 7        44.813    22230910.888 7  91031864.49007       997.575 7        43.625    22230911.523 7  91031870.48507       997.598 7        42.625
G19  21962477.278 7 115413598.20707      3693.743 7        42.344    21962476.369 5  89932672.61705      2878.238 5        33.656
G22  22629013.821 7 118916266.32807      -834.415 7        43.938    22629013.920 5  92662027.90005      -650.194 5        31.625
G23  23633037.005 6 124192442.66606      -418.769 6        40.000    23633038.112 4  96773339.95404      -326.315 4        25.063    23633038.474 6  96773335.95406      -326.305 6        40.250
G24  20239958.490 8 106361697.42308      2519.988 8        48.594    20239959.961 8  82879248.51508      1963.627 8        52.719    20239960.374 7  82879248.51907      1963.609 7        47.406
> 2024 02 29 07 58 26.0000000  0 10
G10  23613546.726 6 124090024.70906      1801.464 6        41.125    23613549.915 4  96693531.38304      1403.743 4        29.781    23613550.007 7  96693527.39107      1403.634 7        43.125
G12  23156424.185 6 121687830.87606      5445.084 6        40.781    23156425.559 6  94821690.66406      4242.923 6        37.094    23156426.493 6  94821698.67306      4242.900 6        41.219
G13  23459855.352 6 123282372.41006     -1910.793 6        40.656    23459859.413 3  96064195.11403     -1488.924 3        21.875
G14  23954672.495 6 125882649.93006     -1523.363 6        36.344    23954677.242 3  98090388.73503     -1187.039 3        21.188    23954677.592 6  98090379.73106     -1186.989 6        38.813
G15  22045443.765 7 115849584.06007     -1301.766 7        42.719    22045444.359 6  90272404.70706     -1014.358 6        41.719    22045444.823 7  90272399.69007     -1014.224 7        42.594
G17  22230667.009 7 116822941.28807      1279.195 7        44.563    22230667.287 7  91030867.03407       996.778 7        43.656    22230668.018 7  91030873.02307       996.771 7        42.531
G19  21961774.546 7 115409904.73507      3692.666 7        42.406    21961773.483 5  89929794.58805      2877.394 5        33.719
G22  22629172.599 7 118917100.81207      -835.201 7        43.938    22629172.711 5  92662678.14205      -650.800 5        31.719
G23  23633116.683 6 124192861.58706      -419.649 6        40.000    23633117.854 4  96773666.38404      -326.996 4        24.938    23633118.036 6  96773662.38106      -327.068 6        39.875
G24  20239479.073 8 106359177.63508      2518.999 8        48.563    20239480.460 8  82877285.04108      1962.855 8        52.781    20239480.789 7  82877285.04607      1962.801 7        47.094
> 2024 02 29 07 58 27.0000000  0 10
G10  23613203.932 6 124088222.74906      1802.019 6        40.906    23613207.022 4  96692127.25804      1404.174 4        29.781    23613207.136 7  96692123.27107      1404.046 7        42.875
G12  23155387.926 6 121682384.91006      5446.182 6        40.813    23155389.242 6  94817447.05206      4243.775 6        37.188    23155390.109 6  94817455.06806      4243.634 6        41.156
G13  23460218.982 6 123284282.43006     -1909.889 6        40.531    23460222.889 3  96065683.43403     -1488.213 3        21.875
G14  23954962.221 6 125884172.51306     -1522.395 6        36.406    23954967.048 3  98091575.16603     -1186.281 3        21.000    23954967.088 6  98091566.16406     -1186.297 6        38.781
G15  22045691.166 7 115850885.02907     -1300.943 7        42.969    22045691.944 6  90273418.44606     -1013.719 6        41.719    22045692.358 7  90273413.43707     -1013.650 7        42.563
G17  22230423.448 7 116821661.53807      1279.585 7        44.594    22230423.745 7  91029869.82407       997.081 7        43.688    22230424.564 7  91029875.82907       996.971 7        42.531
G19  21961071.892 7 115406211.54607      3693.128 7        42.375    21961070.665 5  89926916.77605      2877.763 5        33.750
G22  22629331.300 7 118917935.25507      -834.413 7        43.875    22629331.512 5  92663328.35205      -650.188 5        31.719
G23  23633196.318 6 124193280.67406      -419.168 6        40.375    23633197.601 4  96773992.94704      -326.625 4        24.875    23633197.963 6  96773988.93606      -326.481 6        39.813
G24  20238999.650 8 106356658.10108      2519.406 8        48.500    20239001.003 8  82875321.76608      1963.174 8        52.813    20239001.319 7  82875321.77507      1963.131 7        47.094
> 2024 02 29 07 58 28.0000000  0 10
G10  23612861.154 6 124086421.15106      1801.731 6        41.125    23612864.188 4  96690723.41204      1403.948 4        29.719    23612864.161 7  96690719.41107      1403.956 7        42.875
G12  23154351.777 6 121676938.88206      5446.432 6        41.156    23154352.917 6  94813203.39406      4243.977 6        37.125    23154353.661 6  94813211.40006      4243.988 6        41.313
G13  23460582.321 6 123286192.31406     -1909.470 6        40.625    23460586.297 3  96067171.65103     -1487.878 3        21.813
G14  23955252.103 6 125885694.94606     -1522.014 6        36.344    23955256.818 3  98092761.46703     -1185.983 3        20.875    23955256.892 6  98092752.44506     -1185.969 6        38.531
G15  22045938.783 7 115852186.11207     -1300.941 7        42.969    22045939.551 6  90274432.27406     -1013.713 6        41.625    22045939.990 7  90274427.25507     -1013.571 7        42.656
G17  22230179.986 7 116820382.07907      1279.662 7        44.375    22230180.265 7  91028872.84307       997.143 7        43.625    22230181.025 7  91028878.84507       997.138 7        42.656
G19  21960369.216 7 115402518.62007      3693.218 7        42.344    21960367.873 5  89924039.16905      2877.838 5        33.688
G22  22629489.879 7 118918769.61607      -833.961 7        43.906    22629490.290 5  92663978.50005      -649.839 5        31.688
G23  23633276.071 6 124193699.88206      -418.879 6        40.406    23633277.299 4  96774319.59604      -326.395 4        24.906    23633277.908 6  96774315.59706      -326.430 6        39.969
G24  20238520.218 8 106354138.78508      2519.435 8        48.531    20238521.592 8  82873358.66208      1963.194 8        52.781    20238521.884 7  82873358.67107      1963.220 7        47.000
> 2024 02 29 07 58 29.0000000  0 10
G10  23612518.371 6 124084620.42706      1800.332 6        41.313    23612521.509 4  96689320.25004      1402.857 4        29.688    23612521.575 7  96689316.25207      1402.780 7        42.656
G12  23153315.395 6 121671493.30906      5445.415 6        41.469    23153316.663 6  94808960.09406      4243.179 6        37.188    23153317.597 6  94808968.10806      4243.101 6        41.438
G13  23460945.712 6 123288102.60006     -1910.458 6        40.781    23460949.791 3  96068660.17603     -1488.665 3        21.844
G14  23955542.011 6 125887217.70306     -1522.793 6        36.313    23955546.593 3  98093948.03103     -1186.581 3        20.906    23955546.555 6  98093939.01206     -1186.675 6        38.188
G15  22046186.429 7 115853487.80107     -1302.050 7        43.063    22046187.279 6  90275446.57406     -1014.580 6        41.563    22046187.866 7  90275441.56307     -1014.544 7        42.594
G17  22229936.795 7 116819103.50007      1278.154 7        44.281    22229936.951 7  91027876.54607       995.967 7        43.594    22229937.772 7  91027882.53407       996.020 7        42.688
G19  21959666.717 7 115398826.52407      3691.814 7        42.531    21959665.256 5  89921162.21305      2876.735 5        33.688
G22  22629648.671 7 118919604.49207      -835.093 7        43.844    22629649.167 5  92664629.05205      -650.718 5        31.688
G23  23633355.853 6 124194119.82806      -420.373 6        40.500    23633357.167 4  96774646.82104      -327.559 4        24.875    23633357.731 6  96774642.81606      -327.389 6        40.031
G24  20238041.001 8 106351620.26208      2518.103 8        48.656    20238042.332 8  82871396.17608      1962.158 8        52.781    20238042.658 7  82871396.18707      1962.065 7        47.063
> 2024 02 29 07 58 30.0000000  0 10
G10  23612175.930 6 124082820.58406      1799.625 6        41.250    23612178.987 4  96687917.77104      1402.310 4        29.813    23612178.998 7  96687913.76407      1402.405 7        42.688
G12  23152278.961 6 121666048.18906      5445.215 6        41.781    23152280.499 6  94804717.14506      4243.020 6        37.313    23152281.401 6  94804725.15806      4243.039 6        41.469
G13  23461309.112 6 123290013.27406     -1910.336 6        40.781    23461313.365 3  96070149.00703     -1488.564 3        22.000
G14  23955831.915 5 125888740.84805     -1522.981 5        35.781    23955836.367 3  98095134.88103     -1186.734 3        20.875    23955836.629 6  98095125.85506     -1186.443 6        38.375
G15  22046434.340 7 115854790.09507     -1302.117 7        42.844    22046435.123 6  90276461.34506     -1014.630 6        41.500    22046435.781 7  90276456.33907     -1014.748 7        42.656
G17  22229693.597 7 116817825.74407      1277.762 7        44.188    22229693.793 7  91026880.88607       995.663 7        43.625    22229694.624 7  91026886.88407       995.594 7        42.781
G19  21958964.079 7 115395135.23807      3691.285 7        42.344    21958962.800 5  89918285.88805      2876.330 5        33.656
G22  22629807.423 7 118920439.82307      -835.196 7        43.719    22629808.142 5  92665279.95505      -650.797 5        31.688
G23  23633435.947 6 124194540.42406      -420.559 6        40.500    23633437.231 4  96774974.56004      -327.705 4        24.906    23633437.560 6  96774970.55606      -327.706 6        40.188
G24  20237561.910 8 106349102.49608      2517.820 8        48.500    20237563.216 8  82869434.28108      1961.939 8        52.813    20237563.555 7  82869434.28807      1961.913 7        47.031
> 2024 02 29 07 58 31.0000000  0 10
G10  23611833.637 6 124081021.72006      1798.537 6        41.344    23611836.685 4  96686516.06104      1401.459 4        29.781    23611836.519 7  96686512.06707      1401.324 7        42.594
G12  23151242.926 6 121660603.69906      5444.157 6        41.531    23151244.469 6  94800474.68306      4242.198 6        37.375    23151245.341 6  94800482.69606      4242.358 6        41.500
G13  23461672.896 6 123291924.47806     -1911.276 6        40.719    23461677.047 3  96071638.24903     -1489.293 3        22.125
G14  23956121.953 5 125890264.46905     -1523.864 5        35.719    23956126.249 3  98096322.10903     -1187.410 3        20.688    23956126.889 6  98096313.11206     -1187.445 6        38.281
G15  22046682.195 7 115856093.17607     -1303.391 7        42.594    22046683.110 6  90277476.72706     -1015.621 6        41.406    22046683.741 7  90277471.72407     -1015.709 7        42.688
G17  22229450.706 7 116816548.96707      1276.300 7        44.094    22229450.827 7  91025885.99707       994.522 7        43.594    22229451.627 7  91025891.98807       994.560 7        42.844
G19  21958261.877 7 115391444.89007      3689.907 7        42.406    21958260.523 5  89915410.29505      2875.247 5        33.625
G22  22629966.617 7 118921275.78707      -836.255 7        43.656    22629967.225 5  92665931.35205      -651.622 5        31.688
G23  23633516.246 6 124194961.85406      -421.803 6        40.875    23633517.398 4  96775302.94204      -328.663 4        24.781    23633517.822 6  96775298.94406      -328.669 6        39.875
G24  20237082.906 8 106346585.66208      2516.384 8        48.469    20237084.274 8  82867473.11108      1960.823 8        52.781    20237084.731 7  82867473.11907      1960.787 7        47.031
> 2024 02 29 07 58 32.0000000  0 10
G10  23611491.745 6 124079223.78206      1797.342 6        41.625    23611494.539 4  96685115.06804      1400.528 4        29.719    23611494.291 7  96685111.06207      1400.539 7        42.594
G12  23150206.985 6 121655159.68406      5443.590 6        41.656    23150208.541 6  94796232.59606      4241.758 6        37.438    23150209.396 6  94796240.59906      4241.760 6        41.844
G13  23462036.500 6 123293836.12206     -1912.020 6        40.656    23462040.804 3  96073127.83503     -1489.877 3        22.188
G14  23956411.765 5 125891788.52505     -1524.574 5        35.563    23956416.243 3  98097509.67103     -1187.972 3        20.563    23956416.819 6  98097500.64406     -1187.858 6        38.375
G15  22046930.334 7 115857396.88907     -1304.183 7        42.688    22046931.209 6  90278492.60506     -1016.241 6        41.313    22046931.788 7  90278487.60307     -1016.325 7        42.844
G17  22229207.818 7 116815273.05707      1275.323 7        44.313    22229208.018 7  91024891.77807       993.761 7        43.563    22229208.898 7  91024897.77707       993.857 7        43.031
G19  21957559.864 7 115387755.38407      3688.909 7        42.688    21957558.402 5  89912535.35605      2874.471 5        33.531
G22  22630125.712 7 118922112.22807      -836.964 7        43.906    22630126.370 5  92666583.12405      -652.179 5        31.594
G23  23633596.693 6 124195383.99706      -422.619 6        41.094    23633597.740 4  96775631.87504      -329.314 4        24.750    23633598.248 6  96775627.87406      -329.254 6        39.875
G24  20236604.097 8 106344069.61508      2515.480 8        48.625    20236605.484 8  82865512.55408      1960.115 8        52.750    20236606.015 7  82865512.56407      1960.123 7        47.313
> 2024 02 29 07 58 33.0000000  0 10
G10  23611149.695 6 124077426.24506      1797.564 6        41.781    23611152.455 4  96683714.39004      1400.698 4        29.813    23611152.208 7  96683710.39607      1400.594 7        42.500
G12  23149170.993 6 121649715.66806      5444.227 6        41.750    23149172.618 6  94791990.51006      4242.253 6        37.625    23149173.517 6  94791998.51706      4242.196 6        41.813
G13  23462400.128 6 123295747.69406     -1911.381 6        40.875    23462404.584 3  96074617.36503     -1489.380 3        22.156
G14  23956701.708 5 125893312.40605     -1523.582 5        35.969    23956706.227 3  98098697.09603     -1187.210 3        20.500    23956707.066 6  98098688.09406     -1187.169 6        37.719
G15  22047178.444 7 115858700.75607     -1303.672 7        42.563    22047179.335 6  90279508.59906     -1015.844 6        41.313    22047179.961 7  90279503.59207     -1015.841 7        42.844
G17  22228965.046 7 116813997.53507      1275.598 7        44.281    22228965.281 7  91023897.86407       993.969 7        43.563    22228966.323 7  91023903.85907       993.963 7        43.031
G19  21956857.810 7 115384066.23807      3689.114 7        43.031    21956856.362 5  89909660.70005      2874.630 5        33.531
G22  22630285.063 7 118922948.70407      -836.305 7        43.781    22630285.542 5  92667234.91905      -651.668 5        31.625
G23  23633677.031 6 124195806.37106      -422.296 6        41.375    23633678.126 4  96775960.99504      -329.059 4        24.813    23633678.538 6  96775956.99406      -329.080 6        39.844
G24  20236125.350 8 106341553.88608      2515.832 8        48.688    20236126.761 8  82863552.24708      1960.390 8        52.781    20236127.425 7  82863552.25307      1960.377 7        47.250
> 2024 02 29 07 58 34.0000000  0 10
G10  23610807.882 6 124075629.39706      1797.091 6        41.625    23610810.497 4  96682314.24604      1400.335 4        29.750    23610810.188 7  96682310.25007      1400.275 7        42.781
G12  23148135.289 6 121644271.91306      5444.147 6        41.344    23148136.713 6  94787748.62306      4242.187 6        37.719    23148137.689 6  94787756.64406      4242.124 6        41.938
G13  23462763.954 6 123297659.47506     -1911.459 6        40.844    23462768.355 3  96076107.06203     -1489.424 3        22.063
G14  23956992.012 5 125894836.50105     -1523.640 5        35.781    23956996.221 3  98099884.70103     -1187.260 3        20.375    23956996.902 6  98099875.69306     -1187.176 6        37.875
G15  22047426.619 7 115860005.07007     -1303.973 7        42.469    22047427.551 6  90280524.94306     -1016.081 6        41.250    22047428.202 7  90280519.93507     -1016.175 7        43.031
G17  22228722.431 7 116812722.66207      1275.075 7        44.281    22228722.677 7  91022904.45607       993.569 7        43.500    22228723.843 7  91022910.45307       993.570 7        43.125
G19  21956156.044 7 115380377.70707      3688.728 7        42.781    21956154.429 5  89906786.52105      2874.334 5        33.531
G22  22630444.248 7 118923785.46907      -836.365 7        43.719    22630444.763 5  92667886.94005      -651.708 5        31.625
G23  23633757.477 6 124196229.25006      -422.683 6        41.250    23633758.571 4  96776290.50804      -329.357 4        25.031    23633758.967 6  96776286.51306      -329.440 6        39.750
G24  20235646.769 8 106339038.74208      2515.334 8        48.625    20235648.145 8  82861592.39308      1960.002 8        52.781    20235648.804 7  82861592.40107      1960.001 7        47.281
> 2024 02 29 07 58 35.0000000  0 10
G10  23610466.062 6 124073832.83306      1796.543 6        41.656    23610468.601 4  96680914.32304      1399.904 4        29.594    23610468.410 7  96680910.32907      1399.828 7        42.688
G12  23147099.363 6 121638828.04306      5444.102 6        41.125    23147100.804 6  94783506.65106      4242.151 6        37.719    23147101.794 7  94783514.65407      4242.053 7        42.031
G13  23463127.733 6 123299571.05006     -1911.472 6        40.688    23463132.122 3  96077596.59603     -1489.459 3        22.063
G14  23957281.955 5 125896360.34105     -1523.700 5        35.625    23957286.148 3  98101072.10403     -1187.299 3        20.281    23957286.814 6  98101063.09106     -1187.101 6        38.156
G15  22047674.864 7 115861309.38907     -1304.262 7        42.469    22047675.761 6  90281541.29106     -1016.302 6        41.219    22047676.371 7  90281536.27707     -1016.217 7        42.938
G17  22228479.851 7 116811448.02907      1274.582 7        44.250    22228480.114 7  91021911.23407       993.182 7        43.500    22228481.377 7  91021917.22607       993.160 7        43.281
G19  21955454.191 7 115376689.38207      3688.306 7        42.750    21955452.554 5  89903912.50505      2874.000 5        33.531
G22  22630603.620 7 118924622.10107      -836.551 7        43.469    22630603.988 5  92668538.85705      -651.854 5        31.594
G23  23633838.019 6 124196652.18806      -422.921 6        40.875    23633839.078 4  96776620.07304      -329.554 4        24.969    23633839.501 6  96776616.07706      -329.510 6        39.875
G24  20235168.116 8 106336523.77208      2514.900 8        48.500    20235169.565 8  82859632.67508      1959.665 8        52.781    20235170.241 7  82859632.67907      1959.635 7        47.406
> 2024 02 29 07 58 36.0000000  0 10
G10  23610124.271 6 124072037.06206      1795.273 6        41.594    23610126.857 4  96679515.02404      1398.922 4        29.594    23610126.639 7  96679511.01807      1398.997 7        42.938
G12  23146063.555 6 121633384.57406      5443.268 6        41.313    23146064.970 6  94779264.99006      4241.508 6        37.781    23146066.098 7  94779272.99407      4241.529 7        42.219
G13  23463491.424 6 123301482.94906     -1912.142 6        40.750    23463495.960 3  96079086.38003     -1489.963 3        22.250
G14  23957571.925 5 125897884.48805     -1524.313 5        35.625    23957576.155 3  98102259.73903     -1187.778 3        20.188    23957576.594 6  98102250.72006     -1187.731 6        38.219
G15  22047923.315 7 115862614.27807     -1305.249 7        42.344    22047924.088 6  90282558.08406     -1017.070 6        41.219    22047924.695 7  90282553.07607     -1017.066 7        43.031
G17  22228237.523 7 116810174.17507      1273.445 7        44.406    22228237.703 7  91020918.61807       992.298 7        43.469    22228238.874 7  91020924.61907       992.291 7        43.406
G19  21954752.289 7 115373001.82507      3687.246 7        42.938    21954750.818 5  89901039.08505      2873.177 5        33.594
G22  22630762.960 7 118925459.17907      -837.302 7        43.594    22630763.290 5  92669191.12505      -652.435 5        31.719
G23  23633918.435 6 124197075.77906      -423.910 6        40.969    23633919.679 4  96776950.14804      -330.323 4        25.094    23633920.147 6  96776946.13906      -330.319 6        39.875
G24  20234689.658 8 106334009.51708      2513.827 8        48.625    20234691.119 8  82857673.51708      1958.826 8        52.813    20234691.855 7  82857673.51007      1958.932 7        47.563
> 2024 02 29 07 58 37.0000000  0 10
G10  23609782.603 6 124070241.61606      1795.277 6        41.813    23609785.207 4  96678115.97204      1398.922 4        29.656    23609785.031 7  96678111.97707      1398.870 7        42.813
G12  23145027.580 6 121627941.01706      5443.596 6        41.594    23145029.115 6  94775023.26006      4241.756 6        37.813    23145030.182 7  94775031.25707      4241.775 7        42.125
G13  23463855.223 6 123303394.69906     -1911.804 6        40.938    23463859.785 3  96080576.05003     -1489.721 3        22.156
G14  23957861.980 5 125899408.41105     -1523.670 5        35.719    23957866.180 3  98103447.21003     -1187.259 3        20.094    23957866.827 6  98103438.21106     -1187.386 6        38.344
G15  22048171.589 7 115863919.23807     -1305.075 7        42.563    22048172.429 6  90283574.93306     -1016.937 6        41.125    22048172.997 7  90283569.92407     -1016.980 7        43.125
G17  22227995.302 7 116808900.61107      1273.341 7        44.313    22227995.350 7  91019926.22907       992.217 7        43.438    22227996.435 7  91019932.22107       992.219 7        43.688
G19  21954050.721 7 115369314.52707      3687.148 7        43.031    21954049.135 5  89898165.86605      2873.102 5        33.594
G22  22630922.223 7 118926296.15707      -836.992 7        43.594    22630922.560 5  92669843.31305      -652.207 5        31.656
G23  23633999.066 6 124197499.50706      -423.905 6        40.688    23634000.298 4  96777280.31804      -330.293 4        24.969    23634000.778 6  96777276.31206      -330.236 6        39.813
G24  20234211.256 8 106331495.48408      2513.842 8        48.688    20234212.718 8  82855714.52908      1958.838 8        52.750    20234213.445 7  82855714.52707      1958.881 7        47.594
> 2024 02 29 07 58 38.0000000  0 10
G10  23609441.036 7 124068447.07407      1794.567 7        42.063    23609443.750 4  96676717.62604      1398.369 4        29.688    23609443.618 7  96676713.62107      1398.457 7        42.750
G12  23143991.843 6 121622497.92906      5443.185 6        41.344    23143993.353 6  94770781.89406      4241.439 6        37.813    23143994.408 7  94770789.89607      4241.590 7        42.031
G13  23464219.137 6 123305306.85606     -1911.891 6        40.969    23464223.703 3  96082066.03503     -1489.774 3        22.094
G14  23958151.932 5 125900932.75305     -1524.218 5        35.688    23958156.312 3  98104635.00103     -1187.691 3        20.063    23958156.951 6  98104625.97606     -1187.462 6        38.438
G15  22048420.029 7 115865224.82507     -1305.614 7        42.469    22048420.890 6  90284592.26906     -1017.357 6        41.094    22048421.538 7  90284587.25807     -1017.302 7        43.031
G17  22227753.051 7 116807627.89707      1272.683 7        44.438    22227753.162 7  91018934.49807       991.705 7        43.406    22227754.194 7  91018940.49507       991.724 7        43.719
G19  21953349.223 7 115365628.04107      3686.539 7        43.063    21953347.605 5  89895293.28105      2872.630 5        33.594
G22  22631081.636 7 118927133.64407      -837.304 7        43.625    22631081.947 5  92670495.89505      -652.442 5        31.625
G23  23634079.793 6 124197923.90706      -424.221 6        40.688    23634081.015 4  96777611.01404      -330.550 4        24.813    23634081.669 6  96777607.03906      -330.887 6        40.188
G24  20233732.981 8 106328982.24808      2513.187 8        48.750    20233734.469 8  82853756.16108      1958.328 8        52.750    20233735.132 7  82853756.16107      1958.336 7        47.688
> 2024 02 29 07 58 39.0000000  0 10
G10  23609099.550 7 124066652.84407      1793.153 7        42.094    23609102.310 4  96675319.51904      1397.266 4        29.781    23609102.315 7  96675315.52007      1397.249 7        42.594
G12  23142956.063 6 121617054.75606      5442.354 6        41.563    23142957.568 6  94766540.46906      4240.792 6        37.875    23142958.484 7  94766548.46807      4240.750 7        42.125
G13  23464583.240 6 123307218.86606     -1912.868 6        40.813    23464587.555 3  96083555.90103     -1490.529 3        22.188
G14  23958441.831 5 125902456.87305     -1524.877 5        35.813    23958446.368 3  98105822.60903     -1188.201 3        20.188    23958447.086 6  98105813.60606     -1188.234 6        38.125
G15  22048668.462 7 115866530.48207     -1306.641 7        42.625    22048669.360 6  90285609.66206     -1018.156 6        41.094    22048669.937 7  90285604.66407     -1018.165 7        42.969
G17  22227510.953 7 116806355.47507      1271.397 7        44.313    22227511.033 7  91017942.99807       990.704 7        43.406    22227512.141 7  91017948.99307       990.792 7        43.625
G19  21952647.808 7 115361941.84207      3685.168 7        43.094    21952646.132 5  89892420.92005      2871.558 5        33.656
G22  22631241.104 7 118927971.05807      -838.330 7        43.531    22631241.293 5  92671148.42205      -653.245 5        31.594
G23  23634160.650 6 124198348.47206      -425.539 6        40.719    23634161.799 4  96777941.83604      -331.587 4        24.781    23634162.201 6  96777937.84406      -331.612 6        40.031
G24  20233254.748 8 106326469.22208      2511.981 8        48.719    20233256.261 8  82851797.95808      1957.390 8        52.750    20233256.947 7  82851797.96507      1957.343 7        47.656
> 2024 02 29 07 58 40.0000000  0 10
G10  23608758.180 7 124064859.38807      1793.455 7        42.188    23608760.987 4  96673922.01804      1397.500 4        29.781    23608760.967 7  96673918.01907      1397.462 7        42.719
G12  23141920.396 6 121611611.95306      5443.009 6        41.813    23141921.860 6  94762299.32706      4241.312 6        37.906    23141922.567 7  94762307.31907      4241.409 7        42.125
G13  23464947.211 6 123309131.18506     -1912.242 6        41.188    23464951.393 3  96085046.01303     -1490.052 3        22.156
G14  23958731.966 5 125903981.25405     -1524.174 5        35.781    23958736.433 3  98107010.43803     -1187.664 3        20.063    23958736.815 6  98107001.46006     -1187.810 6        38.281
G15  22048917.052 7 115867836.67007     -1306.131 7        42.656    22048917.929 6  90286627.46806     -1017.757 6        41.031    22048918.443 7  90286622.46207     -1017.839 7        42.875
G17  22227268.914 7 116805083.78807      1271.713 7        44.406    22227269.038 7  91016952.07107       990.946 7        43.313    22227270.061 7  91016958.07607       990.880 7        43.688
G19  21951946.441 7 115358256.34007      3685.418 7        43.313    21951944.785 5  89889549.10105      2871.756 5        33.625
G22  22631400.500 7 118928808.83107      -837.551 7        43.750    22631400.688 5  92671801.23005      -652.629 5        31.656
G23  23634241.483 6 124198773.61806      -424.990 6        40.875    23634242.691 4  96778273.11904      -331.161 4        24.813    23634243.230 6  96778269.13306      -331.224 6        40.188
G24  20232776.702 8 106323956.88208      2512.378 8        48.844    20232778.186 8  82849840.28908      1957.699 8        52.719    20232778.878 7  82849840.28307      1957.747 7        47.688
> 2024 02 29 07 58 41.0000000  0 10
G10  23608416.892 7 124063066.69907      1792.518 7        42.250    23608419.815 4  96672525.11704      1396.765 4        29.781    23608419.801 7  96672521.12607      1396.762 7        42.594
G12  23140884.933 6 121606169.50906      5442.504 6        41.656    23140886.223 6  94758058.46306      4240.910 6        38.000    23140886.856 7  94758066.46707      4240.906 7        42.094
G13  23465311.476 6 123311043.78706     -1912.581 6        40.969    23465315.289 3  96086536.34203     -1490.304 3        22.188
G14  23959022.093 6 125905505.91506     -1524.618 6        36.219    23959026.588 3  98108198.47503     -1187.990 3        19.969    23959026.900 6  98108189.48406     -1188.104 6        38.188
G15  22049165.768 7 115869143.36807     -1306.738 7        42.719    22049166.587 6  90287645.67106     -1018.227 6        41.031    22049166.996 7  90287640.66807     -1018.311 7        42.875
G17  22227027.077 7 116803812.84107      1270.800 7        44.438    22227027.181 7  91015961.72107       990.237 7        43.281    22227027.999 7  91015967.72807       990.207 7        43.719
G19  21951245.220 7 115354571.53807      3684.673 7        43.188    21951243.572 5  89886677.82605      2871.177 5        33.625
G22  22631559.933 7 118929646.99607      -838.158 7        43.781    22631560.169 5  92672454.34205      -653.111 5        31.625
G23  23634322.381 6 124199199.36106      -425.896 6        40.844    23634323.681 4  96778604.86404      -331.859 4        24.844    23634324.385 6  96778600.86706      -331.844 6        40.156
G24  20232298.701 8 106321445.19608      2511.530 8        48.750    20232300.241 8  82847883.13208      1957.039 8        52.750    20232300.943 7  82847883.13607      1957.055 7        47.875
> 2024 02 29 07 58 42.0000000  0 10
G10  23608075.877 7 124061274.57607      1792.445 7        42.125    23608078.773 4  96671128.65804      1396.707 4        29.750    23608078.783 7  96671124.66507      1396.740 7        42.406
G12  23139849.220 6 121600727.21406      5442.835 6        41.875    23139850.591 6  94753817.71706      4241.173 6        38.063    23139851.106 6  94753825.72906      4240.964 6        41.969
G13  23465675.467 6 123312956.48806     -1912.275 6        40.938    23465679.252 3  96088026.75203     -1490.088 3        22.313
G14  23959312.120 5 125907030.60005     -1524.104 5        35.875    23959316.743 3  98109386.51003     -1187.611 3        19.656    23959316.992 6  98109377.52006     -1187.599 6        37.969
G15  22049414.562 7 115870450.39507     -1306.623 7        42.656    22049415.312 6  90288664.12906     -1018.143 6        41.063    22049415.704 7  90288659.12007     -1018.212 7        42.969
G17  22226785.428 7 116802542.43207      1270.680 7        44.313    22226785.432 7  91014971.79107       990.142 7        43.281    22226786.169 7  91014977.78607       990.197 7        43.594
G19  21950544.021 7 115350887.26107      3684.398 7        43.313    21950542.475 5  89883806.95805      2870.957 5        33.688
G22  22631719.397 7 118930485.33407      -837.891 7        43.594    22631719.694 5  92673107.59005      -652.901 5        31.688
G23  23634403.462 6 124199625.46306      -425.787 6        40.500    23634404.787 4  96778936.89404      -331.774 4        24.938    23634405.586 6  96778932.89906      -331.798 6        40.094
G24  20231820.868 8 106318933.99908      2511.493 8        48.625    20231822.386 8  82845926.35408      1957.010 8        52.750    20231822.982 7  82845926.35707      1956.970 7        47.594
> 2024 02 29 07 58 43.0000000  0 10
G10  23607735.080 7 124059483.01907      1790.887 7        42.313    23607737.826 4  96669732.64004      1395.495 4        29.813    23607737.813 7  96669728.63007      1395.485 7        42.500
G12  23138813.701 6 121595285.07106      5441.748 6        41.938    23138815.004 6  94749577.08706      4240.323 6        38.156    23138815.291 7  94749585.08707      4240.241 7        42.000
G13  23466039.545 6 123314869.23606     -1913.298 6        41.031    23466043.255 3  96089517.20003     -1490.877 3        22.281
G14  23959602.145 5 125908555.32905     -1525.248 5        35.781    23959606.844 3  98110574.61303     -1188.502 3        19.656    23959607.059 6  98110565.61506     -1188.410 6        37.938
G15  22049663.289 7 115871757.70807     -1307.852 7        42.781    22049664.095 6  90289682.80706     -1019.096 6        41.188    22049664.507 7  90289677.79407     -1019.096 7        42.969
G17  22226543.924 7 116801272.51607      1269.285 7        44.344    22226543.790 7  91013982.24607       989.059 7        43.344    22226544.310 7  91013988.25307       989.021 7        43.750
G19  21949842.981 7 115347203.44107      3683.213 7        43.313    21949841.446 5  89880936.45205      2870.041 5        33.750
G22  22631878.836 7 118931323.79507      -838.900 7        43.750    22631879.241 5  92673760.93805      -653.682 5        31.750
G23  23634484.523 6 124200051.91906      -426.997 6        40.344    23634485.970 4  96779269.19704      -332.722 4        24.906    23634486.831 6  96779265.18606      -332.693 6        39.969
G24  20231343.095 8 106316423.22808      2510.127 8        48.656    20231344.611 8  82843969.90908      1955.949 8        52.844    20231345.109 7  82843969.90907      1955.938 7        47.688
> 2024 02 29 07 58 44.0000000  0 10
G10  23607394.281 7 124057692.23507      1791.066 7        42.219    23607397.008 4  96668337.21704      1395.642 4        29.875    23607397.059 7  96668333.22507      1395.498 7        42.500
G12  23137778.301 6 121589843.30006      5442.264 6        41.813    23137779.483 6  94745336.74806      4240.724 6        38.188    23137779.936 6  94745344.75106      4240.671 6        41.969
G13  23466403.678 6 123316782.31506     -1912.601 6        41.000    23466407.290 3  96091007.90203     -1490.333 3        22.344
G14  23959892.742 5 125910080.34405     -1524.427 5        35.406    23959897.030 3  98111762.93203     -1187.857 3        19.719    23959897.167 6  98111753.92406     -1187.927 6        38.063
G15  22049912.095 7 115873065.56207     -1307.438 7        42.813    22049912.986 6  90290701.91106     -1018.772 6        41.188    22049913.543 7  90290696.91107     -1018.873 7        42.875
G17  22226302.344 7 116800003.39307      1269.409 7        44.406    22226302.295 7  91012993.31407       989.150 7        43.344    22226302.769 7  91012999.31107       989.114 7        43.531
G19  21949142.097 7 115343520.37307      3683.396 7        43.438    21949140.546 5  89878066.52705      2870.186 5        33.813
G22  22632038.426 7 118932162.69007      -838.497 7        43.844    22632038.874 5  92674414.61405      -653.372 5        31.688
G23  23634565.721 6 124200479.00606      -426.746 6        40.313    23634567.219 4  96779601.98904      -332.519 4        25.031    23634568.045 6  96779597.97706      -332.613 6        40.125
G24  20230865.449 8 106313913.16608      2510.332 8        48.781    20230866.970 8  82842014.01508      1956.105 8        52.844    20230867.589 7  82842014.01907      1956.083 7        47.594
> 2024 02 29 07 58 45.0000000  0 10
G10  23607053.447 7 124055901.97207      1789.875 7        42.219    23607056.315 4  96666942.20004      1394.708 4        29.875    23607056.390 7  96666938.20507      1394.703 7        42.531
G12  23136742.606 6 121584401.64806      5441.552 6        41.625    23136743.963 6  94741096.50006      4240.169 6        38.156    23136744.350 7  94741104.50207      4240.124 7        42.031
G13  23466767.786 6 123318695.41806     -1913.173 6        40.906    23466771.294 3  96092498.62603     -1490.779 3        22.375
G14  23960183.008 6 125911605.32406     -1524.886 6        36.094    23960187.175 3  98112951.22703     -1188.220 3        19.531    23960187.452 6  98112942.23406     -1188.381 6        38.063
G15  22050161.033 7 115874373.67807     -1308.246 7        42.781    22050161.921 6  90291721.22006     -1019.406 6        41.188    22050162.398 7  90291716.22107     -1019.508 7        42.875
G17  22226060.882 7 116798734.74107      1268.424 7        44.344    22226060.881 7  91012004.75407       988.384 7        43.313    22226061.429 7  91012010.75407       988.261 7        43.500
G19  21948441.276 7 115339837.76407      3682.375 7        43.375    21948439.726 5  89875196.96205      2869.383 5        33.781
G22  22632198.011 7 118933001.68207      -839.185 7        43.906    22632198.515 5  92675068.37305      -653.906 5        31.656
G23  23634647.242 6 124200906.41206      -427.883 6        39.844    23634648.558 4  96779935.03804      -333.421 4        24.781    23634649.196 6  96779931.02106      -333.316 6        39.969
G24  20230387.904 8 106311403.52308      2509.315 8        48.719    20230389.405 8  82840058.44808      1955.313 8        52.844    20230390.006 7  82840058.44607      1955.400 7        47.656
> 2024 02 29 07 58 46.0000000  0 10
G10  23606713.006 7 124054112.41107      1789.477 7        42.188    23606715.725 4  96665547.73504      1394.404 4        29.750    23606715.824 7  96665543.74807      1394.312 7        42.594
G12  23135707.078 6 121578960.29706      5441.342 6        41.563    23135708.509 6  94736856.49206      4240.007 6        38.094    23135708.762 6  94736864.48706      4240.087 6        41.906
G13  23467131.781 6 123320608.78306     -1913.223 6        40.813    23467135.396 3  96093989.55603     -1490.817 3        22.469
G14  23960473.577 5 125913130.53605     -1524.879 5        35.594    23960477.375 3  98114139.69003     -1188.207 3        19.313    23960477.615 6  98114130.70706     -1188.485 6        37.813
G15  22050410.066 7 115875682.26007     -1308.605 7        42.813    22050410.955 6  90292740.88806     -1019.683 6        41.188    22050411.472 7  90292735.88707     -1019.775 7        42.844
G17  22225819.619 7 116797466.77107      1267.888 7        44.313    22225819.593 7  91011016.72407       987.968 7        43.281    22225820.165 7  91011022.72407       987.947 7        43.531
G19  21947740.597 7 115336155.79907      3681.876 7        43.344    21947739.041 5  89872327.89905      2868.998 5        33.656
G22  22632357.762 7 118933841.00507      -839.269 7        43.750    22632358.233 5  92675722.38705      -653.967 5        31.563
G23  23634728.604 6 124201334.32406      -427.933 6        40.188    23634729.986 4  96780268.46904      -333.458 4        24.656    23634730.551 6  96780264.46006      -333.468 6        40.063
G24  20229910.356 8 106308894.49308      2509.000 8        48.688    20229911.961 8  82838103.35908      1955.066 8        52.813    20229912.534 7  82838103.36107      1955.040 7        47.594
> 2024 02 29 07 58 47.0000000  0 10
G10  23606372.795 7 124052323.46907      1788.639 7        42.094    23606375.291 4  96664153.75304      1393.744 4        29.719    23606375.355 7  96664149.75407      1393.837 7        42.438
G12  23134671.358 6 121573519.12206      5441.109 6        41.688    23134673.083 6  94732616.62106      4239.824 6        38.125    23134673.409 6  94732624.61706      4239.894 6        41.969
G13  23467495.965 6 123322522.24606     -1913.445 6        40.938    23467499.529 3  96095480.55803     -1490.976 3        22.313
G14  23960764.081 5 125914655.84005     -1525.215 5        35.813    23960767.632 3  98115328.23903     -1188.486 3        19.344    23960768.097 6  98115319.23106     -1188.560 6        37.906
G15  22050659.162 7 115876991.19707     -1309.064 7        42.813    22050660.051 6  90293760.83406     -1020.046 6        41.250    22050660.592 7  90293755.82807     -1020.097 7        42.938
G17  22225578.651 7 116796199.36807      1267.172 7        44.281    22225578.420 7  91010029.13407       987.410 7        43.313    22225579.054 7  91010035.13807       987.408 7        43.563
G19  21947039.994 7 115332474.39407      3681.150 7        43.438    21947038.449 5  89869459.27205      2868.429 5        33.719
G22  22632517.610 7 118934680.53707      -839.616 7        43.719    22632518.004 5  92676376.56305      -654.239 5        31.531
G23  23634810.068 6 124201762.66206      -428.476 6        39.375    23634811.486 4  96780602.23504      -333.876 4        24.719    23634812.091 6  96780598.23806      -333.914 6        40.375
G24  20229432.977 8 106306385.97208      2508.322 8        48.656    20229434.615 8  82836148.66508      1954.543 8        52.813    20229435.015 7  82836148.67107      1954.535 7        47.594
> 2024 02 29 07 58 48.0000000  0 10
G10  23606032.536 7 124050534.89607      1787.648 7        42.125    23606034.933 4  96662760.05904      1392.973 4        29.844    23606035.019 7  96662756.07607      1392.886 7        42.656
G12  23133635.868 6 121568077.92206      5440.380 6        41.594    23133637.652 6  94728376.72506      4239.253 6        38.188    23133637.898 7  94728384.72407      4239.292 7        42.000
G13  23467860.062 6 123324435.62606     -1914.189 6        40.906    23467863.617 3  96096971.48503     -1491.571 3        22.313
G14  23961054.320 5 125916180.99005     -1525.733 5        35.531    23961057.854 3  98116516.66303     -1188.889 3        19.375    23961058.438 6  98116507.65706     -1188.916 6        38.156
G15  22050908.302 7 115878300.24707     -1309.938 7        42.906    22050909.165 6  90294780.86906     -1020.727 6        41.375    22050909.606 7  90294775.85607     -1020.655 7        42.781
G17  22225337.402 7 116794932.31007      1266.108 7        44.219    22225337.315 7  91009041.81307       986.577 7        43.406    22225337.890 7  91009047.81307       986.531 7        43.375
G19  21946339.471 7 115328793.30507      3680.085 7        43.656    21946337.934 5  89866590.89505      2867.596 5        33.813
G22  22632677.424 7 118935520.04407      -840.375 7        43.875    22632677.766 5  92677030.72405      -654.834 5        31.625
G23  23634891.679 6 124202191.18606      -429.491 6        39.594    23634893.084 4  96780936.14904      -334.661 4        24.625    23634893.597 6  96780932.14906      -334.510 6        39.938
G24  20228955.671 8 106303877.72608      2507.296 8        48.719    20228957.319 8  82834194.18808      1953.738 8        52.875    20228957.686 7  82834194.18707      1953.787 7        47.719
> 2024 02 29 07 58 49.0000000  0 10
G10  23605692.190 7 124048746.71107      1788.885 7        42.313    23605694.647 4  96661366.66504      1393.940 4        29.875    23605694.745 7  96661362.66707      1393.981 7        42.500
G12  23132600.419 6 121562636.67406      5442.286 6        41.594    23132602.216 6  94724136.79306      4240.741 6        38.125    23132602.454 6  94724144.81006      4240.550 6        41.906
G13  23468223.956 6 123326348.90206     -1912.483 6        40.813    23468227.750 3  96098462.34703     -1490.243 3        22.469
G14  23961344.502 6 125917705.99006     -1523.979 6        36.125    23961348.040 3  98117704.97403     -1187.498 3        19.313    23961348.723 6  98117695.96406     -1187.477 6        38.250
G15  22051157.586 7 115879609.41407     -1308.326 7        42.906    22051158.297 6  90295800.99506     -1019.469 6        41.438    22051158.748 7  90295795.98307     -1019.411 7        42.875
G17  22225096.320 7 116793665.59907      1267.520 7        44.344    22225096.276 7  91008054.76507       987.678 7        43.375    22225096.749 7  91008060.76407       987.637 7        43.438
G19  21945639.015 7 115325112.52307      3681.424 7        43.625    21945637.490 5  89863722.75305      2868.644 5        33.844
G22  22632837.325 7 118936359.52707      -838.579 7        44.063    22632837.510 5  92677684.86405      -653.436 5        31.656
G23  23634973.398 6 124202619.91606      -427.987 6        39.594    23634974.682 4  96781270.21704      -333.484 4        24.531    23634974.964 6  96781266.20806      -333.354 6        40.219
G24  20228478.428 8 106301369.76808      2508.626 8        48.875    20228480.076 8  82832239.93308      1954.773 8        52.875    20228480.449 7  82832239.93007      1954.839 7        47.844
> 2024 02 29 07 58 50.0000000  0 10
G10  23605351.783 7 124046959.19507      1787.744 7        42.188    23605354.464 4  96659973.79404      1393.055 4        29.938    23605354.553 7  96659969.80107      1393.104 7        42.469
G12  23131564.905 6 121557195.71806      5441.405 6        41.656    23131566.843 6  94719897.08906      4240.053 6        38.188    23131566.928 7  94719905.10107      4240.106 7        42.063
G13  23468588.076 6 123328262.36606     -1912.939 6        41.063    23468591.937 3  96099953.35303     -1490.594 3        22.563
G14  23961634.865 5 125919231.16505     -1524.624 5        35.906    23961638.248 3  98118893.40003     -1188.038 3        19.469    23961639.271 6  98118884.42306     -1188.158 6        38.188
G15  22051406.617 7 115880919.03007     -1309.290 7        43.188    22051407.523 6  90296821.47006     -1020.220 6        41.563    22051407.767 7  90296816.45407     -1020.136 7        42.781
G17  22224855.325 7 116792399.53707      1266.343 7        44.031    22224855.354 7  91007068.22107       986.761 7        43.469    22224855.610 7  91007074.22407       986.694 7        43.469
G19  21944938.675 7 115321432.36007      3680.407 7        43.500    21944937.167 5  89860855.09205      2867.851 5        33.969
G22  22632997.115 7 118937199.30107      -839.251 7        43.875    22632997.299 5  92678339.23005      -653.952 5        31.688
G23  23635055.106 6 124203049.13406      -428.934 6        39.219    23635056.397 4  96781604.66804      -334.232 4        24.688    23635056.710 6  96781600.66406      -334.105 6        40.344
G24  20228001.251 8 106298862.37608      2507.683 8        48.750    20228002.940 8  82830286.12108      1954.042 8        52.969    20228003.278 7  82830286.11807      1954.091 7        47.813
> 2024 02 29 07 58 51.0000000  0 10
G10  23605011.813 7 124045172.21507      1786.145 7        42.125    23605014.384 4  96658581.33704      1391.803 4        29.875    23605014.581 7  96658577.34207      1391.850 7        42.500
G12  23130529.654 6 121551754.89106      5440.188 6        41.688    23130531.484 6  94715657.48806      4239.103 6        38.156    23130531.723 6  94715665.51006      4238.964 6        41.813
G13  23468952.537 6 123330175.89906     -1914.270 6        40.875    23468956.173 3  96101444.40903     -1491.624 3        22.469
G14  23961925.038 5 125920756.38905     -1525.950 5        35.625    23961928.497 3  98120081.87803     -1189.048 3        19.625    23961929.694 6  98120072.88706     -1189.042 6        38.125
G15  22051655.858 7 115882228.91807     -1310.713 7        43.125    22051656.793 6  90297842.16006     -1021.331 6        41.656    22051656.985 7  90297837.14407     -1021.269 7        42.688
G17  22224614.514 7 116791133.99107      1264.656 7        44.219    22224614.540 7  91006082.08007       985.448 7        43.438    22224614.733 7  91006088.07107       985.459 7        43.469
G19  21944238.479 7 115317752.68707      3678.804 7        43.500    21944236.933 5  89857987.81605      2866.598 5        33.906
G22  22633156.988 7 118938039.21807      -840.680 7        44.000    22633157.133 5  92678993.70805      -655.076 5        31.750
G23  23635136.773 6 124203478.69506      -430.396 6        39.188    23635138.147 4  96781939.39904      -335.376 4        24.563    23635138.430 6  96781935.38906      -335.356 6        40.031
G24  20227524.211 8 106296355.43908      2506.054 8        48.719    20227525.894 8  82828332.66308      1952.765 8        52.969    20227526.218 7  82828332.66707      1952.792 7        47.813
> 2024 02 29 07 58 52.0000000  0 10
G10  23604671.913 6 124043386.24206      1786.253 6        41.781    23604674.514 4  96657189.66804      1391.888 4        29.844    23604674.565 7  96657185.66707      1391.888 7        42.594
G12  23129494.624 6 121546314.66006      5440.680 6        41.469    23129496.241 6  94711418.34906      4239.485 6        38.188    23129496.434 6  94711426.34206      4239.594 6        41.781
G13  23469316.664 6 123332089.96006     -1913.705 6        40.594    23469320.405 3  96102935.87903     -1491.180 3        22.469
G14  23962215.426 5 125922282.08505     -1525.384 5        35.531    23962218.893 3  98121270.72803     -1188.610 3        19.563    23962219.857 6  98121261.70806     -1188.357 6        38.219
G15  22051905.219 7 115883539.54807     -1310.349 7        43.156    22051906.216 6  90298863.42606     -1021.046 6        41.750    22051906.406 7  90298858.42007     -1021.009 7        42.656
G17  22224373.920 7 116789869.39807      1264.892 7        44.313    22224373.908 7  91005096.68007       985.635 7        43.469    22224374.184 7  91005102.68007       985.589 7        43.313
G19  21943538.417 7 115314073.94207      3679.102 7        43.344    21943536.878 5  89855121.26605      2866.831 5        33.938
G22  22633316.975 7 118938879.73507      -840.048 7        43.750    22633317.087 5  92679648.65305      -654.575 5        31.750
G23  23635218.821 6 124203909.07206      -430.013 6        39.313    23635220.058 4  96782274.75304      -335.064 4        24.563    23635220.549 6  96782270.74406      -335.136 6        40.000
G24  20227047.328 8 106293849.39108      2506.254 8        48.594    20227049.014 8  82826379.89608      1952.927 8        53.000    20227049.368 7  82826379.90007      1952.949 7        47.750
> 2024 02 29 07 58 53.0000000  0 10
G10  23604332.131 6 124041600.95206      1783.749 6        41.719    23604334.720 4  96655798.53204      1389.945 4        29.906    23604334.864 7  96655794.53807      1389.953 7        42.500
G12  23128459.478 6 121540874.69906      5438.764 6        41.469    23128461.051 6  94707179.41906      4237.999 6        38.156    23128461.201 6  94707187.42506      4238.026 6        41.656
G13  23469680.734 6 123334004.20906     -1915.425 6        40.844    23469684.703 3  96104427.49103     -1492.526 3        22.313
G14  23962505.546 5 125923807.93405     -1527.250 5        35.719    23962509.271 3  98122459.68703     -1190.039 3        19.281    23962510.227 6  98122450.67906     -1189.700 6        37.844
G15  22052154.654 7 115884850.62007     -1312.509 7        43.250    22052155.715 6  90299885.03706     -1022.728 6        41.813    22052155.906 7  90299880.02107     -1022.634 7        42.375
G17  22224133.477 7 116788605.46007      1262.537 7        44.188    22224133.393 7  91004111.79107       983.800 7        43.469    22224133.722 7  91004117.79607       983.748 7        43.344
G19  21942838.525 7 115310395.84307      3676.672 7        43.188    21942836.953 5  89852255.21505      2864.940 5        33.938
G22  22633477.032 7 118939720.54807      -842.011 7        43.781    22633477.091 5  92680303.82905      -656.112 5        31.656
G23  23635300.912 6 124204339.94806      -432.292 6        39.063    23635302.036 4  96782610.48704      -336.829 4        24.438    23635302.635 6  96782606.48406      -336.937 6        39.844
G24  20226570.575 8 106291343.93108      2504.073 8        48.719    20226572.245 8  82824427.58908      1951.230 8        53.000    20226572.654 7  82824427.59207      1951.245 7        47.688
> 2024 02 29 07 58 54.0000000  0 10
G10  23603992.677 6 124039816.33806      1784.332 6        41.844    23603995.096 4  96654407.92004      1390.388 4        29.813    23603995.276 7  96654403.91007      1390.508 7        42.500
G12  23127424.400 6 121535434.99106      5439.747 6        41.406    23127425.902 6  94702940.68706      4238.760 6        38.125    23127425.913 6  94702948.68706      4238.719 6        41.688
G13  23470044.998 6 123335918.66506     -1914.431 6        40.813    23470049.078 3  96105919.27703     -1491.765 3        22.406
G14  23962795.646 5 125925333.97005     -1526.053 5        35.313    23962799.640 3  98123648.79603     -1189.139 3        19.125    23962800.639 6  98123639.77306     -1189.099 6        37.594
G15  22052404.166 7 115886162.09007     -1311.607 7        43.313    22052405.289 6  90300906.95906     -1022.031 6        41.906    22052405.480 7  90300901.96207     -1021.967 7        42.438
G17  22223893.125 7 116787342.17207      1263.051 7        44.313    22223893.007 7  91003127.40807       984.194 7        43.469    22223893.455 7  91003133.40107       984.299 7        43.406
G19  21942138.652 7 115306718.33507      3677.273 7        43.188    21942137.149 5  89849389.62505      2865.402 5        33.906
G22  22633636.965 7 118940561.62307      -841.103 7        43.813    22633637.139 5  92680959.21105      -655.406 5        31.656
G23  23635383.346 6 124204771.30406      -431.503 6        39.000    23635384.104 4  96782946.60604      -336.227 4        24.344    23635384.968 6  96782942.60706      -336.262 6        40.125
G24  20226093.959 8 106288839.04308      2504.648 8        48.719    20226095.588 8  82822475.72708      1951.673 8        52.969    20226096.043 7  82822475.73507      1951.640 7        47.656
> 2024 02 29 07 58 55.0000000  0 10
G10  23603653.229 6 124038032.04906      1784.405 6        41.719    23603655.529 4  96653017.56304      1390.453 4        29.844    23603655.635 7  96653013.56107      1390.459 7        42.438
G12  23126389.099 6 121529995.20906      5440.117 6        41.469    23126390.748 6  94698701.90106      4239.052 6        38.094    23126390.865 6  94698709.90806      4238.943 6        41.656
G13  23470409.352 6 123337832.98206     -1914.049 6        40.781    23470413.390 3  96107410.94803     -1491.464 3        22.531
G14  23963086.152 5 125926859.78505     -1525.645 5        35.406    23963089.983 3  98124837.73803     -1188.797 3        18.969    23963090.815 6  98124828.72806     -1188.724 6        37.531
G15  22052653.807 7 115887473.65207     -1311.368 7        43.344    22052654.895 7  90301928.95407     -1021.844 7        42.000    22052654.942 7  90301923.95307     -1021.855 7        42.438
G17  22223652.871 7 116786079.17407      1263.041 7        44.406    22223652.680 7  91002143.25607       984.191 7        43.469    22223653.223 7  91002149.25207       984.198 7        43.344
G19  21941438.994 7 115303041.11407      3677.290 7        43.125    21941437.398 5  89846524.25905      2865.419 5        33.938
G22  22633797.001 7 118941402.63507      -840.702 7        43.844    22633797.210 5  92681614.54505      -655.088 5        31.625
G23  23635465.579 6 124205202.81106      -431.440 6        38.813    23635466.181 4  96783282.84504      -336.195 4        24.375    23635467.216 6  96783278.83206      -336.107 6        40.250
G24  20225617.354 8 106286334.39408      2504.752 8        48.656    20225618.975 8  82820524.05308      1951.754 8        52.969    20225619.438 7  82820524.05907      1951.766 7        47.594
> 2024 02 29 07 58 56.0000000  0 10
G10  23603313.743 6 124036248.33906      1783.904 6        41.906    23603316.093 4  96651627.65504      1390.053 4        29.969    23603316.249 7  96651623.65807      1390.052 7        42.625
G12  23125354.144 6 121524555.60106      5440.081 6        41.656    23125355.612 6  94694463.24406      4239.022 6        38.125    23125355.855 6  94694471.24506      4239.022 6        41.500
G13  23470773.716 6 123339747.39506     -1913.929 6        40.938    23470777.666 3  96108902.69203     -1491.371 3        22.719
G14  23963376.595 5 125928385.66705     -1525.377 5        35.563    23963380.334 3  98126026.73103     -1188.586 3        19.250    23963381.036 6  98126017.72606     -1188.540 6        37.531
G15  22052903.401 7 115888785.54207     -1311.641 7        43.688    22052904.555 7  90302951.19907     -1022.056 7        42.063    22052904.800 7  90302946.19707     -1021.993 7        42.375
G17  22223412.591 7 116784816.72607      1262.660 7        44.406    22223412.456 7  91001159.52707       983.894 7        43.500    22223413.179 7  91001165.52707       983.853 7        43.313
G19  21940739.279 7 115299364.40907      3677.008 7        43.188    21940737.745 5  89843659.29405      2865.202 5        33.969
G22  22633957.099 7 118942243.83807      -840.891 7        43.813    22633957.303 5  92682270.02105      -655.235 5        31.688
G23  23635547.961 6 124205634.69106      -431.548 6        38.469    23635548.315 4  96783619.37704      -336.276 4        24.375    23635549.364 6  96783615.37206      -336.289 6        40.344
G24  20225140.803 8 106283830.22508      2504.369 8        48.750    20225142.457 8  82818572.75208      1951.457 8        53.000    20225142.913 7  82818572.75507      1951.479 7        47.531
> 2024 02 29 07 58 57.0000000  0 10
G10  23602974.413 6 124034464.74506      1782.883 6        41.719    23602976.697 4  96650237.84404      1389.257 4        29.969    23602976.964 7  96650233.84307      1389.120 7        42.500
G12  23124318.933 6 121519115.69406      5439.271 6        41.656    23124320.431 6  94690224.35906      4238.389 6        38.063    23124320.620 6  94690232.35606      4238.331 6        41.563
G13  23471138.000 6 123341661.44506     -1914.837 6        40.750    23471141.893 3  96110394.15103     -1492.086 3        22.656
G14  23963666.830 5 125929911.14405     -1526.037 5        35.563    23963670.748 3  98127215.42003     -1189.140 3        19.094    23963671.175 6  98127206.41806     -1189.100 6        37.719
G15  22053153.136 7 115890097.29007     -1312.592 7        43.938    22053154.188 7  90303973.33607     -1022.796 7        42.156    22053154.598 7  90303968.32907     -1022.612 7        42.563
G17  22223172.313 7 116783554.36607      1261.499 7        44.438    22223172.249 7  91000175.86907       982.988 7        43.469    22223173.001 7  91000181.86207       982.924 7        43.344
G19  21940039.673 7 115295687.75807      3675.933 7        43.125    21940038.098 5  89840794.37005      2864.364 5        34.000
G22  22634117.083 7 118943084.74307      -841.549 7        43.813    22634117.351 5  92682925.26805      -655.750 5        31.656
G23  23635630.158 6 124206066.52006      -432.469 6        38.719    23635630.531 4  96783955.86104      -336.984 4        24.438    23635631.562 6  96783951.85306      -337.172 6        40.219
G24  20224664.311 8 106281326.07008      2503.323 8        48.844    20224665.938 8  82816621.46108      1950.641 8        52.969    20224666.344 7  82816621.46207      1950.701 7        47.563
> 2024 02 29 07 58 58.0000000  0 10
G10  23602635.172 6 124032682.27206      1781.989 6        41.750    23602637.484 4  96648848.90304      1388.574 4        29.781    23602637.812 7  96648844.89907      1388.595 7        42.406
G12  23123283.918 6 121513676.47606      5439.067 6        41.531    23123285.371 6  94685986.00806      4238.239 6        37.969    23123285.612 6  94685994.01206      4238.181 6        41.500
G13  23471502.277 6 123343576.10806     -1914.830 6        40.969    23471506.246 3  96111886.09403     -1492.066 3        22.531
G14  23963957.216 6 125931437.25906     -1526.360 6        36.063    23963961.185 3  98128404.60603     -1189.341 3        18.750    23963961.542 6  98128395.56306     -1189.312 6        37.500
G15  22053403.036 7 115891409.88307     -1312.936 7        43.750    22053403.981 7  90304996.13407     -1023.062 7        42.125    22053404.500 7  90304991.13507     -1023.051 7        42.469
G17  22222932.199 7 116782293.06307      1260.842 7        44.281    22222932.244 7  90999193.03507       982.478 7        43.344    22222932.925 7  90999199.04007       982.494 7        43.500
G19  21939340.174 7 115292012.16607      3675.185 7        43.219    21939338.660 5  89837930.27305      2863.785 5        33.875
G22  22634277.152 7 118943926.36907      -841.819 7        43.969    22634277.511 5  92683581.07805      -655.953 5        31.500
G23  23635712.554 6 124206499.24906      -433.062 6        38.781    23635712.880 4  96784293.05304      -337.440 4        24.375    23635713.670 6  96784289.03906      -337.439 6        40.313
G24  20224187.993 8 106278822.93108      2502.758 8        48.938    20224189.617 8  82814670.96208      1950.204 8        52.844    20224189.980 7  82814670.96907      1950.131 7        47.406
> 2024 02 29 07 58 59.0000000  0 10
G10  23602296.069 6 124030900.18206      1781.509 6        41.688    23602298.356 4  96647460.26004      1388.193 4        29.625    23602298.699 7  96647456.25507      1388.229 7        42.344
G12  23122248.684 6 121508237.26206      5438.941 6        41.750    23122250.325 6  94681747.66206      4238.133 6        37.875    23122250.632 6  94681755.66306      4237.961 6        41.531
G13  23471866.718 6 123345490.69806     -1914.816 6        40.969    23471870.535 3  96113377.96803     -1492.046 3        22.344
G14  23964247.308 6 125932963.21806     -1526.306 6        36.000    23964251.514 3  98129593.64803     -1189.305 3        18.781    23964251.924 6  98129584.62706     -1189.297 6        37.875
G15  22053653.017 7 115892722.62307     -1313.156 7        43.844    22053653.807 7  90306019.04507     -1023.237 7        42.188    22053654.243 7  90306014.04307     -1023.198 7        42.313
G17  22222692.326 7 116781032.14707      1260.385 7        44.406    22222692.310 7  90998210.50107       982.118 7        43.250    22222693.103 7  90998216.50207       982.067 7        43.500
G19  21938640.885 7 115288336.89307      3674.814 7        43.219    21938639.271 5  89835066.42505      2863.491 5        33.781
G22  22634437.440 7 118944767.98307      -841.860 7        44.063    22634437.694 5  92684236.87905      -655.990 5        31.375
G23  23635795.045 6 124206932.18906      -433.325 6        38.688    23635795.270 4  96784630.40904      -337.663 4        24.438    23635796.004 6  96784626.39406      -337.605 6        40.313
G24  20223711.831 8 106276320.09008      2502.303 8        48.906    20223713.349 8  82812720.69608      1949.843 8        52.781    20223713.767 7  82812720.69707      1949.896 7        47.438
> 2024 02 29 07 59  0.0000000  0 10
G10  23601956.874 6 124029118.67406      1781.189 6        41.719    23601959.363 4  96646072.06704      1387.936 4        29.719    23601959.777 7  96646068.06607      1387.967 7        42.438
G12  23121213.637 6 121502798.21506      5438.860 6        41.781    23121215.314 6  94677509.44406      4238.069 6        37.906    23121215.397 6  94677517.43006      4238.230 6        41.500
G13  23472231.186 6 123347405.40006     -1914.773 6        41.250    23472234.950 3  96114869.93803     -1492.024 3        22.438
G14  23964537.902 6 125934489.25206     -1526.194 6        36.094    23964541.968 3  98130782.74403     -1189.202 3        18.750    23964542.179 6  98130773.73706     -1189.172 6        37.906
G15  22053902.954 7 115894035.69507     -1313.228 7        43.875    22053903.690 7  90307042.21107     -1023.294 7        42.250    22053904.114 7  90307037.21507     -1023.234 7        42.375
G17  22222452.477 7 116779771.76707      1260.161 7        44.406    22222452.479 7  90997228.38307       981.947 7        43.250    22222453.144 7  90997234.37807       981.984 7        43.688
G19  21937941.528 7 115284662.17007      3674.411 7        43.313    21937939.972 5  89832203.00505      2863.177 5        33.875
G22  22634597.505 7 118945609.80007      -841.821 7        43.781    22634597.934 5  92684892.83805      -655.961 5        31.344
G23  23635877.692 6 124207365.53406      -433.542 6        38.813    23635877.735 4  96784968.07604      -337.827 4        24.594    23635878.724 6  96784964.06606      -337.767 6        40.500
G24  20223235.636 8 106273817.73208      2502.104 8        48.906    20223237.174 8  82810770.80508      1949.691 8        52.813    20223237.562 7  82810770.80807      1949.670 7        47.406
> 2024 02 29 07 59  1.0000000  0 10
G10  23601617.912 6 124027337.59006      1781.181 6        41.563    23601620.436 4  96644684.20904      1387.936 4        29.719    23601620.704 7  96644680.21507      1387.846 7        42.469
G12  23120178.379 6 121497359.18906      5439.235 6        41.875    23120180.286 6  94673271.24606      4238.359 6        37.875    23120180.472 6  94673279.23706      4238.511 6        41.063
G13  23472595.663 6 123349320.03906     -1914.423 6        41.063    23472599.338 3  96116361.85803     -1491.745 3        22.438
G14  23964828.468 5 125936015.19005     -1525.743 5        35.656    23964832.346 3  98131971.77103     -1188.866 3        18.750    23964832.834 6  98131962.77806     -1188.763 6        37.656
G15  22054152.773 7 115895348.95207     -1313.016 7        43.719    22054153.609 7  90308065.52707     -1023.130 7        42.281    22054154.106 7  90308060.52807     -1023.146 7        42.375
G17  22222212.735 7 116778511.79407      1259.990 7        44.375    22222212.724 7  90996246.58407       981.809 7        43.250    22222213.335 7  90996252.57007       981.939 7        43.625
G19  21937242.382 7 115280987.79107      3674.568 7        43.219    21937240.744 5  89829339.85305      2863.294 5        33.844
G22  22634757.647 7 118946451.64107      -841.555 7        43.750    22634758.117 5  92685548.81505      -655.752 5        31.406
G23  23635960.173 6 124207799.11706      -433.308 6        38.531    23635960.241 4  96785305.92904      -337.649 4        24.469    23635961.403 6  96785301.92706      -337.776 6        40.406
G24  20222759.574 8 106271315.70508      2502.113 8        48.719    20222761.058 8  82808821.17208      1949.693 8        52.781    20222761.363 7  82808821.17307      1949.722 7        47.250
> 2024 02 29 07 59  2.0000000  0 10
G10  23601279.156 6 124025557.76406      1779.517 6        41.625    23601281.742 4  96643297.32804      1386.631 4        29.656    23601282.095 7  96643293.32107      1386.588 7        42.656
G12  23119143.573 6 121491920.98806      5438.101 6        41.906    23119145.423 6  94669033.68806      4237.480 6        37.844    23119145.890 6  94669041.69206      4237.473 6        41.375
G13  23472960.260 6 123351235.45406     -1915.587 6        40.969    23472963.825 3  96117854.37903     -1492.664 3        22.469
G14  23965118.913 6 125937541.84506     -1526.611 6        36.250    23965122.841 3  98133161.36903     -1189.561 3        18.844    23965123.303 6  98133152.37806     -1189.568 6        38.156
G15  22054402.962 7 115896663.17607     -1314.406 7        43.781    22054403.707 7  90309089.59207     -1024.212 7        42.344    22054404.263 7  90309084.60207     -1024.230 7        42.500
G17  22221973.135 7 116777253.02007      1258.540 7        44.594    22221973.201 7  90995265.72007       980.681 7        43.313    22221973.762 7  90995271.71907       980.576 7        43.688
G19  21936543.361 7 115277314.61507      3672.899 7        43.156    21936541.758 5  89826477.63905      2861.997 5        33.875
G22  22634917.992 7 118947294.33407      -842.807 7        43.906    22634918.451 5  92686205.45605      -656.730 5        31.344
G23  23636042.892 6 124208233.75206      -434.904 6        38.813    23636042.975 4  96785644.60304      -338.890 4        24.469    23636043.800 6  96785640.60506      -338.876 6        40.594
G24  20222283.591 8 106268814.81708      2500.686 8        48.875    20222285.157 8  82806872.42808      1948.587 8        52.813    20222285.389 7  82806872.43907      1948.519 7        47.313
> 2024 02 29 07 59  3.0000000  0 10
G10  23600940.689 6 124023778.44006      1779.173 6        41.719    23600943.173 4  96641910.84104      1386.375 4        29.938    23600943.330 7  96641906.82307      1386.476 7        42.469
G12  23118108.856 6 121486482.90606      5438.097 6        41.875    23118110.573 6  94664796.22206      4237.474 6        37.875    23118110.955 6  94664804.21206      4237.538 6        41.281
G13  23473324.704 6 123353150.87906     -1915.273 6        40.844    23473328.329 3  96119346.91903     -1492.424 3        22.375
G14  23965409.474 5 125939068.51805     -1526.520 5        35.750    23965413.313 3  98134350.97403     -1189.481 3        18.844    23965413.808 6  98134341.96606     -1189.370 6        37.781
G15  22054653.002 7 115897977.66107     -1314.394 7        44.031    22054653.845 7  90310113.86307     -1024.206 7        42.469    22054654.253 7  90310108.87507     -1024.292 7        42.531
G17  22221733.663 7 116775994.72307      1258.235 7        44.406    22221733.773 7  90994285.22607       980.442 7        43.313    22221734.266 7  90994291.22707       980.430 7        43.719
G19  21935844.401 7 115273641.89307      3672.641 7        43.469    21935842.870 5  89823615.78005      2861.793 5        33.938
G22  22635078.437 7 118948137.12807      -842.685 7        43.844    22635078.804 5  92686862.17205      -656.632 5        31.406
G23  23636125.692 6 124208668.69806      -435.011 6        39.031    23636125.736 4  96785983.52204      -338.968 4        24.563    23636126.558 6  96785979.52706      -338.952 6        40.406
G24  20221807.766 8 106266314.34208      2500.458 8        48.781    20221809.336 8  82804924.00608      1948.408 8        52.875    20221809.482 7  82804924.01207      1948.407 7        47.281
> 2024 02 29 07 59  4.0000000  0 10
G10  23600602.199 6 124021999.97006      1777.434 6        41.594    23600604.747 4  96640525.01404      1385.014 4        29.969    23600604.975 7  96640521.01307      1385.024 7        42.656
G12  23117074.123 7 121481045.26007      5436.750 7        42.188    23117075.813 6  94660559.09806      4236.424 6        37.906    23117076.141 6  94660567.09306      4236.508 6        41.344
G13  23473689.437 6 123355066.69006     -1916.559 6        41.000    23473692.918 3  96120839.74903     -1493.419 3        22.438
G14  23965699.912 5 125940595.52205     -1527.833 5        35.938    23965703.946 3  98135540.85703     -1190.542 3        19.031    23965704.372 6  98135531.83906     -1190.309 6        37.531
G15  22054903.307 7 115899292.74507     -1315.969 7        44.031    22054904.104 7  90311138.60407     -1025.432 7        42.531    22054904.672 7  90311133.61407     -1025.559 7        42.625
G17  22221494.306 7 116774737.25307      1256.451 7        44.531    22221494.496 7  90993305.37707       979.054 7        43.313    22221494.871 7  90993311.37107       979.050 7        43.813
G19  21935145.514 7 115269969.95707      3670.889 7        43.313    21935144.121 5  89820754.52905      2860.427 5        33.938
G22  22635238.935 7 118948980.39707      -844.056 7        43.688    22635239.263 5  92687519.26305      -657.707 5        31.438
G23  23636208.665 6 124209104.32506      -436.593 6        39.281    23636208.644 4  96786322.96904      -340.203 4        24.531    23636209.239 6  96786318.95906      -340.027 6        40.563
G24  20221332.082 8 106263814.63208      2498.731 8        48.781    20221333.663 8  82802976.17808      1947.063 8        52.906    20221333.706 7  82802976.18407      1947.011 7        47.438
> 2024 02 29 07 59  5.0000000  0 10
G10  23600263.914 6 124020222.12006      1777.593 6        41.906    23600266.433 5  96639139.67105      1385.142 5        30.000    23600266.844 7  96639135.66507      1385.220 7        42.875
G12  23116039.466 6 121475607.82306      5437.458 6        41.875    23116041.097 6  94656322.13506      4236.980 6        37.938    23116041.589 6  94656330.13406      4236.899 6        41.594
G13  23474053.994 6 123356982.64806     -1916.011 6        40.844    23474057.539 3  96122332.69203     -1492.990 3        22.531
G14  23965990.529 5 125942122.62105     -1527.044 5        35.969    23965994.539 3  98136730.79903     -1189.895 3        18.813    23965995.028 6  98136721.78206     -1189.901 6        37.406
G15  22055153.697 7 115900608.18507     -1315.479 7        44.281    22055154.429 7  90312163.62007     -1025.046 7        42.594    22055154.917 7  90312158.62407     -1025.143 7        42.531
G17  22221255.077 7 116773480.35907      1256.732 7        44.625    22221255.323 7  90992325.97707       979.271 7        43.344    22221255.530 7  90992331.97807       979.190 7        43.688
G19  21934446.962 7 115266298.56607      3671.255 7        43.469    21934445.475 5  89817893.70705      2860.716 5        34.000
G22  22635399.382 7 118949823.87707      -843.520 7        44.031    22635399.763 5  92688176.51505      -657.286 5        31.500
G23  23636291.482 6 124209540.35506      -436.107 6        39.938    23636291.624 4  96786662.72904      -339.828 4        24.531    23636292.232 6  96786658.73106      -339.813 6        40.688
G24  20220856.517 8 106261315.43908      2498.973 8        48.875    20220858.083 8  82801028.75408      1947.251 8        52.938    20220858.202 7  82801028.75107      1947.277 7        47.531
> 2024 02 29 07 59  6.0000000  0 10
G10  23599925.759 6 124018444.46006      1777.178 6        41.969    23599928.168 5  96637754.48005      1384.819 5        30.063    23599928.627 7  96637750.46507      1384.915 7        42.875
G12  23115004.718 6 121470170.16906      5437.361 6        41.813    23115006.337 6  94652085.00606      4236.904 6        37.844    23115006.748 6  94652092.99906      4236.951 6        41.719
G13  23474418.638 6 123358898.28806     -1915.680 6        40.563    23474422.066 3  96123825.39203     -1492.748 3        22.469
G14  23966281.025 5 125943649.40405     -1527.008 5        35.656    23966284.980 3  98137920.48203     -1189.848 3        18.844    23966285.553 6  98137911.46606     -1189.647 6        36.813
G15  22055404.076 7 115901923.56507     -1315.677 7        44.031    22055404.746 7  90313188.58507     -1025.202 7        42.563    22055405.295 7  90313183.59407     -1025.192 7        42.563
G17  22221015.842 7 116772223.62507      1256.286 7        44.656    22221016.185 7  90991346.70407       978.925 7        43.250    22221016.374 7  90991352.69907       979.020 7        43.813
G19  21933748.380 7 115262627.32007      3670.904 7        43.688    21933746.864 5  89815032.99405      2860.446 5        34.000
G22  22635559.882 7 118950667.14207      -843.491 7        43.875    22635560.245 5  92688833.60305      -657.259 5        31.500
G23  23636374.532 6 124209976.40606      -436.315 6        39.875    23636374.568 4  96787002.50804      -339.986 4        24.375    23636375.126 6  96786998.50306      -340.013 6        40.844
G24  20220380.872 8 106258816.32608      2498.784 8        48.906    20220382.522 8  82799081.39408      1947.103 8        52.875    20220382.804 7  82799081.39807      1947.117 7        47.531
> 2024 02 29 07 59  7.0000000  0 10
G10  23599587.547 7 124016667.37907      1776.745 7        42.031    23599590.020 5  96636369.74305      1384.479 5        30.094    23599590.555 7  96636365.74407      1384.487 7        42.875
G12  23113970.188 6 121464732.69406      5437.313 6        41.813    23113971.603 6  94647848.01406      4236.862 6        37.844    23113972.052 6  94647856.02606      4236.898 6        41.938
G13  23474782.971 6 123360814.04606     -1915.753 6        40.656    23474786.624 3  96125318.18503     -1492.786 3        22.438
G14  23966571.797 5 125945176.23705     -1527.107 5        35.594    23966575.447 3  98139110.21203     -1189.944 3        18.719    23966575.809 6  98139101.22006     -1189.890 6        37.281
G15  22055654.399 7 115903239.29407     -1315.917 7        44.156    22055655.126 7  90314213.82607     -1025.388 7        42.594    22055655.588 7  90314208.82807     -1025.405 7        42.469
G17  22220776.823 7 116770967.45307      1255.903 7        44.719    22220777.154 7  90990367.86607       978.629 7        43.250    22220777.290 7  90990373.86607       978.611 7        43.875
G19  21933050.050 7 115258956.60607      3670.421 7        43.625    21933048.343 5  89812172.70005      2860.064 5        33.969
G22  22635720.364 7 118951510.60307      -843.530 7        43.750    22635720.777 5  92689490.83805      -657.294 5        31.406
G23  23636457.796 6 124210412.86606      -436.793 6        39.906    23636457.674 4  96787342.60904      -340.361 4        24.344    23636458.185 6  96787338.59406      -340.378 6        40.938
G24  20219905.383 8 106256317.71908      2498.338 8        48.875    20219907.054 8  82797134.42808      1946.757 8        52.844    20219907.395 7  82797134.42707      1946.729 7        47.531
> 2024 02 29 07 59  8.0000000  0 10
G10  23599249.747 7 124014891.05507      1775.297 7        42.219    23599252.032 5  96634985.59105      1383.344 5        30.188    23599252.819 7  96634981.58407      1383.429 7        42.594
G12  23112935.617 6 121459295.56006      5436.412 6        41.844    23112936.941 6  94643611.28706      4236.160 6        37.781    23112937.660 6  94643619.28406      4236.171 6        41.563
G13  23475147.630 6 123362730.09006     -1916.714 6        40.656    23475151.262 3  96126811.19603     -1493.546 3        22.313
G14  23966862.142 5 125946703.32505     -1527.791 5        35.625    23966866.000 3  98140300.14603     -1190.489 3        18.563    23966866.336 6  98140291.14606     -1190.451 6        37.594
G15  22055904.782 7 115904555.50107     -1317.111 7        44.156    22055905.586 7  90315239.43807     -1026.321 7        42.531    22055906.155 7  90315234.44207     -1026.250 7        42.344
G17  22220538.011 7 116769712.00407      1254.432 7        44.688    22220538.267 7  90989389.59107       977.481 7        43.219    22220538.449 7  90989395.59507       977.363 7        43.688
G19  21932351.819 7 115255286.60407      3668.945 7        43.688    21932349.965 5  89809312.95805      2858.916 5        33.969
G22  22635881.057 7 118952354.42707      -844.657 7        43.656    22635881.357 5  92690148.36105      -658.161 5        31.313
G23  23636541.097 6 124210849.86406      -438.032 6        40.250    23636540.837 4  96787683.12604      -341.325 4        24.406    23636541.383 6  96787679.11406      -341.180 6        40.563
G24  20219430.053 8 106253819.75308      2497.013 8        48.844    20219431.712 8  82795187.96008      1945.722 8        52.844    20219432.085 7  82795187.96807      1945.711 7        47.625
> 2024 02 29 07 59  9.0000000  0 10
G10  23598912.136 7 124013115.60807      1775.056 7        42.031    23598914.197 5  96633602.12305      1383.163 5        30.188    23598914.749 7  96633598.12007      1383.122 7        42.688
G12  23111900.987 6 121453858.89006      5436.626 6        41.781    23111902.373 6  94639374.92206      4236.330 6        37.781    23111903.148 6  94639382.91706      4236.238 6        41.375
G13  23475512.282 6 123364646.50806     -1916.450 6        40.656    23475515.945 3  96128304.50603     -1493.329 3        22.438
G14  23967153.220 5 125948230.77405     -1527.634 5        35.656    23967156.651 3  98141490.35403     -1190.354 3        18.500    23967156.928 6  98141481.32506     -1190.174 6        37.813
G15  22056155.310 7 115905872.31607     -1316.946 7        44.344    22056156.167 7  90316265.52707     -1026.192 7        42.563    22056156.732 7  90316260.53807     -1026.240 7        42.594
G17  22220299.264 7 116768457.36507      1254.371 7        44.594    22220299.536 7  90988411.94807       977.434 7        43.250    22220299.793 7  90988417.94407       977.422 7        43.594
G19  21931653.586 7 115251617.38407      3668.913 7        43.844    21931651.748 5  89806453.82505      2858.892 5        34.000
G22  22636041.791 7 118953198.71507      -844.384 7        43.813    22636042.031 5  92690806.24005      -657.965 5        31.313
G23  23636624.412 6 124211287.54606      -437.885 6        40.500    23636624.121 4  96788024.17104      -341.208 4        24.563    23636624.608 6  96788020.16806      -341.122 6        40.438
G24  20218954.799 8 106251322.55508      2496.988 8        49.000    20218956.513 8  82793242.09008      1945.704 8        52.875    20218956.946 7  82793242.10107      1945.670 7        47.781
> 2024 02 29 07 59 10.0000000  0 10
G10  23598574.348 7 124011340.73807      1774.563 7        42.250    23598576.437 5  96632219.10405      1382.775 5        30.250    23598577.014 7  96632215.10307      1382.796 7        42.875
G12  23110866.397 6 121448422.40206      5436.439 6        41.938    23110867.841 6  94635138.69706      4236.187 6        37.750    23110868.523 6  94635146.69606      4236.103 6        41.063
G13  23475876.931 6 123366563.04806     -1916.587 6        40.250    23475880.642 3  96129797.90403     -1493.432 3        22.469
G14  23967444.003 5 125949758.27805     -1527.740 5        35.438    23967447.373 3  98142680.61103     -1190.442 3        18.406    23967448.086 6  98142671.59406     -1190.231 6        37.219
G15  22056406.086 7 115907189.48307     -1317.342 7        44.188    22056406.819 7  90317291.89007     -1026.499 7        42.563    22056407.232 7  90317286.88807     -1026.418 7        42.750
G17  22220060.663 7 116767203.30107      1253.822 7        44.500    22220060.916 7  90987434.75607       977.005 7        43.219    22220061.219 7  90987440.75507       977.015 7        43.781
G19  21930955.374 7 115247948.71307      3668.435 7        43.781    21930953.661 5  89803595.12105      2858.516 5        33.969
G22  22636202.417 7 118954043.21307      -844.648 7        43.781    22636202.746 5  92691464.29005      -658.168 5        31.313
G23  23636707.660 6 124211725.64306      -438.248 6        40.625    23636707.463 4  96788365.54004      -341.501 4        24.750    23636707.987 6  96788361.53106      -341.509 6        40.156
G24  20218479.667 8 106248825.86608      2496.459 8        49.031    20218481.416 8  82791296.61808      1945.296 8        52.875    20218481.903 7  82791296.62607      1945.290 7        47.750
> 2024 02 29 07 59 11.0000000  0 10
G10  23598236.832 7 124009566.78107      1773.786 7        42.375    23598238.861 5  96630836.80005      1382.172 5        30.344    23598239.372 7  96630832.78407      1382.267 7        42.750
G12  23109831.772 6 121442986.39906      5436.149 6        41.719    23109833.394 6  94630902.85306      4235.965 6        37.656    23109833.946 6  94630910.85206      4235.926 6        40.875
G13  23476241.679 6 123368480.01706     -1916.807 6        40.469    23476245.383 3  96131291.63803     -1493.611 3        22.438
G14  23967734.588 5 125951286.16605     -1527.753 5        35.656    23967738.136 3  98143871.15503     -1190.428 3        18.438    23967738.858 6  98143862.16106     -1190.319 6        37.563
G15  22056656.975 7 115908507.29307     -1317.740 7        44.313    22056657.597 7  90318318.75007     -1026.806 7        42.625    22056658.063 7  90318313.75507     -1026.852 7        42.719
G17  22219822.161 7 116765950.11907      1253.196 7        44.625    22219822.467 7  90986458.24907       976.517 7        43.188    22219822.814 7  90986464.25107       976.380 7        43.688
G19  21930257.280 7 115244280.89107      3667.754 7        43.844    21930255.744 5  89800737.08005      2857.986 5        34.031
G22  22636363.013 7 118954888.20407      -844.869 7        43.813    22636363.550 5  92692122.72005      -658.333 5        31.250
G23  23636790.991 6 124212164.44806      -438.798 6        40.781    23636790.979 4  96788707.47204      -341.929 4        24.875    23636791.491 6  96788703.46406      -341.856 6        40.219
G24  20218004.730 8 106246329.98708      2495.850 8        48.969    20218006.472 8  82789351.77608      1944.820 8        52.844    20218007.067 7  82789351.78107      1944.795 7        47.813
> 2024 02 29 07 59 12.0000000  0 10
G10  23597899.447 7 124007793.47307      1773.439 7        42.438    23597901.419 5  96629454.99805      1381.899 5        30.406    23597902.102 7  96629451.00007      1381.925 7        42.875
G12  23108797.287 6 121437550.67106      5435.999 6        41.469    23108799.000 6  94626667.22006      4235.842 6        37.563    23108799.601 6  94626675.20806      4235.948 6        41.063
G13  23476606.622 6 123370397.17506     -1916.796 6        40.375    23476610.214 3  96132785.52103     -1493.587 3        22.375
G14  23968025.394 5 125952814.21105     -1527.557 5        35.344    23968028.930 3  98145061.83703     -1190.309 3        18.531    23968029.455 6  98145052.84306     -1190.434 6        37.156
G15  22056907.935 7 115909825.51307     -1317.907 7        44.281    22056908.450 7  90319345.93307     -1026.935 7        42.594    22056908.997 7  90319340.94207     -1027.002 7        42.344
G17  22219583.814 7 116764697.56607      1252.680 7        44.469    22219584.130 7  90985482.23007       976.118 7        43.156    22219584.533 7  90985488.21307       976.200 7        43.656
G19  21929559.351 7 115240613.67807      3667.379 7        43.750    21929557.929 5  89797879.51005      2857.695 5        34.094
G22  22636523.888 7 118955733.47707      -844.945 7        43.688    22636524.421 5  92692781.37205      -658.397 5        31.250
G23  23636874.480 6 124212603.72606      -439.055 6        40.781    23636874.576 4  96789049.76404      -342.109 4        24.781    23636875.207 6  96789045.75806      -342.108 6        40.594
G24  20217529.854 8 106243834.67008      2495.455 8        49.094    20217531.630 8  82787407.37308      1944.511 8        52.844    20217532.249 7  82787407.37707      1944.477 7        47.906
> 2024 02 29 07 59 13.0000000  0 10
G10  23597562.096 7 124006020.86407      1772.682 7        42.281    23597564.142 5  96628073.74505      1381.318 5        30.563    23597564.850 7  96628069.73907      1381.322 7        42.844
G12  23107762.870 6 121432115.20306      5435.748 6        41.563    23107764.642 6  94622431.79106      4235.648 6        37.594    23107765.299 6  94622439.79506      4235.630 6        40.875
G13  23476971.518 6 123372314.51406     -1917.170 6        40.250    23476975.036 3  96134279.54003     -1493.892 3        22.469
G14  23968315.636 5 125954342.39505     -1527.834 5        35.719    23968319.742 3  98146252.62503     -1190.531 3        18.500    23968320.238 6  98146243.64806     -1190.633 6        37.469
G15  22057158.930 7 115911144.15407     -1318.363 7        44.000    22057159.371 7  90320373.44107     -1027.294 7        42.563    22057159.876 7  90320368.45307     -1027.384 7        42.438
G17  22219345.380 7 116763445.66207      1251.974 7        44.438    22219345.917 7  90984506.71907       975.569 7        43.156    22219346.411 7  90984512.71607       975.582 7        43.781
G19  21928861.527 7 115236947.07307      3666.663 7        43.625    21928860.240 5  89795022.41205      2857.142 5        34.156
G22  22636684.770 7 118956579.00707      -845.255 7        43.563    22636685.350 5  92693440.22705      -658.634 5        31.281
G23  23636958.065 6 124213043.48906      -439.713 6        40.844    23636958.299 4  96789392.43204      -342.624 4        25.063    23636958.873 6  96789388.43506      -342.631 6        40.438
G24  20217055.096 8 106241339.92508      2494.864 8        49.031    20217056.900 8  82785463.41508      1944.053 8        52.875    20217057.414 7  82785463.41607      1943.987 7        47.875
> 2024 02 29 07 59 14.0000000  0 10
G10  23597224.722 7 124004248.35807      1771.544 7        42.375    23597226.857 5  96626692.56905      1380.415 5        30.594    23597227.519 7  96626688.56907      1380.338 7        42.656
G12  23106728.571 6 121426679.44406      5434.881 6        41.594    23106730.235 6  94618196.14106      4234.968 6        37.500    23106730.745 6  94618204.14106      4235.019 6        40.875
G13  23477336.153 6 123374231.51306     -1917.759 6        40.250    23477339.799 3  96135773.30003     -1494.355 3        22.656
G14  23968606.466 5 125955870.22205     -1528.609 5        35.750    23968610.541 3  98147443.14203     -1191.094 3        18.406    23968610.942 6  98147434.11906     -1190.854 6        37.156
G15  22057409.819 7 115912462.66807     -1319.410 7        43.844    22057410.269 7  90321400.85307     -1028.118 7        42.500    22057410.904 7  90321395.85407     -1028.090 7        42.406
G17  22219107.183 7 116762193.85507      1250.812 7        44.656    22219107.723 7  90983531.28107       974.659 7        43.156    22219108.209 7  90983537.27007       974.723 7        43.719
G19  21928163.846 7 115233280.53907      3665.673 7        43.813    21928162.537 5  89792165.37805      2856.367 5        34.156
G22  22636845.596 7 118957424.28507      -846.095 7        43.813    22636846.244 5  92694098.87905      -659.296 5        31.250
G23  23637041.826 6 124213483.19006      -440.549 6        41.031    23637041.994 4  96789735.05404      -343.294 4        25.063    23637042.690 6  96789731.05206      -343.254 6        40.438
G24  20216580.426 8 106238845.20108      2493.802 8        49.125    20216582.175 8  82783519.47308      1943.220 8        52.875    20216582.744 7  82783519.47807      1943.190 7        47.719
> 2024 02 29 07 59 15.0000000  0 10
G10  23596887.662 7 124002476.41407      1770.940 7        42.375    23596889.701 5  96625311.83005      1379.951 5        30.594    23596890.333 7  96625307.82507      1379.962 7        42.781
G12  23105694.274 6 121421243.84006      5434.906 6        41.031    23105695.864 6  94613960.60306      4234.991 6        37.469    23105696.692 6  94613968.61306      4234.718 6        40.813
G13  23477701.081 6 123376148.55806     -1917.693 6        40.063    23477704.617 3  96137267.10003     -1494.295 3        22.563
G14  23968896.940 5 125957398.04905     -1528.426 5        35.500    23968901.321 3  98148633.64703     -1190.969 3        18.344    23968901.774 6  98148624.64506     -1191.007 6        37.406
G15  22057660.799 7 115913781.48107     -1319.779 7        43.719    22057661.226 7  90322428.49607     -1028.396 7        42.438    22057661.724 7  90322423.49407     -1028.234 7        42.344
G17  22218869.014 7 116760942.55507      1250.282 7        44.594    22218869.627 7  90982556.23907       974.252 7        43.125    22218869.974 7  90982562.23607       974.192 7        43.719
G19  21927466.192 7 115229614.51607      3664.999 7        43.594    21927464.941 5  89789308.73805      2855.845 5        34.188
G22  22637006.381 7 118958269.70007      -846.223 7        43.719    22637007.128 5  92694757.64305      -659.392 5        31.219
G23  23637125.397 6 124213923.23206      -440.904 6        40.875    23637125.783 4  96790077.94404      -343.562 4        25.000    23637126.329 6  96790073.93906      -343.541 6        39.969
G24  20216105.836 8 106236350.93308      2493.364 8        49.063    20216107.535 8  82781575.88608      1942.885 8        52.844    20216108.027 7  82781575.88907      1942.843 7        47.719
> 2024 02 29 07 59 16.0000000  0 10
G10  23596550.577 7 124000705.18307      1770.623 7        42.406    23596552.670 5  96623931.64605      1379.714 5        30.813    23596553.353 7  96623927.63507      1379.758 7        42.906
G12  23104659.876 6 121415808.55506      5434.894 6        40.906    23104661.560 6  94609725.31306      4234.981 6        37.438    23104662.471 6  94609733.31706      4234.909 6        40.656
G13  23478065.809 6 123378065.86606     -1917.633 6        39.813    23478069.461 3  96138761.09803     -1494.242 3        22.563
G14  23969187.710 5 125958926.10205     -1528.325 5        35.469    23969192.080 3  98149824.33703     -1190.918 3        18.281    23969192.625 6  98149815.31506     -1190.941 6        37.156
G15  22057911.581 7 115915100.74607     -1319.718 7        43.781    22057912.262 7  90323456.49007     -1028.350 7        42.500    22057912.808 7  90323451.49207     -1028.338 7        42.406
G17  22218631.115 7 116759691.94807      1249.954 7        44.719    22218631.661 7  90981581.73907       973.991 7        43.188    22218631.970 7  90981587.73107       974.044 7        43.719
G19  21926768.630 7 115225949.14307      3664.846 7        43.875    21926767.498 5  89786452.60605      2855.716 5        34.250
G22  22637167.471 7 118959115.45607      -846.156 7        43.531    22637168.111 5  92695416.66605      -659.338 5        31.250
G23  23637209.224 6 124214363.83906      -441.173 6        40.906    23637209.635 4  96790421.27504      -343.771 4        25.063    23637210.085 6  96790417.26006      -343.711 6        40.094
G24  20215631.363 8 106233857.28808      2493.117 8        49.125    20215633.010 8  82779632.78708      1942.690 8        52.938    20215633.503 7  82779632.79107      1942.722 7        47.719
