     3.04           OBSERVATION DATA    G                   RINEX VERSION / TYPE
sbf2rin-15.9.0                          20240324 110233 UTC PGM / RUN BY / DATE 
ALT3                                                        MARKER NAME         
Unknown                                                     MARKER NUMBER       
Unknown             Unknown                                 OBSERVER / AGENCY   
3058190             SEPT ALTUS NR3      1.3.3-r81487        REC # / TYPE / VERS 
Altus NR3           SEPALTUS_NR3    NONE                    ANT # / TYPE        
  3509700.7677   779239.5142  5250781.7999                  APPROX POSITION XYZ 
        0.0000        0.0000        0.0000                  ANTENNA: DELTA H/E/N
G   12 C1C L1C D1C S1C C2W L2W D2W S2W C2L L2L D2L S2L      SYS / # / OBS TYPES 
SEPTENTRIO RECEIVERS OUTPUT ALIGNED CARRIER PHASES.         COMMENT             
NO FURTHER PHASE SHIFT APPLIED IN THE RINEX ENCODER.        COMMENT             
G L1C                                                       SYS / PHASE SHIFT   
G L2W                                                       SYS / PHASE SHIFT   
G L2L  0.00000                                              SYS / PHASE SHIFT   
     1.000                                                  INTERVAL            
  2024     2    29     8    19   48.0000000     GPS         TIME OF FIRST OBS   
  2024     2    29     8    37   17.0000000     GPS         TIME OF LAST OBS    
    42                                                      # OF SATELLITES     
DBHZ                                                        SIGNAL STRENGTH UNIT
    18                                                      LEAP SECONDS        
                                                            END OF HEADER       
> 2024 02 29 08 19 48.0000000  0 12
G01                                                                                                                                  23952495.430 5                      1607.081 5        31.438
G02  25451998.660 5 133751153.33105       441.284 5        33.906    25451995.244 1 104221643.90001       343.911 1         4.000
G12  22177242.479 7 116542208.18907      5017.256 7        46.469    22177241.409 6  90812112.37306      3909.546 6        40.281    22177242.621 6  90812125.36906      3909.726 6        38.813
G13  24255004.665 5 127460908.01605     -2133.514 5        34.844    24255007.966 2  99320204.15302     -1662.445 2        13.750
G14  24650351.126 5 129538480.19605     -1710.895 5        31.906    24650354.314 1 100939093.83201     -1333.154 1         5.688    24650353.545 4                     -1333.413 4        25.563
G15  22725866.708 6 119425208.03906     -1795.315 6        36.875    22725868.938 4  93058628.71304     -1398.940 4        29.656    22725869.633 6  93058593.66506     -1398.903 6        36.219
G17  22320218.165 6 117293553.01006       449.614 6        38.125    22320220.857 4  91397563.69304       350.342 4        26.781    22320219.154 6  91397569.69206       350.361 6        37.156
G19  21464932.552 7 112798982.94607      2815.682 7        42.375    21464930.378 4  87895302.92704      2194.030 4        28.719
G22  23175393.843 3                     -1172.066 3        22.938
G23                                                                                                                                  24108367.333 5  98719734.74205      -773.789 5        33.406
G24  20019797.465 8 105204740.46408      1730.183 8        48.438    20019800.200 8  81977722.69508      1348.202 8        53.250    20019800.631 8  81977722.67108      1348.212 8        48.781
G32  24647957.778 5 129525912.85105      5128.872 5        33.094
> 2024 02 29 08 19 49.0000000  0 12
G01                                                                                                                                  23952102.128 5                      1606.611 5        30.156
G02  25451914.732 5 133750712.33105       440.087 5        33.469    25451911.477 1 104221300.32001       342.859 1         3.375
G12  22176287.894 7 116537190.99907      5016.356 7        46.344    22176286.655 6  90808202.87406      3908.841 6        40.188    22176287.773 6  90808215.91206      3908.921 6        39.906
G13  24255410.656 5 127463041.12305     -2133.751 5        34.000    24255413.792 2  99321866.30002     -1662.644 2        14.094
G14  24650677.031 5 129540190.79905     -1711.182 5        32.188    24650680.000 1 100940426.74801     -1333.407 1         5.563    24650677.836 3                     -1332.337 3        23.406
G15  22726207.925 6 119427003.50506     -1796.140 6        36.719    22726210.664 4  93060027.77104     -1399.571 4        29.031    22726211.236 5  93059992.73705     -1399.704 5        35.031
G17  22320132.702 6 117293103.36906       448.469 6        38.063    22320135.342 4  91397213.32004       349.460 4        27.406    22320134.167 6  91397219.32906       349.624 6        37.250
G19  21464396.655 7 112796167.30607      2814.636 7        42.125    21464394.611 4  87893108.93304      2193.219 4        28.625
G22  23175616.847 4                     -1173.221 4        24.344
G23                                                                                                                                  24108555.087 5  98720508.48905      -774.093 5        33.406
G24  20019468.212 8 105203010.44208      1728.956 8        48.313    20019471.008 8  81976374.62208      1347.240 8        53.156    20019471.553 8  81976374.60808      1347.255 8        48.656
G32  24646982.383 5 129520784.19905      5127.890 5        35.094
> 2024 02 29 08 19 50.0000000  0 12
G01                                                                                                                                  23951710.029 5                      1605.654 5        30.844
G02  25451831.322 5 133750272.26105       439.753 5        33.500    25451827.728 1 104220957.36501       342.743 1         3.000
G12  22175333.396 7 116532174.60207      5016.046 7        46.156    22175332.066 6  90804293.99906      3908.608 6        40.281    22175333.185 6  90804307.02506      3908.616 6        39.344
G13  24255816.648 5 127465174.91505     -2134.125 5        32.781    24255820.003 2  99323528.97002     -1662.971 2        13.813
G14  24651002.405 5 129541901.93205     -1711.076 5        33.406    24651005.449 1 100941760.06901     -1333.268 1         5.406    24651004.184 3                     -1333.844 3        22.688
G15  22726549.343 6 119428799.65906     -1796.580 6        37.719    22726552.506 4  93061427.34504     -1399.903 4        28.500    22726552.258 5  93061392.35405     -1399.712 5        34.000
G17  22320047.491 6 117292654.74906       448.217 6        37.625    22320050.027 4  91396863.74604       349.270 4        27.906    22320048.708 6  91396869.75306       349.255 6        37.031
G19  21463860.861 7 112793352.78407      2814.171 7        42.469    21463859.071 4  87890915.80004      2192.871 4        28.688
G22  23175841.336 4                     -1173.101 4        26.125
G23  24108738.949 4                      -994.137 4        24.875                                                                    24108743.389 5  98721282.91105      -774.464 5        33.125
G24  20019139.121 8 105201281.43608      1728.555 8        48.656    20019142.009 8  81975027.34208      1346.927 8        53.094    20019142.532 8  81975027.33708      1346.899 8        48.438
G32  24646007.225 5 129515656.21905      5127.867 5        34.063
> 2024 02 29 08 19 51.0000000  0 13
G01                                                                                                                                  23951316.844 5                      1605.022 5        30.313
G02  25451747.434 5 133749832.48705       439.471 5        33.844    25451744.028 1 104220614.64501       342.393 1         3.000
G10                                                                                                                                  23581160.853 4                       716.024 4        29.531
G12  22174378.769 7 116527158.34407      5015.982 7        45.938    22174377.495 6  90800385.23106      3908.550 6        40.375    22174378.689 6  90800398.24806      3908.548 6        39.500
G13  24256222.342 5 127467308.46305     -2133.531 5        33.875    24256225.942 2  99325191.47502     -1662.488 2        12.969
G14  24651327.896 4 129543612.93404     -1710.702 4        29.813    24651330.666 1 100943093.20201     -1332.826 1         4.125    24651330.210 3                     -1335.233 3        19.188
G15  22726891.026 6 119430595.89706     -1796.597 6        38.063    22726894.277 4  93062827.00204     -1399.947 4        28.063    22726893.510 5  93062792.00505     -1399.838 5        34.125
G17  22319962.334 6 117292206.53206       447.527 6        37.813    22319964.736 4  91396514.48104       348.726 4        28.188    22319963.581 5  91396520.48305       348.875 5        35.938
G19  21463325.418 7 112790538.76807      2813.538 7        42.250    21463323.608 4  87888723.05804      2192.366 4        28.625
G22  23176065.158 4                     -1173.779 4        28.125
G23  24108928.089 4                      -996.762 4        24.000                                                                    24108932.821 5  98722057.37405      -774.792 5        34.156
G24  20018810.180 8 105199552.80108      1728.144 8        48.563    20018813.081 8  81973680.35508      1346.598 8        52.906    20018813.577 8  81973680.34608      1346.669 8        48.531
G32  24645031.763 5 129510528.29605      5127.584 5        34.531
> 2024 02 29 08 19 52.0000000  0 13
G01                                                                                                                                  23950925.009 5                      1604.698 5        30.406
G02  25451663.716 5 133749393.29705       439.140 5        33.563    25451660.279 1 104220272.46401       342.194 1         2.000
G10                                                                                                                                  23580985.521 5                       715.701 5        30.406
G12  22173424.111 7 116522142.41307      5015.982 7        45.938    22173423.001 6  90796476.71806      3908.556 6        40.313    22173424.234 6  90796489.74706      3908.521 6        39.781
G13  24256629.117 5 127469442.16305     -2133.431 5        34.406    24256631.996 2  99326854.09202     -1662.381 2        12.344
G14  24651653.681 5 129545324.04105     -1710.780 5        30.563    24651656.365 1 100944426.53401     -1333.124 1         2.188    24651656.857 3                     -1334.362 3        18.969
G15  22727232.807 6 119432392.44406     -1796.579 6        38.094    22727236.119 4  93064226.91004     -1399.931 4        27.844    22727235.409 5  93064191.96405     -1399.835 5        34.656
G17  22319877.283 6 117291758.89406       447.463 6        37.125    22319879.538 4  91396165.67004       348.667 4        28.250    22319878.564 6  91396171.64206       348.778 6        37.188
G19  21462789.851 6 112787725.40506      2813.247 6        41.688    21462788.270 4  87886530.82904      2192.128 4        28.375
G22  23176289.553 4                     -1173.374 4        29.031
G23  24109117.181 4                      -994.763 4        25.094                                                                    24109121.840 5  98722832.14905      -774.629 5        33.313
G24  20018481.345 8 105197824.77508      1727.951 8        48.625    20018484.264 8  81972333.84208      1346.453 8        52.781    20018484.766 8  81972333.83508      1346.502 8        48.469
G32  24644055.805 5 129505400.59605      5128.313 5        32.406
> 2024 02 29 08 19 53.0000000  0 12
G01                                                                                                                                  23950532.334 4                      1604.406 4        29.906
G02  25451580.330 5 133748954.28705       438.257 5        32.906    25451576.441 1 104219930.32801       341.499 1         3.594
G10                                                                                                                                  23580811.239 4                       715.229 4        29.125
G12  22172469.466 7 116517126.58807      5015.490 7        45.750    22172468.497 6  90792568.28406      3908.171 6        40.281    22172469.804 6  90792581.32106      3908.027 6        39.500
G13  24257034.905 6 127471575.68606     -2133.787 6        36.156    24257037.792 2  99328516.56502     -1662.670 2        13.000
G15  22727574.541 6 119434188.98306     -1796.839 6        39.000    22727577.974 4  93065626.80504     -1400.124 4        27.969    22727577.800 5  93065591.85005     -1400.425 5        35.250
G17  22319792.012 6 117291311.55006       446.680 6        37.906    22319794.398 4  91395817.07404       348.066 4        28.531    22319793.675 6  91395823.08906       348.163 6        37.250
G19  21462254.508 7 112784912.50807      2812.370 7        42.313    21462253.039 4  87884338.96804      2191.451 4        28.406
G22  23176513.707 4                     -1172.932 4        29.781
G23  24109305.628 3                      -994.362 3        21.969                                                                    24109311.484 5  98723607.01805      -775.290 5        33.906
G24  20018152.595 8 105196097.09008      1727.153 8        48.781    20018155.515 8  81970987.59308      1345.830 8        52.813    20018155.960 8  81970987.58608      1345.852 8        48.719
G32  24643079.663 5 129500272.92605      5127.373 5        33.469
> 2024 02 29 08 19 54.0000000  0 13
G01                                                                                                                                  23950141.617 4                      1603.335 4        29.750
G02  25451496.261 5 133748516.68805       437.332 5        33.813    25451493.179 1 104219589.40001       340.814 1         3.781
G10  23580639.326 3                       916.008 3        23.313                                                                    23580637.503 4                       714.202 4        27.219
G12  22171515.152 7 116512111.89107      5014.384 7        46.000    22171514.195 6  90788660.72406      3907.316 6        40.281    22171515.457 6  90788673.77506      3907.072 6        39.250
G13  24257441.269 6 127473710.07106     -2134.649 6        36.156    24257443.744 2  99330179.72202     -1663.272 2        13.375
G14  24652304.051 5 129548746.71705     -1711.781 5        30.500    24652308.328 1 100947093.56801     -1333.831 1         3.188    24652315.563 4                     -1333.272 4        25.000
G15  22727916.920 6 119435986.63006     -1797.778 6        38.969    22727920.031 4  93067027.56504     -1400.862 4        27.875    22727920.262 5  93066992.58605     -1400.579 5        34.750
G17  22319707.164 6 117290865.62906       445.377 6        37.813    22319709.572 4  91395469.60904       347.028 4        28.969    22319709.133 6  91395475.60706       347.201 6        36.969
G19  21461719.303 7 112782101.06807      2810.951 7        42.250    21461718.099 4  87882148.23504      2190.340 4        28.344
G22  23176737.637 4                     -1174.437 4        27.875
G23  24109491.795 3                      -994.810 3        23.719                                                                    24109501.165 5  98724382.69505      -776.016 5        33.906
G24  20017824.205 8 105194370.78008      1725.885 8        48.625    20017827.025 8  81969642.41208      1344.845 8        52.813    20017827.464 8  81969642.40408      1344.830 8        48.719
G32  24642103.767 5 129495146.24105      5126.518 5        33.938
> 2024 02 29 08 19 55.0000000  0 13
G01                                                                                                                                  23949750.184 4                      1602.444 4        29.938
G02  25451413.214 5 133748079.55005       436.710 5        32.906    25451409.998 1 104219248.71101       340.204 1         4.406
G10  23580467.652 3                       915.770 3        23.844                                                                    23580463.624 4                       713.644 4        26.656
G12  22170561.015 7 116507097.51507      5014.120 7        45.688    22170559.964 6  90784753.42006      3907.098 6        40.188    22170561.225 6  90784766.46606      3907.305 6        39.063
G13  24257847.250 6 127475844.54306     -2134.432 6        36.813    24257850.111 2  99331842.93702     -1663.208 2        13.250
G14  24652629.107 4 129550458.60004     -1712.442 4        29.313    24652633.849 1 100948427.52501     -1334.335 1         3.781    24652637.493 4                     -1334.195 4        25.656
G15  22728259.405 6 119437784.57306     -1798.063 6        39.594    22728262.173 4  93068428.55704     -1401.083 4        28.031    22728262.439 5  93068393.57005     -1401.126 5        34.531
G17  22319622.230 6 117290420.25006       444.848 6        38.344    22319624.875 4  91395122.56304       346.636 4        29.094    22319624.347 6  91395128.56306       346.782 6        37.375
G19  21461184.197 7 112779290.29107      2810.507 7        42.625    21461183.288 4  87879958.01804      2190.007 4        28.563
G22  23176960.435 5                     -1174.348 5        30.063
G23  24109681.499 3                      -994.730 3        22.125                                                                    24109691.142 5  98725158.64305      -776.047 5        33.188
G24  20017495.864 8 105192645.06008      1725.423 8        48.531    20017498.643 8  81968297.69408      1344.484 8        52.906    20017498.976 8  81968297.68108      1344.535 8        48.688
G32  24641128.175 6 129490019.85706      5126.349 6        36.563
> 2024 02 29 08 19 56.0000000  0 13
G01                                                                                                                                  23949358.461 5                      1601.805 5        30.719
G02  25451330.271 5 133747643.18905       435.698 5        32.719    25451326.830 1 104218908.71801       339.513 1         3.594
G10                                                                                                                                  23580290.278 4                       712.725 4        25.313
G12  22169606.936 7 116502083.76507      5013.320 7        45.719    22169605.863 6  90780846.60706      3906.482 6        40.313    22169607.022 6  90780859.64606      3906.371 6        38.906
G13  24258253.761 6 127477979.38106     -2135.453 6        36.750    24258256.233 2  99333506.43502     -1663.976 2        14.375
G14  24652954.163 4 129552170.76704     -1712.023 4        28.500    24652959.580 1 100949761.65301     -1334.011 1         4.844    24652961.172 4                     -1334.022 4        27.000
G15  22728601.762 6 119439583.02706     -1798.888 6        39.281    22728604.400 4  93069829.94104     -1401.739 4        28.125    22728604.945 5  93069794.96605     -1401.652 5        35.063
G17  22319537.719 6 117289975.73006       443.848 6        39.125    22319540.334 4  91394776.17804       345.852 4        29.281    22319539.747 6  91394782.18106       345.899 6        37.531
G19  21460649.264 7 112776480.49707      2809.146 7        42.344    21460648.612 4  87877768.56904      2188.945 4        28.438
G22  23177184.593 5                     -1174.645 5        31.188
G23  24109871.374 3                      -993.781 3        22.375                                                                    24109881.019 5  98725935.07705      -776.423 5        34.031
G24  20017167.641 8 105190920.18508      1724.269 8        48.781    20017170.421 8  81966953.63208      1343.588 8        52.875    20017170.754 8  81966953.62108      1343.538 8        48.844
G32  24640152.888 6 129484893.95706      5125.528 6        36.438
> 2024 02 29 08 19 57.0000000  0 13
G01                                                                                                                                  23948967.919 5                      1601.305 5        30.031
G02  25451247.006 5 133747207.42605       435.441 5        33.313    25451243.980 1 104218569.16601       339.335 1         4.563
G10                                                                                                                                  23580116.139 4                       712.827 4        27.531
G12  22168652.938 7 116497070.42507      5012.989 7        45.906    22168651.833 6  90776940.11206      3906.224 6        40.281    22168652.913 6  90776953.13606      3906.113 6        39.594
G13  24258660.238 6 127480114.35906     -2135.223 6        36.344    24258662.569 2  99335170.04902     -1663.831 2        14.219
G14  24653280.927 4 129553883.08804     -1712.397 4        29.063    24653285.382 1 100951095.94001     -1334.302 1         3.781    24653286.567 4                     -1334.155 4        26.594
G15  22728944.316 6 119441381.85906     -1799.132 6        38.063    22728946.725 4  93071231.63004     -1401.929 4        28.094    22728947.441 5  93071196.61905     -1401.782 5        35.188
G17  22319453.582 6 117289531.85306       443.479 6        38.250    22319455.914 4  91394430.30704       345.567 4        29.500    22319455.360 6  91394436.31606       345.447 6        37.625
G19  21460114.729 7 112773671.44107      2808.471 7        42.906    21460114.047 4  87875579.68904      2188.422 4        28.250
G22  23177409.534 5                     -1175.140 5        30.438
G23  24110062.683 3                      -997.643 3        23.344                                                                    24110071.178 5  98726711.90705      -777.082 5        33.563
G24  20016839.423 8 105189195.96308      1723.706 8        48.563    20016842.329 8  81965610.08208      1343.146 8        52.844    20016842.647 8  81965610.08108      1343.113 8        48.656
G32  24639178.222 6 129479768.37906      5125.059 6        36.500
> 2024 02 29 08 19 58.0000000  0 13
G01                                                                                                                                  23948577.318 5                      1600.809 5        31.688
G02  25451164.067 5 133746771.96205       435.100 5        32.938    25451161.183 1 104218229.77501       339.098 1         4.281
G10                                                                                                                                  23579943.843 4                       712.226 4        26.094
G12  22167699.038 7 116492057.22707      5012.891 7        45.500    22167697.853 6  90773033.72206      3906.151 6        40.250    22167699.066 6  90773046.74706      3906.069 6        39.719
G13  24259066.313 6 127482249.21506     -2135.077 6        36.625    24259068.785 2  99336833.57602     -1663.647 2        14.500
G14  24653607.351 5 129555595.26305     -1712.283 5        30.844    24653611.292 1 100952430.05201     -1334.183 1         4.125    24653612.007 4                     -1333.886 4        28.750
G15  22729286.677 6 119443180.76006     -1799.160 6        38.094    22729289.045 4  93072633.35404     -1401.912 4        27.688    22729290.013 5  93072598.37205     -1401.987 5        34.281
G17  22319369.125 6 117289088.35606       442.979 6        39.156    22319371.571 4  91394084.72604       345.190 4        29.750    22319371.144 6  91394090.74506       345.255 6        38.094
G19  21459580.374 7 112770862.87207      2808.003 7        43.750    21459579.563 4  87873391.19004      2188.052 4        28.438
G22  23177633.459 4                     -1175.243 4        29.313
G23  24110253.617 3                      -992.078 3        21.375                                                                    24110261.403 5  98727488.74805      -776.958 5        34.531
G24  20016511.512 8 105187472.13308      1723.383 8        48.594    20016514.309 8  81964266.83608      1342.896 8        53.000    20016514.558 8  81964266.82608      1342.926 8        48.875
G32  24638202.880 5 129474642.82105      5125.480 5        35.344
> 2024 02 29 08 19 59.0000000  0 13
G01                                                                                                                                  23948186.583 5                      1600.398 5        30.688
G02  25451080.838 5 133746336.75505       434.550 5        33.219    25451078.280 1 104217890.59101       338.509 1         3.375
G10                                                                                                                                  23579769.508 3                       712.430 3        23.656
G12  22166745.125 7 116487044.04307      5012.778 7        45.313    22166743.877 6  90769127.34606      3906.062 6        40.219    22166745.192 6  90769140.37006      3906.013 6        39.063
G13  24259472.071 6 127484383.90706     -2134.973 6        36.781    24259474.880 2  99338496.94902     -1663.613 2        14.469
G14  24653933.715 5 129557307.21605     -1712.340 5        31.750    24653937.233 1 100953764.00701     -1334.252 1         5.000    24653938.109 4                     -1334.247 4        28.000
G15  22729628.863 6 119444979.62606     -1799.404 6        37.188    22729631.366 4  93074035.06104     -1402.121 4        27.250    22729632.396 5  93074000.06705     -1402.105 5        34.563
G17  22319285.008 6 117288645.13506       442.843 6        39.625    22319287.294 5  91393739.36205       345.075 5        30.031    22319286.834 6  91393745.37606       344.862 6        37.375
G19  21459046.127 7 112768054.64807      2807.495 7        43.844    21459045.150 4  87871202.96704      2187.653 4        28.750
G22  23177857.608 4                     -1174.664 4        29.344
G23  24110443.053 3                      -995.391 3        22.000                                                                    24110451.052 5  98728265.61505      -777.204 5        35.469
G24  20016183.452 8 105185748.56108      1723.031 8        48.844    20016186.329 8  81962923.79108      1342.620 8        53.063    20016186.429 8  81962923.78708      1342.601 8        48.625
G32  24637227.982 5 129469517.19305      5125.177 5        34.875
> 2024 02 29 08 20  0.0000000  0 13
G01                                                                                                                                  23947796.219 5                      1599.789 5        31.344
G02  25450998.600 5 133745902.01905       435.093 5        31.781    25450995.626 1 104217551.87701       338.965 1         3.781
G10                                                                                                                                  23579595.249 4                       711.506 4        28.594
G12  22165791.148 7 116482031.24307      5013.516 7        45.438    22165789.954 6  90765221.27206      3906.633 6        40.125    22165791.538 6  90765234.28706      3906.571 6        39.344
G13  24259878.347 6 127486518.66006     -2133.783 6        37.438    24259881.073 2  99340160.38502     -1662.673 2        14.875
G14  24654259.555 4 129559019.27904     -1711.456 4        29.156    24654262.771 1 100955098.04501     -1333.536 1         5.406    24654264.596 4                     -1334.033 4        28.094
G15  22729971.002 6 119446778.83506     -1798.395 6        38.469    22729973.740 4  93075437.03504     -1401.355 4        27.125    22729974.787 5  93075402.06405     -1401.380 5        33.500
G17  22319200.972 6 117288202.55706       443.197 6        38.406    22319203.138 5  91393394.49805       345.348 5        30.031    22319202.297 6  91393400.50206       345.356 6        37.281
G19  21458512.067 7 112765247.17307      2808.110 7        43.281    21458510.885 4  87869015.32404      2188.121 4        28.688
G22  23178081.713 5                     -1174.991 5        31.531
G23                                                                                                                                  24110640.757 5  98729042.82305      -776.539 5        34.406
G24  20015855.661 8 105184025.63308      1723.598 8        48.500    20015858.469 8  81961581.25208      1343.063 8        53.125    20015858.396 8  81961581.24708      1343.003 8        48.438
G32  24636252.376 5 129464391.95805      5126.034 5        34.781
> 2024 02 29 08 20  1.0000000  0 13
G01                                                                                                                                  23947405.999 5                      1599.437 5        31.500
G02  25450915.723 5 133745467.76305       434.358 5        31.531    25450913.268 1 104217213.55601       338.576 1         3.000
G10  23579437.448 4                       913.189 4        28.313                                                                    23579422.452 4                       711.057 4        28.313
G12  22164837.478 7 116477018.70507      5012.938 7        44.938    22164836.072 6  90761315.39906      3906.188 6        40.094    22164837.664 6  90761328.39806      3906.199 6        39.219
G13  24260284.709 6 127488653.38206     -2134.032 6        37.719    24260287.150 2  99341823.80902     -1662.865 2        14.938
G14  24654584.700 4 129560731.27104     -1711.357 4        28.938    24654588.493 1 100956432.10401     -1333.514 1         5.844    24654590.483 4                     -1333.612 4        28.281
G15  22730313.117 6 119448578.22006     -1798.808 6        38.031    22730316.110 4  93076839.16004     -1401.652 4        26.688    22730316.304 5  93076804.12405     -1401.585 5        32.875
G17  22319116.870 6 117287760.45706       442.246 6        39.125    22319119.058 5  91393049.99805       344.609 5        30.031    22319117.679 6  91393056.01006       344.724 6        37.125
G19  21457978.205 7 112762440.30107      2807.198 7        43.500    21457976.728 4  87866828.15104      2187.427 4        28.719
G22  23178305.893 5                     -1175.054 5        31.063
G23                                                                                                                                  24110830.775 5  98729820.18105      -776.923 5        34.375
G24  20015527.861 8 105182303.17108      1722.822 8        48.563    20015530.695 8  81960239.07508      1342.456 8        53.188    20015530.661 8  81960239.08008      1342.371 8        48.563
G32  24635277.017 5 129459266.77605      5125.832 5        34.031
> 2024 02 29 08 20  2.0000000  0 13
G01                                                                                                                                  23947015.765 5                      1598.610 5        31.500
G02  25450832.627 5 133745034.38905       432.647 5        33.063    25450830.936 1 104216875.84501       337.132 1         3.594
G10  23579263.641 4                       911.556 4        29.625                                                                    23579251.229 4                       711.982 4        24.125
G12  22163883.814 7 116472006.85107      5011.317 7        44.531    22163882.316 6  90757410.05406      3904.930 6        39.813    22163883.861 6  90757423.06706      3904.804 6        39.406
G13  24260691.052 6 127490788.64106     -2135.590 6        36.406    24260693.477 2  99343487.64302     -1664.041 2        15.188
G14  24654911.602 5 129562443.70805     -1712.683 5        32.469    24654914.591 1 100957766.40001     -1334.507 1         7.000    24654916.460 4                     -1334.091 4        27.406
G15  22730655.775 6 119450378.24106     -1800.586 6        37.531    22730658.547 4  93078241.75104     -1403.028 4        26.438    22730658.928 5  93078206.72005     -1403.078 5        33.813
G17  22319032.807 6 117287319.26706       440.482 6        40.375    22319035.121 5  91392706.21105       343.224 5        30.125    22319034.068 6  91392712.25106       343.040 6        36.875
G19  21457444.555 7 112759634.46907      2804.926 7        43.594    21457442.789 4  87864641.78804      2185.644 4        28.781
G22  23178529.693 4                     -1175.786 4        28.438
G23  24111019.467 4                      -998.161 4        25.750                                                                    24111020.855 5  98730598.11405      -778.616 5        35.625
G24  20015200.384 8 105180581.70808      1720.745 8        48.656    20015203.113 8  81958897.67508      1340.840 8        53.156    20015203.023 8  81958897.66208      1340.853 8        48.344
G32  24634303.120 5 129454142.28105      5124.001 5        32.281                                                                    24634302.084 3                      3993.139 3        21.563
> 2024 02 29 08 20  3.0000000  0 13
G01                                                                                                                                  23946625.379 5                      1598.073 5        31.625
G02  25450750.391 5 133744601.24005       433.785 5        32.281    25450748.591 1 104216538.23201       337.902 1         3.781
G10  23579089.279 5                       910.967 5        30.656                                                                    23579078.217 4                       709.492 4        27.188
G12  22162930.159 7 116466995.12107      5012.676 7        43.625    22162928.577 6  90753504.80706      3905.978 6        39.469    22162930.129 6  90753517.82406      3905.846 6        39.125
G13  24261097.191 6 127492923.72406     -2134.085 6        36.375    24261099.684 2  99345151.32902     -1662.919 2        15.188
G14  24655237.221 5 129564156.02505     -1711.185 5        31.500    24655240.630 1 100959100.66801     -1333.390 1         7.500    24655242.763 4                     -1334.370 4        28.031
G15  22730997.941 6 119452178.32406     -1799.161 6        39.344    22731001.037 4  93079644.40204     -1401.932 4        26.844    22731001.915 5  93079609.39205     -1401.911 5        35.031
G17  22318948.726 6 117286878.48106       441.508 6        40.469    22318951.274 5  91392362.74505       344.031 5        30.188    22318950.338 6  91392368.75206       344.231 6        37.281
G19  21456910.861 7 112756829.06807      2806.128 7        43.656    21456908.918 4  87862455.76504      2186.599 4        28.719
G22  23178752.536 4                     -1175.535 4        28.625
G23  24111211.796 4                      -998.982 4        26.094                                                                    24111211.499 5  98731376.08905      -777.582 5        35.500
G24  20014872.826 8 105178860.57308      1721.818 8        48.594    20014875.580 8  81957556.52708      1341.672 8        53.188    20014875.417 8  81957556.52808      1341.656 8        48.344
G32  24633328.905 5 129449017.71005      5125.265 5        33.781                                                                    24633326.318 3                      3997.083 3        19.281
> 2024 02 29 08 20  4.0000000  0 13
G01                                                                                                                                  23946235.981 5                      1597.758 5        32.594
G02  25450667.961 5 133744168.41205       432.121 5        31.438    25450666.380 1 104216201.00001       336.670 1         4.844
G10  23578914.438 4                       910.447 4        28.563                                                                    23578904.365 4                       709.440 4        24.969
G12  22161976.379 7 116461983.44407      5010.968 7        43.813    22161974.856 6  90749599.60306      3904.646 6        39.031    22161976.301 6  90749612.63606      3904.678 6        39.438
G13  24261503.146 6 127495058.55306     -2135.279 6        37.063    24261505.985 2  99346814.80602     -1663.849 2        15.313
G14  24655563.426 5 129565868.14505     -1712.571 5        31.500    24655566.482 1 100960434.78201     -1334.561 1         7.375    24655567.904 4                     -1334.409 4        26.875
G15  22731340.701 6 119453978.39606     -1800.569 6        39.250    22731343.622 4  93081047.05204     -1403.037 4        27.125    22731344.935 5  93081012.06405     -1403.209 5        34.844
G17  22318865.097 6 117286437.96406       439.765 6        40.688    22318867.467 5  91392019.49005       342.677 5        30.375    22318866.800 6  91392025.51106       342.612 6        36.813
G19  21456377.040 7 112754024.08007      2804.284 7        43.688    21456375.100 4  87860270.06104      2185.159 4        28.719
G22  23178976.001 4                     -1175.609 4        29.594
G23                                                                                                                                  24111401.445 5  98732154.13505      -778.500 5        35.438
G24  20014545.330 8 105177139.75808      1720.100 8        48.875    20014548.101 8  81956215.63408      1340.337 8        53.188    20014547.963 8  81956215.62808      1340.266 8        48.406
G32  24632354.217 5 129443893.17505      5123.763 5        34.094
> 2024 02 29 08 20  5.0000000  0 13
G01                                                                                                                                  23945846.051 5                      1597.197 5        32.656
G02  25450585.675 5 133743736.20805       432.182 5        30.938    25450584.174 1 104215864.20301       336.854 1         5.125
G10  23578739.379 4                       909.701 4        26.438                                                                    23578730.844 3                       707.791 3        23.656
G12  22161022.638 7 116456972.26007      5010.870 7        43.906    22161021.260 6  90745694.78806      3904.574 6        38.875    22161022.410 6  90745707.81106      3904.595 6        38.938
G13  24261909.409 6 127497193.67506     -2135.212 6        36.438    24261912.303 2  99348478.53802     -1663.814 2        15.844
G14  24655889.166 5 129567580.45505     -1712.562 5        30.781    24655892.360 1 100961769.09601     -1334.501 1         6.875    24655891.609 4                     -1334.311 4        27.781
G15  22731683.567 6 119455778.90506     -1800.657 6        38.875    22731686.296 4  93082450.04104     -1403.092 4        27.281    22731687.692 5  93082415.04605     -1403.207 5        34.125
G17  22318781.197 6 117285998.19806       439.382 6        40.688    22318783.776 5  91391676.81405       342.378 5        30.594    22318783.208 6  91391682.82106       342.282 6        37.250
G19  21455843.406 7 112751219.93907      2803.651 7        43.156    21455841.439 4  87858085.01604      2184.663 4        28.750
G22  23179199.735 5                     -1175.775 5        30.250
G23  24111594.330 4                      -998.091 4        24.500                                                                    24111591.997 5  98732932.57105      -778.594 5        35.000
G24  20014217.986 8 105175419.70008      1719.599 8        49.063    20014220.765 8  81954875.32708      1339.951 8        53.313    20014220.671 8  81954875.31808      1339.917 8        48.594
G32  24631379.148 5 129438768.99005      5124.172 5        34.250
> 2024 02 29 08 20  6.0000000  0 13
G01                                                                                                                                  23945456.202 5                      1596.325 5        31.531
G02  25450503.074 5 133743304.64505       430.323 5        32.750    25450502.053 1 104215527.92701       335.260 1         6.875
G10  23578565.160 4                       909.136 4        27.906                                                                    23578558.525 4                       708.541 4        29.813
G12  22160068.989 7 116451961.49607      5009.643 7        44.719    22160067.726 6  90741790.29906      3903.620 6        38.813    22160068.848 6  90741803.32006      3903.793 6        38.844
G13  24262315.749 6 127499328.92806     -2136.433 6        37.469    24262318.648 2  99350142.37002     -1664.771 2        15.125
G14  24656215.339 4 129569292.93704     -1713.866 4        28.938    24656218.279 1 100963103.48301     -1335.511 1         7.875    24656216.692 4                     -1334.447 4        28.250
G15  22732026.526 6 119457579.77506     -1802.280 6        37.375    22732028.987 4  93083853.31304     -1404.372 4        27.063    22732030.253 5  93083818.33805     -1404.211 5        34.156
G17  22318697.419 6 117285559.10606       437.588 6        40.125    22318700.228 5  91391334.65405       340.989 5        30.688    22318699.155 6  91391340.67406       340.995 6        36.125
G19  21455309.818 7 112748416.54907      2802.200 7        42.906    21455307.907 4  87855900.55204      2183.531 4        28.781
G22  23179423.763 5                     -1175.904 5        30.063
G23  24111784.647 3                      -999.470 3        23.625                                                                    24111782.032 5  98733711.31805      -779.518 5        34.375
G24  20013890.853 8 105173700.27308      1718.166 8        48.719    20013893.558 8  81953535.51308      1338.832 8        53.438    20013893.508 8  81953535.51008      1338.765 8        48.594
G32  24630403.472 5 129433645.20905      5122.534 5        32.969
> 2024 02 29 08 20  7.0000000  0 13
G01                                                                                                                                  23945066.723 5                      1595.798 5        32.688
G02  25450421.338 5 133742873.85405       430.853 5        32.875    25450420.057 1 104215192.26301       335.653 1         6.000
G10  23578392.121 4                       908.668 4        29.063                                                                    23578385.711 4                       707.752 4        28.125
G12  22159115.768 7 116446951.37007      5010.320 7        43.844    22159114.318 6  90737886.30806      3904.152 6        38.813    22159115.167 6  90737899.34806      3903.859 6        38.813
G13  24262721.769 6 127501464.53206     -2135.537 6        38.063    24262725.025 2  99351806.46602     -1664.046 2        15.094
G14  24656540.538 5 129571005.71105     -1712.433 5        30.031    24656544.149 1 100964438.07701     -1334.350 1         7.375    24656542.543 4                     -1334.158 4        27.688
G15  22732369.161 6 119459381.20006     -1800.926 6        37.625    22732371.782 4  93085257.01804     -1403.295 4        26.844    22732372.854 5  93085222.06205     -1403.576 5        32.844
G17  22318614.052 6 117285120.83906       438.203 6        40.531    22318616.819 5  91390993.13605       341.462 5        30.750    22318615.587 6  91390999.17306       341.443 6        36.531
G19  21454776.390 7 112745614.12007      2802.518 7        43.375    21454774.572 4  87853716.83904      2183.780 4        28.875
G22  23179647.478 5                     -1176.693 5        30.438
G23  24111976.041 3                      -999.564 3        23.469                                                                    24111972.114 5  98734490.55205      -778.716 5        34.531
G24  20013563.785 8 105171981.73008      1718.661 8        48.750    20013566.517 8  81952196.38608      1339.222 8        53.469    20013566.653 8  81952196.38508      1339.096 8        48.625
G32  24629428.242 5 129428521.91905      5123.032 5        33.563
> 2024 02 29 08 20  8.0000000  0 13
G01                                                                                                                                  23944676.731 5                      1595.074 5        32.219
G02  25450339.491 5 133742443.34605       430.263 5        32.594    25450338.132 1 104214856.80101       335.326 1         5.563
G10  23578218.274 4                       907.479 4        25.188                                                                    23578213.012 4                       707.101 4        25.813
G12  22158162.454 7 116441941.36007      5009.747 7        43.781    22158160.901 6  90733982.40506      3903.697 6        38.781    22158161.592 6  90733995.41606      3903.799 6        38.719
G13  24263127.698 6 127503600.12706     -2135.844 6        37.188    24263131.451 2  99353470.57002     -1664.279 2        15.688
G14  24656866.417 5 129572718.40505     -1713.162 5        30.250    24656870.067 1 100965772.67701     -1334.871 1         7.875    24656868.860 4                     -1334.925 4        28.656
G15  22732711.746 6 119461182.69206     -1801.744 6        38.281    22732714.603 4  93086660.76604     -1403.953 4        27.000    22732715.882 5  93086625.78905     -1403.699 5        33.156
G17  22318530.773 6 117284682.98306       437.473 6        40.469    22318533.495 5  91390651.95105       340.881 5        30.906    22318532.371 6  91390658.00606       340.664 6        36.906
G19  21454243.208 7 112742812.20507      2801.472 7        43.344    21454241.358 4  87851533.53404      2182.967 4        29.094
G22  23179871.189 5                     -1176.938 5        31.156
G23  24112166.470 4                     -1001.651 4        25.844                                                                    24112162.359 5  98735269.92005      -780.020 5        34.813
G24  20013236.879 8 105170263.59408      1717.797 8        49.031    20013239.552 8  81950857.57608      1338.544 8        53.438    20013239.711 8  81950857.57208      1338.396 8        48.219
G32  24628452.534 5 129423398.59905      5123.130 5        33.531                                                                    24628451.552 3                      3992.677 3        21.375
> 2024 02 29 08 20  9.0000000  0 13
G01                                                                                                                                  23944287.637 5                      1593.954 5        34.125
G02  25450258.663 5 133742013.44305       428.636 5        32.750    25450256.373 1 104214521.79301       333.961 1         4.844
G10  23578045.168 3                       909.994 3        21.938                                                                    23578038.659 4                       707.276 4        24.813
G12  22157209.108 7 116436931.74107      5008.806 7        45.094    22157207.551 6  90730078.80606      3902.970 6        38.750    22157208.248 6  90730091.82906      3902.834 6        38.969
G13  24263533.886 6 127505735.73306     -2136.440 6        40.438    24263537.809 2  99355134.67802     -1664.764 2        16.688
G14  24657190.958 4 129574431.18904     -1714.086 4        27.938    24657196.125 1 100967107.26301     -1335.647 1         7.250    24657196.160 4                     -1335.014 4        27.125
G15  22733054.719 6 119462984.53706     -1802.435 6        38.875    22733057.505 4  93088064.81004     -1404.493 4        27.313    22733058.874 5  93088029.85905     -1404.571 5        34.063
G17  22318447.655 6 117284245.69606       436.556 6        38.188    22318450.318 5  91390311.21505       340.170 5        30.938    22318449.115 6  91390317.28206       339.717 6        37.813
G19  21453710.014 7 112740011.00507      2800.030 7        43.375    21453708.291 4  87849350.77804      2181.844 4        29.000
G22  23180095.861 5                     -1176.901 5        30.656
G23  24112360.158 4                     -1001.500 4        25.656                                                                    24112353.412 5  98736049.57805      -780.231 5        33.531
G24  20012910.092 8 105168546.06808      1716.537 8        48.750    20012912.699 8  81949519.24708      1337.563 8        53.406    20012912.926 8  81949519.24308      1337.492 8        48.688
G32  24627477.059 5 129418275.71805      5122.265 5        33.188                                                                    24627479.332 3                      3992.504 3        22.844
> 2024 02 29 08 20 10.0000000  0 13
G01                                                                                                                                  23943898.664 5  98046259.13115      1593.890 5        34.094
G02  25450177.519 5 133741584.35605       428.006 5        32.313    25450174.730 1 104214187.47501       333.483 1         5.563
G10  23577871.057 3                       905.602 3        21.813                                                                    23577863.877 3                       705.881 3        22.281
G12  22156255.912 7 116431922.75207      5008.648 7        44.938    22156254.376 6  90726175.69706      3902.835 6        38.813    22156255.278 6  90726188.72306      3902.809 6        39.750
G13  24263940.219 6 127507871.77306     -2136.399 6        40.188    24263944.289 2  99356799.11502     -1664.704 2        17.219
G14  24657517.199 4 129576144.35704     -1713.471 4        29.250    24657522.307 1 100968442.16901     -1335.090 1         7.000    24657522.517 4                     -1334.942 4        28.406
G15  22733398.031 6 119464786.99006     -1802.556 6        36.594    22733400.492 4  93089469.32604     -1404.582 4        27.063    22733401.417 5  93089434.31405     -1404.601 5        32.938
G17  22318364.388 6 117283809.33106       436.169 6        39.344    22318367.351 5  91389971.18305       339.852 5        30.719    22318365.958 6  91389977.23906       339.674 6        38.813
G19  21453177.273 7 112737210.77007      2799.805 7        43.188    21453175.430 4  87847168.78004      2181.669 4        29.031
G22  23180319.670 4                     -1177.336 4        28.281
G23                                                                                                                                  24112543.373 5  98736829.68005      -780.172 5        34.594
G24  20012583.384 8 105166829.44108      1716.208 8        49.031    20012586.029 8  81948181.61508      1337.309 8        53.406    20012586.295 8  81948181.58908      1337.320 8        48.938
G32  24626501.914 5 129413153.30605      5121.476 5        31.844                                                                    24626503.914 4                      3991.644 4        24.625
> 2024 02 29 08 20 11.0000000  0 13
G01                                                                                                                                  23943509.494 5  98044665.49105      1593.128 5        32.594
G02  25450095.780 5 133741155.61405       428.393 5        33.281    25450093.168 1 104213853.33401       333.839 1         5.563
G10  23577697.880 3                       902.217 3        22.188                                                                    23577689.752 4                       705.991 4        24.531
G12  22155302.964 7 116426913.98007      5008.389 7        44.406    22155301.241 6  90722272.75506      3902.636 6        38.938    22155302.225 6  90722285.79606      3902.583 6        38.719
G13  24264346.748 6 127510007.75006     -2136.454 6        40.813    24264350.630 2  99358463.51302     -1664.794 2        17.719
G14  24657843.587 4 129577857.46704     -1714.164 4        29.281    24657848.427 1 100969777.03801     -1335.616 1         6.500    24657848.226 3                     -1335.777 3        23.969
G15  22733741.167 5 119466589.56405     -1802.761 5        34.781    22733743.474 4  93090873.91604     -1404.760 4        26.469    22733744.555 5  93090838.94105     -1404.852 5        33.844
G17  22318280.825 6 117283373.45906       435.334 6        39.719    22318284.519 5  91389631.55105       339.216 5        30.906    22318283.420 6  91389637.58306       339.056 6        38.281
G19  21452644.436 7 112734411.10207      2799.142 7        43.188    21452642.690 4  87844987.22004      2181.149 4        28.906
G22  23180542.715 4                     -1177.347 4        26.281
G23  24112746.689 3                     -1002.312 3        23.094                                                                    24112733.447 5  98737609.90805      -780.449 5        34.313
G24  20012256.856 8 105165113.25108      1715.715 8        49.156    20012259.453 8  81946844.31908      1336.923 8        53.469    20012259.733 8  81946844.31308      1336.831 8        48.688
G32  24625527.288 5 129408031.00905      5121.904 5        32.656                                                                    24625530.438 3                      3991.087 3        23.156
> 2024 02 29 08 20 12.0000000  0 13
G01                                                                                                                                  23943120.749 5  98043072.51905      1592.587 5        33.094
G02  25450014.300 5 133740727.65805       428.137 5        32.125    25450011.802 1 104213519.91801       333.558 1         5.563
G10  23577524.671 4                       904.836 4        29.406                                                                    23577516.490 3                       704.938 3        21.688
G12  22154350.153 7 116421905.80007      5008.122 7        43.500    22154348.195 6  90718370.28406      3902.423 6        38.969    22154349.197 6  90718383.28706      3902.703 6        38.000
G13  24264753.156 6 127512144.06606     -2136.330 6        38.375    24264757.100 3  99360128.17603     -1664.656 3        18.531
G14  24658170.869 5 129579570.87905     -1713.881 5        32.188    24658174.511 1 100971112.14301     -1335.547 1         6.500    24658174.538 4                     -1335.105 4        28.688
G15  22734084.065 6 119468392.65006     -1803.496 6        37.313    22734086.564 4  93092278.92004     -1405.321 4        26.344    22734087.818 5  93092243.92605     -1404.744 5        35.125
G17  22318197.666 6 117282938.35306       434.886 6        40.125    22318201.781 5  91389292.50605       338.866 5        30.906    22318200.697 6  91389298.50506       338.961 6        36.438
G19  21452112.013 7 112731612.37407      2798.593 7        43.281    21452110.129 4  87842806.39404      2180.728 4        28.875
G22  23180766.072 5                     -1177.764 5        30.688
G23  24112937.592 3                     -1005.120 3        19.281                                                                    24112924.058 5  98738390.73805      -780.757 5        34.375
G24  20011930.492 8 105163397.89708      1715.313 8        48.563    20011933.038 8  81945507.67608      1336.608 8        53.406    20011933.329 8  81945507.67508      1336.578 8        48.688
G32  24624551.195 4 129402909.19504      5122.000 4        29.938                                                                    24624553.004 3                      3991.536 3        22.781
> 2024 02 29 08 20 13.0000000  0 13
G01                                                                                                                                  23942731.593 5  98041480.02505      1592.505 5        33.156
G02  25449933.582 5 133740299.96805       427.588 5        33.750    25449930.427 1 104213186.64501       333.183 1         5.000
G10  23577350.220 4                       904.675 4        27.313                                                                    23577342.879 3                       706.744 3        21.781
G12  22153397.117 7 116416897.77007      5007.971 7        44.063    22153395.162 6  90714467.92806      3902.316 6        38.500    22153395.968 6  90714480.96106      3902.220 6        37.719
G13  24265159.872 6 127514280.24406     -2135.790 6        40.000    24265163.548 3  99361792.72203     -1664.246 3        18.031
G14  24658496.614 5 129581284.11605     -1712.407 5        31.125    24658500.577 1 100972447.14201     -1334.336 1         7.375    24658500.774 4                     -1334.593 4        28.656
G15  22734426.844 6 119470195.83906     -1803.008 6        37.844    22734429.743 4  93093683.99504     -1404.942 4        26.406    22734430.695 5  93093649.07105     -1405.223 5        32.250
G17  22318114.881 6 117282503.62006       435.038 6        39.438    22318119.038 5  91388953.74705       338.994 5        30.813    22318117.915 6  91388959.81506       338.620 6        37.719
G19  21451579.604 7 112728814.12607      2798.229 7        42.906    21451577.684 4  87840625.94204      2180.434 4        28.844
G22  23180990.011 4                     -1177.355 4        29.188
G23  24113126.254 3                     -1002.625 3        23.063                                                                    24113114.816 5  98739171.53705      -780.733 5        34.563
G24  20011604.226 8 105161682.96508      1714.763 8        48.906    20011606.690 8  81944171.36408      1336.189 8        53.438    20011606.999 8  81944171.35808      1336.076 8        48.844
G32  24623576.140 5 129397787.35605      5121.867 5        32.094                                                                    24623578.565 4                      3991.115 4        26.188
> 2024 02 29 08 20 14.0000000  0 13
G01                                                                                                                                  23942342.917 5  98039887.97005      1592.426 5        33.250
G02  25449852.674 5 133739872.74205       427.735 5        33.281    25449849.165 1 104212853.73701       333.329 1         5.688
G10                                                                                                                                  23577174.089 4                       704.200 4        26.250
G12  22152444.159 7 116411889.90707      5008.361 7        44.406    22152442.125 6  90710565.70006      3902.619 6        38.438    22152443.133 6  90710578.72106      3902.519 6        38.844
G13  24265566.675 6 127516416.38006     -2135.520 6        40.250    24265569.979 3  99363457.24403     -1664.046 3        18.031
G14  24658822.832 4 129582997.25004     -1712.697 4        29.688    24658826.505 1 100973782.05501     -1334.606 1         6.625    24658827.091 4                     -1335.017 4        29.313
G15  22734770.119 6 119471999.16806     -1802.620 6        37.188    22734772.931 4  93095089.19504     -1404.648 4        25.969    22734773.278 5  93095054.19905     -1404.793 5        32.719
G17  22318032.110 6 117282069.35906       434.680 6        39.219    22318036.389 5  91388615.36405       338.715 5        30.781    22318035.525 6  91388621.38006       339.043 6        38.344
G19  21451047.251 7 112726016.40007      2797.938 7        42.406    21451045.346 4  87838445.89404      2180.208 4        28.750
G22  23181213.405 4                     -1178.178 4        29.531
G23  24113317.005 3                      -998.415 3        21.563                                                                    24113304.976 5  98739952.55305      -780.474 5        34.781
G24  20011277.970 8 105159968.44008      1714.881 8        48.656    20011280.422 8  81942835.36808      1336.275 8        53.375    20011280.728 8  81942835.35908      1336.264 8        49.094
G32  24622601.590 5 129392665.82905      5122.113 5        33.063                                                                    24622605.469 4                      3991.003 4        26.031
> 2024 02 29 08 20 15.0000000  0 13
G01                                                                                                                                  23941954.610 5  98038296.34005      1591.652 5        33.438
G02  25449770.899 5 133739445.79605       426.708 5        33.875    25449767.933 1 104212521.07601       332.428 1         5.563
G10  23577004.456 4                       902.874 4        27.125                                                                    23577003.984 4                       702.923 4        25.344
G12  22151491.130 7 116406882.28807      5008.031 7        44.719    22151489.191 6  90706663.65506      3902.375 6        38.594    22151490.364 6  90706676.64806      3902.264 6        38.094
G13  24265973.408 6 127518552.48806     -2136.052 6        38.844    24265976.382 2  99365121.74402     -1664.464 2        17.781
G14                                                                                                                                  24659154.083 4                     -1335.062 4        27.375
G15  22735113.398 5 119473802.59705     -1803.353 5        35.531    22735116.093 4  93096494.45704     -1405.206 4        25.844    22735116.827 5  93096459.47405     -1405.186 5        33.781
G17  22317949.849 6 117281635.51806       433.895 6        37.656    22317953.874 5  91388277.30805       338.098 5        30.844    22317953.371 6  91388283.34206       338.090 6        38.219
G19  21450514.960 7 112723219.21507      2797.206 7        42.500    21450513.089 4  87836266.26604      2179.630 4        28.531
G22  23181437.017 4                     -1178.086 4        29.250
G23  24113506.785 3                     -1001.636 3        21.563                                                                    24113495.117 5  98740733.71405      -780.722 5        32.563
G24  20010951.791 8 105158254.37808      1714.151 8        48.219    20010954.249 8  81941499.73408      1335.695 8        53.313    20010954.517 8  81941499.70808      1335.677 8        49.125
G32  24621627.139 5 129387544.23105      5121.759 5        31.406                                                                    24621632.099 4                      3990.476 4        24.688
> 2024 02 29 08 20 16.0000000  0 13
G01                                                                                                                                  23941565.927 5  98036705.55405      1590.457 5        31.813
G02  25449690.031 5 133739019.76705       425.332 5        33.250    25449686.885 1 104212189.08901       331.409 1         5.563
G10                                                                                                                                  23576832.873 3                       703.086 3        20.594
G12  22150538.625 7 116401875.30407      5006.641 7        43.594    22150536.365 6  90702762.10206      3901.281 6        38.563    22150537.614 6  90702775.09006      3901.479 6        38.906
G13  24266380.030 6 127520688.88406     -2136.620 6        39.094    24266382.759 2  99366786.44902     -1664.917 2        17.750
G14  24659472.434 4 129586423.98904     -1714.946 4        26.969    24659478.678 1 100976452.23401     -1336.325 1         5.563    24659480.077 4                     -1335.041 4        24.656
G15  22735456.390 5 119475606.60305     -1804.231 5        34.688    22735459.406 4  93097900.17104     -1405.890 4        25.281    22735459.585 5  93097865.14305     -1405.802 5        31.344
G17  22317867.375 6 117281202.51706       432.573 6        39.094    22317871.520 5  91387939.90305       337.060 5        30.875    22317871.105 6  91387945.95306       337.088 6        39.563
G19  21449982.661 7 112720423.05107      2795.683 7        42.531    21449981.011 4  87834087.43604      2178.453 4        28.625
G22  23181661.828 4                     -1177.846 4        24.969
G23  24113695.970 4                     -1002.341 4        24.031                                                                    24113686.038 5  98741515.42105      -782.141 5        32.750
G24  20010625.770 8 105156541.20708      1712.650 8        48.188    20010628.245 8  81940164.79008      1334.541 8        53.344    20010628.519 8  81940164.76908      1334.616 8        49.531
G32  24620654.373 5 129382423.38405      5120.099 5        30.500                                                                    24620656.145 4                      3990.988 4        24.375
> 2024 02 29 08 20 17.0000000  0 13
G01                                                                                                                                  23941176.807 5  98035115.59105      1589.469 5        32.688
G02  25449609.604 5 133738594.47405       424.828 5        31.313    25449606.038 1 104211857.71501       331.077 1         6.125
G10                                                                                                                                  23576661.954 4                       702.026 4        28.188
G12  22149585.747 7 116396868.88007      5006.259 7        45.063    22149583.632 6  90698860.98606      3900.965 6        38.469    22149585.150 6  90698874.04706      3900.979 6        38.719
G13  24266786.640 6 127522825.69606     -2137.187 6        38.063    24266789.274 2  99368451.50302     -1665.332 2        17.938
G14  24659798.723 4 129588137.72604     -1713.029 4        25.438    24659804.896 1 100977787.69501     -1334.948 1         4.000    24659805.683 4                     -1335.519 4        29.125
G15  22735799.263 6 119477411.23206     -1804.750 6        38.375    22735802.760 4  93099306.35804     -1406.267 4        25.313    22735802.935 5  93099271.34705     -1406.407 5        32.719
G17  22317784.944 6 117280770.47806       431.836 6        38.813    22317789.363 5  91387603.26105       336.492 5        31.094    22317788.935 6  91387609.23806       336.341 6        39.281
G19  21449450.655 7 112717627.81707      2795.004 7        42.031    21449449.111 4  87831909.33304      2177.924 4        28.469
G22  23181886.039 5                     -1179.103 5        30.188
G23                                                                                                                                  24113877.544 5  98742297.57505      -782.705 5        32.469
G24  20010299.809 8 105154828.86508      1711.791 8        48.375    20010302.403 8  81938830.49108      1333.864 8        53.313    20010302.675 8  81938830.50108      1333.946 8        48.938
G32  24619680.825 5 129377302.92605      5120.025 5        32.031                                                                    24619681.757 4                      3989.522 4        24.063
> 2024 02 29 08 20 18.0000000  0 13
G01                                                                                                                                  23940788.806 5  98033526.28005      1588.681 5        30.625
G02  25449528.776 5 133738169.85405       424.651 5        30.750    25449525.290 1 104211526.88201       330.907 1         5.563
G10                                                                                                                                  23576490.346 4                       701.724 4        27.469
G12  22148633.092 7 116391863.01407      5005.859 7        44.969    22148631.029 6  90694960.32206      3900.657 6        39.063    22148632.743 6  90694973.36206      3900.351 6        39.375
G13  24267193.341 6 127524962.82406     -2137.036 6        37.469    24267195.860 2  99370116.81502     -1665.211 2        17.188
G14  24660124.289 4 129589851.89104     -1714.208 4        24.938    24660131.078 1 100979123.42601     -1335.746 1         4.281    24660132.845 5                     -1335.867 5        30.000
G15  22736142.875 6 119479216.22206     -1804.942 6        38.063    22736146.162 4  93100712.83204     -1406.447 4        25.969    22736145.777 5  93100677.83605     -1406.543 5        35.063
G17  22317702.902 6 117280339.10206       430.967 6        38.531    22317707.331 5  91387267.12105       335.800 5        30.906    22317706.700 6  91387273.09006       335.915 6        37.938
G19  21448918.796 7 112714833.47007      2794.052 7        42.500    21448917.364 4  87829731.92304      2177.173 4        28.313
G22  23182111.615 5                     -1179.420 5        31.688
G23  24114073.863 3                     -1004.471 3        21.531                                                                    24114068.875 5  98743080.05205      -782.972 5        32.625
G24  20009974.023 8 105153117.28108      1711.363 8        48.563    20009976.707 8  81937496.79308      1333.524 8        53.313    20009977.007 8  81937496.81508      1333.470 8        48.781
G32  24618707.317 5 129372182.90605      5120.276 5        33.969                                                                    24618709.711 4                      3989.992 4        24.500
> 2024 02 29 08 20 19.0000000  0 13
G01                                                                                                                                  23940400.079 5  98031937.55905      1588.885 5        31.031
G02  25449447.694 5 133737745.77805       424.021 5        30.969    25449444.595 1 104211196.35901       330.534 1         5.281
G10                                                                                                                                  23576317.326 4                       701.774 4        27.281
G12  22147680.636 7 116386857.52207      5005.763 7        45.063    22147678.546 6  90691059.94106      3900.586 6        39.438    22147680.441 6  90691072.98506      3900.486 6        39.969
G13  24267599.828 6 127527099.96406     -2136.980 6        38.031    24267602.523 2  99371782.11202     -1665.193 2        17.156
G14  24660450.556 4 129591566.11304     -1713.856 4        26.688    24660457.301 1 100980459.11701     -1335.527 1         3.781    24660458.893 5                     -1335.737 5        30.188
G15  22736486.762 6 119481021.54606     -1804.962 6        38.000    22736489.717 4  93102119.57804     -1406.475 4        26.313    22736489.683 5  93102084.59205     -1406.535 5        34.781
G17  22317620.832 6 117279908.34506       430.739 6        38.344    22317625.353 5  91386931.46305       335.650 5        30.844    22317624.618 6  91386937.45806       335.778 6        37.938
G19  21448387.156 7 112712039.79607      2793.603 7        43.156    21448385.697 4  87827555.03604      2176.832 4        28.313
G22  23182336.766 5                     -1179.425 5        32.656
G23  24114266.424 3                     -1004.051 3        23.750                                                                    24114260.302 5  98743862.89605      -782.849 5        33.500
G24  20009648.306 8 105151406.33808      1711.061 8        48.250    20009651.120 8  81936163.59608      1333.290 8        53.125    20009651.392 8  81936163.61008      1333.212 8        48.500
G32  24617733.169 5 129367063.22305      5120.326 5        33.875                                                                    24617737.500 3                      3992.687 3        18.156
> 2024 02 29 08 20 20.0000000  0 13
G01                                                                                                                                  23940012.137 5  98030349.01705      1588.978 5        30.875
G02  25449366.995 5 133737321.73805       423.929 5        30.438    25449363.940 1 104210865.94301       330.224 1         5.281
G10  23576140.118 3                       902.412 3        18.594                                                                    23576144.556 4                       701.301 4        24.719
G12  22146728.075 7 116381851.81907      5006.039 7        45.031    22146726.023 6  90687159.40306      3900.797 6        39.750    22146727.981 6  90687172.43606      3900.622 6        39.625
G13  24268006.282 6 127529236.67706     -2136.414 6        38.281    24268009.003 2  99373447.06902     -1664.761 2        17.594
G14  24660776.900 4 129593279.81304     -1713.557 4        27.969    24660783.390 1 100981794.50101     -1335.127 1         4.406    24660784.825 5                     -1335.086 5        30.875
G15  22736830.601 6 119482826.66206     -1804.797 6        37.594    22736833.267 4  93103526.16304     -1406.328 4        26.500    22736833.471 5  93103491.13005     -1406.156 5        34.594
G17  22317538.597 6 117279477.63006       430.963 6        39.500    22317543.343 5  91386595.83605       335.813 5        30.719    22317542.115 6  91386601.85206       335.739 6        37.875
G19  21447855.397 7 112709246.30607      2793.661 7        42.781    21447854.043 4  87825378.28904      2176.875 4        28.219
G22  23182561.948 5                     -1178.857 5        33.000
G23  24114459.656 4                     -1002.900 4        25.281                                                                    24114451.593 5  98744645.48905      -782.443 5        35.156
G24  20009322.769 8 105149695.46708      1711.089 8        48.281    20009325.536 8  81934830.45208      1333.314 8        53.063    20009325.740 8  81934830.45108      1333.270 8        48.375
G32  24616758.029 5 129361943.18305      5120.202 5        33.844
> 2024 02 29 08 20 21.0000000  0 13
G01                                                                                                                                  23939623.758 5  98028761.35405      1586.916 5        30.156
G02  25449286.339 5 133736898.54005       422.609 5        31.344    25449283.446 1 104210536.22201       329.349 1         4.563
G10  23575970.335 3                       898.969 3        19.813                                                                    23575972.783 3                       700.354 3        23.750
G12  22145775.586 7 116376846.88407      5004.441 7        45.250    22145773.622 6  90683259.46306      3899.563 6        39.969    22145775.809 6  90683272.46206      3899.669 6        40.250
G13  24268412.984 6 127531373.87006     -2137.275 6        38.500    24268415.576 2  99375112.41802     -1665.421 2        17.656
G14  24661102.787 4 129594993.96004     -1714.119 4        26.531    24661109.613 1 100983130.14701     -1335.630 1         4.281    24661111.902 5                     -1335.549 5        31.625
G15  22737174.133 6 119484632.45306     -1806.471 6        38.063    22737176.943 4  93104933.26604     -1407.637 4        26.719    22737177.530 5  93104898.18105     -1406.955 5        34.313
G17  22317456.971 6 117279047.89306       429.470 6        39.094    22317461.517 5  91386260.97405       334.659 5        30.844    22317460.187 6  91386266.99506       334.407 6        37.688
G19  21447324.059 7 112706453.87607      2791.773 7        42.906    21447322.595 4  87823202.37204      2175.408 4        28.156
G22  23182786.897 5                     -1179.460 5        33.281
G23  24114653.090 4                     -1005.699 4        25.438                                                                    24114642.880 5  98745428.68005      -783.555 5        34.906
G24  20008997.395 8 105147985.55308      1709.341 8        48.469    20009000.136 8  81933498.05308      1331.953 8        52.969    20009000.207 8  81933498.03008      1332.006 8        48.563
G32  24615783.658 5 129356823.75705      5118.768 5        34.813
> 2024 02 29 08 20 22.0000000  0 13
G01                                                                                                                                  23939236.204 5  98027174.05105      1586.897 5        30.094
G02  25449204.866 5 133736475.80905       422.181 5        32.156    25449203.029 1 104210206.89101       328.889 1         3.781
G10  23575797.038 3                       900.279 3        21.469
G12  22144823.414 7 116371842.13707      5004.133 7        44.063    22144821.278 6  90679359.65806      3899.325 6        39.938    22144823.408 6  90679372.65206      3899.557 6        39.094
G13  24268819.768 6 127533511.06906     -2137.647 6        39.063    24268822.261 2  99376777.76502     -1665.714 2        17.844
G14  24661429.591 4 129596708.13404     -1714.083 4        26.750    24661435.826 1 100984465.80201     -1335.511 1         4.281    24661439.118 5                     -1335.539 5        31.938
G15  22737517.901 6 119486438.36606     -1806.589 6        37.406    22737520.654 4  93106340.44804     -1407.685 4        26.375    22737521.325 5  93106305.40105     -1407.743 5        33.750
G17  22317375.357 6 117278618.57606       428.622 6        40.344    22317379.789 5  91385926.43805       333.992 5        30.938    22317378.061 6  91385932.49006       333.868 6        37.938
G19  21446792.773 7 112703662.02207      2791.117 7        42.844    21446791.290 4  87821026.90704      2174.902 4        28.250
G22  23183010.089 4                     -1180.041 4        29.438
G23                                                                                                                                  24114834.885 5  98746212.04705      -783.954 5        35.438
G24  20008672.049 8 105146276.11108      1708.807 8        48.781    20008674.830 8  81932166.01808      1331.545 8        52.969    20008674.948 8  81932166.00408      1331.418 8        49.031
G32  24614810.003 5 129351704.43305      5118.848 5        34.313                                                                    24614813.622 4                      3989.216 4        25.250
> 2024 02 29 08 20 23.0000000  0 13
G01                                                                                                                                  23938847.770 5  98025587.35905      1586.180 5        30.094
G02  25449124.517 5 133736053.35205       421.992 5        31.313    25449122.638 1 104209877.68101       329.023 1         4.406
G10  23575630.018 4                       898.177 4        27.031                                                                    23575633.821 4                       699.878 4        27.688
G12  22143870.865 7 116366837.57107      5004.048 7        44.625    22143868.916 6  90675459.99906      3899.254 6        39.750    22143870.878 6  90675473.02306      3899.446 6        39.219
G13  24269227.011 6 127535648.19706     -2137.453 6        38.406    24269228.902 2  99378443.04602     -1665.526 2        17.844
G14  24661756.297 4 129598422.14304     -1713.490 4        27.719    24661762.004 1 100985801.34001     -1335.137 1         4.688    24661765.640 5                     -1335.504 5        32.031
G15  22737861.601 6 119488244.34906     -1806.365 6        37.719    22737864.379 4  93107747.69404     -1407.529 4        26.188    22737865.095 5  93107712.72505     -1407.932 5        33.594
G17  22317293.874 6 117278189.76106       428.152 6        38.875    22317298.160 5  91385592.30205       333.621 5        31.094    22317296.232 6  91385598.30706       333.629 6        38.469
G19  21446261.610 7 112700870.66707      2790.672 7        42.844    21446260.111 4  87818851.82404      2174.551 4        28.156
G22  23183233.129 4                     -1179.043 4        29.500
G23                                                                                                                                  24115026.328 5  98746995.58405      -784.389 5        35.531
G24  20008346.882 8 105144567.08508      1708.433 8        48.531    20008349.614 8  81930834.30908      1331.243 8        53.094    20008349.721 8  81930834.30108      1331.226 8        48.813
G32  24613836.007 5 129346585.29905      5118.867 5        35.938                                                                    24613837.355 3                      3986.054 3        19.625
> 2024 02 29 08 20 24.0000000  0 13
G01                                                                                                                                  23938460.276 5  98024000.75105      1585.868 5        30.000
G02  25449044.167 5 133735630.83105       422.149 5        30.219    25449042.220 1 104209548.38301       329.030 1         4.125
G10                                                                                                                                  23575461.077 4                       700.170 4        27.844
G12  22142918.374 7 116361832.78807      5004.429 7        45.188    22142916.532 6  90671560.17206      3899.547 6        39.750    22142918.362 6  90671573.19506      3899.790 6        40.063
G13  24269633.925 6 127537784.76906     -2136.559 6        38.531    24269635.529 2  99380107.89502     -1664.849 2        17.906
G14                                                                                                                                  24662092.104 5                     -1335.082 5        32.594
G15  22738205.270 6 119490050.09506     -1806.175 6        38.031    22738208.036 4  93109154.77104     -1407.426 4        26.250    22738208.727 5  93109119.77605     -1407.141 5        34.313
G17  22317212.304 6 117277760.89006       428.403 6        39.313    22317216.539 5  91385258.10605       333.817 5        31.125    22317214.642 6  91385264.11606       333.799 6        38.438
G19  21445730.405 7 112698079.45207      2790.731 7        43.375    21445728.954 4  87816676.85004      2174.589 4        28.031
G22  23183457.962 5                     -1179.638 5        33.156
G23                                                                                                                                  24115217.471 5  98747778.93105      -784.224 5        35.813
G24  20008021.681 8 105142858.07908      1708.607 8        48.406    20008024.397 8  81929502.61508      1331.381 8        53.031    20008024.639 8  81929502.60608      1331.406 8        48.750
G32  24612861.332 5 129341465.84105      5119.396 5        33.875
> 2024 02 29 08 20 25.0000000  0 13
G01                                                                                                                                  23938072.292 5  98022414.91405      1585.301 5        30.844
G02  25448964.219 5 133735209.22805       420.995 5        30.094    25448961.977 1 104209219.77601       328.138 1         4.688
G10                                                                                                                                  23575289.644 4                       699.660 4        26.219
G12  22141966.119 7 116356828.63807      5004.107 7        45.219    22141964.300 6  90667660.83506      3899.295 6        40.000    22141966.266 6  90667673.85106      3899.214 6        40.094
G13  24270040.935 6 127539921.77106     -2136.724 6        38.125    24270042.218 2  99381773.09402     -1664.980 2        17.906
G14  24662408.953 4 129601849.60004     -1713.032 4        25.000    24662414.217 1 100988472.12201     -1334.869 1         6.125    24662418.515 5                     -1335.270 5        32.281
G15  22738549.260 6 119491856.37506     -1806.276 6        38.875    22738551.779 4  93110562.26904     -1407.486 4        26.625    22738552.614 5  93110527.25705     -1407.362 5        33.875
G17  22317131.066 6 117277332.88706       427.984 6        38.875    22317135.106 5  91384924.59705       333.495 5        31.344    22317133.265 6  91384930.63106       333.552 6        38.906
G19  21445199.474 7 112695289.17207      2790.126 7        43.688    21445197.962 4  87814502.60804      2174.126 4        27.906
G22  23183685.602 5 121831085.39015     -1179.347 5        33.625
G23                                                                                                                                  24115409.775 5  98748562.72905      -783.558 5        34.688
G24  20007696.592 8 105141149.95308      1707.886 8        48.281    20007699.350 8  81928171.61008      1330.820 8        52.906    20007699.742 8  81928171.60808      1330.805 8        48.688
G32  24611886.876 5 129336346.87105      5118.889 5        34.375
> 2024 02 29 08 20 26.0000000  0 13
G01                                                                                                                                  23937685.425 5  98020829.81105      1583.973 5        31.156
G02  25448883.025 5 133734788.32905       419.719 5        30.719    25448881.917 1 104208891.83401       327.010 1         4.406
G10                                                                                                                                  23575118.019 4                       698.325 4        24.375
G12  22141013.992 7 116351825.11507      5002.709 7        45.000    22141012.166 6  90663761.98706      3898.215 6        40.156    22141014.051 6  90663775.00506      3898.279 6        40.219
G13  24270447.853 6 127542059.10006     -2138.066 6        37.500    24270448.890 2  99383438.54202     -1666.034 2        17.875
G14  24662734.827 4 129603563.84904     -1715.076 4        26.375    24662740.409 1 100989807.94001     -1336.373 1         6.250    24662745.556 5                     -1335.914 5        33.313
G15  22738893.348 6 119493663.22806     -1807.309 6        38.625    22738895.651 4  93111970.19804     -1408.281 4        26.656    22738896.412 5  93111935.21805     -1408.625 5        33.719
G17  22317049.693 6 117276905.78506       426.205 6        39.094    22317053.853 5  91384591.78405       332.114 5        31.469    22317052.258 6  91384597.80206       332.022 6        39.063
G19  21444668.747 7 112692499.90407      2788.303 7        43.406    21444667.189 4  87812329.15204      2172.710 4        28.000
G22  23183910.155 5 121832265.55305     -1181.040 5        33.625
G23                                                                                                                                  24115601.099 5  98749347.01405      -784.910 5        35.281
G24  20007371.709 8 105139442.70808      1706.259 8        48.406    20007374.465 8  81926841.28908      1329.552 8        52.875    20007374.866 8  81926841.28708      1329.536 8        48.625
G32  24610912.287 5 129331228.42905      5117.992 5        34.344
> 2024 02 29 08 20 27.0000000  0 13
G01                                                                                                                                  23937298.087 5  98019245.15805      1584.832 5        30.719
G02  25448803.618 4 133734367.62804       421.616 4        28.219    25448801.830 1 104208563.97201       328.687 1         5.281
G10  23574947.917 3                       894.969 3        21.375                                                                    23574948.048 4                       698.137 4        25.188
G12  22140061.895 7 116346821.67607      5003.953 7        44.719    22140060.051 6  90659863.20706      3899.189 6        40.188    22140062.073 6  90659876.23006      3899.186 6        40.281
G13  24270854.696 6 127544196.26106     -2136.555 6        37.031    24270855.638 2  99385103.84402     -1664.808 2        17.656
G14  24663060.723 4 129605277.88004     -1713.748 4        28.531    24663066.533 1 100991143.53401     -1335.338 1         5.563    24663072.530 5                     -1335.802 5        32.844
G15  22739237.579 6 119495470.11206     -1806.183 6        37.938    22739239.532 4  93113378.14804     -1407.409 4        26.813    22739239.834 5  93113343.18705     -1407.915 5        34.500
G17  22316968.178 6 117276478.97006       427.348 6        39.219    22316972.679 5  91384259.20005       332.991 5        31.500    22316971.245 6  91384265.23906       332.933 6        39.000
G19  21444138.310 7 112689711.05507      2789.083 7        43.625    21444136.484 4  87810156.02304      2173.306 4        28.031
G22  23184133.961 5 121833445.66205     -1179.568 5        33.563
G23                                                                                                                                  24115792.277 5  98750131.35505      -783.799 5        34.938
G24  20007046.851 8 105137735.79508      1707.256 8        48.469    20007049.646 8  81925511.22908      1330.329 8        52.781    20007050.013 8  81925511.22308      1330.358 8        48.625
G32  24609938.161 5 129326110.04805      5119.211 5        34.219
> 2024 02 29 08 20 28.0000000  0 13
G01                                                                                                                                  23936911.938 5  98017661.20705      1582.519 5        30.594
G02  25448724.837 4 133733947.74004       418.466 4        28.031    25448721.873 1 104208236.66501       326.009 1         3.188
G10  23574778.102 3                       896.078 3        22.563                                                                    23574778.699 4                       697.741 4        25.781
G12  22139109.872 7 116341818.80907      5001.897 7        45.156    22139108.056 6  90655964.87206      3897.581 6        40.125    22139110.223 6  90655977.87306      3897.663 6        40.188
G13  24271261.809 6 127546333.77206     -2138.528 6        38.156    24271262.403 2  99386769.42802     -1666.406 2        17.188
G14  24663388.131 4 129606992.28604     -1715.347 4        28.750    24663392.716 1 100992479.42701     -1336.505 1         4.844    24663398.954 5                     -1335.707 5        32.125
G15  22739581.483 6 119497277.52006     -1808.451 6        38.250    22739583.530 4  93114786.52204     -1409.191 4        27.000    22739584.132 5  93114751.52505     -1409.248 5        35.906
G17  22316887.210 6 117276052.97506       424.939 6        38.656    22316891.622 5  91383927.25605       331.129 5        31.531    22316890.444 6  91383933.31806       331.035 6        38.750
G19  21443607.912 7 112686923.12207      2786.775 7        43.250    21443605.935 4  87807983.60804      2171.518 4        28.000
G22  23184357.930 5 121834626.16405     -1181.728 5        33.563
G23                                                                                                                                  24115983.234 5  98750916.20605      -785.660 5        33.250
G24  20006722.193 8 105136029.68308      1704.911 8        48.313    20006724.979 8  81924181.79208      1328.502 8        52.656    20006725.313 8  81924181.78908      1328.459 8        48.781
G32  24608963.447 5 129320992.10705      5116.415 5        34.063
> 2024 02 29 08 20 29.0000000  0 13
G01                                                                                                                                  23936526.082 5  98016078.11305      1582.771 5        30.219
G02  25448645.411 5 133733528.79205       418.650 5        31.375    25448642.184 1 104207910.36001       326.170 1         2.594
G10  23574608.011 4                       893.541 4        24.656                                                                    23574607.297 3                       696.923 3        23.656
G12  22138158.049 7 116336816.65907      5002.173 7        44.656    22138156.190 6  90652067.09206      3897.797 6        40.281    22138158.309 6  90652080.11706      3897.655 6        40.281
G13  24271668.641 6 127548471.73306     -2137.690 6        38.156    24271669.173 2  99388435.36302     -1665.711 2        17.656
G14  24663714.492 4 129608706.99404     -1714.382 4        28.719    24663719.041 1 100993815.54001     -1335.882 1         4.563    24663725.342 5                     -1336.336 5        31.281
G15  22739925.304 6 119499085.54806     -1807.805 6        38.594    22739927.684 4  93116195.37404     -1408.680 4        27.063    22739928.076 5  93116160.38905     -1408.693 5        35.219
G17  22316806.574 6 117275627.97406       425.207 6        37.938    22316810.739 5  91383596.09205       331.335 5        31.563    22316809.673 6  91383602.12506       330.974 6        38.563
G19  21443077.595 7 112684136.25207      2786.798 7        43.656    21443075.578 4  87805812.02104      2171.533 4        28.094
G22  23184582.298 5 121835807.23005     -1180.871 5        34.188    23184582.814 1                      -920.253 1        10.875
G23                                                                                                                                  24116173.893 5  98751701.61305      -785.461 5        34.344
G24  20006397.679 8 105134324.55008      1705.102 8        48.406    20006400.505 8  81922853.11708      1328.654 8        52.656    20006400.926 8  81922853.11108      1328.617 8        48.500
G32  24607989.502 5 129315874.73905      5117.508 5        33.438
> 2024 02 29 08 20 30.0000000  0 13
G01                                                                                                                                  23936139.971 5  98014495.39805      1582.224 5        30.063
G02  25448564.620 5 133733110.02505       418.555 5        32.156    25448562.531 1 104207584.06201       326.040 1         2.375
G10  23574438.559 5                       893.782 5        30.219                                                                    23574434.827 4                       696.260 4        27.063
G12  22137206.182 7 116331814.62807      5001.713 7        45.219    22137204.361 6  90648169.40806      3897.442 6        40.438    22137206.392 6  90648182.41306      3897.429 6        40.625
G13  24272075.186 6 127550609.53306     -2138.145 6        36.813    24272076.046 2  99390101.18302     -1666.090 2        17.781
G14  24664040.670 4 129610421.61404     -1714.338 4        27.813    24664045.358 1 100995151.60701     -1335.882 1         5.688    24664051.538 5                     -1336.181 5        31.000
G15  22740269.463 6 119500893.64706     -1808.475 6        39.625    22740271.829 4  93117604.27804     -1409.193 4        27.625    22740272.292 5  93117569.27805     -1409.237 5        35.438
G17  22316725.835 6 117275203.25606       424.081 6        36.906    22316729.901 5  91383265.14405       330.441 5        31.406    22316729.114 6  91383271.16606       330.755 6        38.531
G19  21442547.403 7 112681349.80107      2785.979 7        43.781    21442545.328 4  87803640.76104      2170.890 4        28.313
G22  23184806.753 5 121836988.19505     -1181.420 5        34.750    23184807.549 1  94937910.55011      -920.565 1        10.563
G23                                                                                                                                  24116365.472 5  98752487.04805      -785.703 5        31.594
G24  20006073.318 8 105132619.74508      1704.279 8        48.250    20006076.089 8  81921524.69708      1328.008 8        52.625    20006076.460 8  81921524.69308      1328.001 8        48.375
G32  24607015.759 5 129310757.37905      5117.416 5        34.219
> 2024 02 29 08 20 31.0000000  0 13
G01                                                                                                                                  23935753.686 5  98012913.33205      1581.399 5        30.031
G02  25448485.402 5 133732691.97905       417.409 5        30.750    25448483.053 1 104207258.38301       325.205 1         3.594
G10  23574268.489 4                       893.656 4        27.406                                                                    23574264.270 4                       696.027 4        25.625
G12  22136254.546 7 116326813.04907      5000.821 7        44.656    22136252.603 6  90644272.07206      3896.756 6        40.531    22136254.440 6  90644285.08406      3896.687 6        40.219
G13  24272482.273 6 127552747.51306     -2138.635 6        38.313    24272482.825 2  99391767.14002     -1666.468 2        17.563
G14  24664362.922 3                     -1714.726 3        23.813                                                                    24664378.114 5                     -1336.322 5        32.188
G15  22740613.714 6 119502702.13506     -1809.196 6        39.406    22740616.054 4  93119013.48104     -1409.760 4        28.156    22740616.597 6  93118978.46506     -1409.781 6        36.563
G17  22316645.184 6 117274779.24606       423.096 6        38.469    22316649.211 5  91382934.75205       329.677 5        31.125    22316648.363 6  91382940.80506       329.595 6        38.438
G19  21442017.424 7 112678564.17407      2784.851 7        43.313    21442015.240 4  87801470.14704      2170.001 4        28.313
G22  23185031.157 6 121838169.48906     -1181.976 6        36.000    23185032.351 1  94938831.03501      -921.015 1        10.813
G23                                                                                                                                  24116556.759 5  98753272.85705      -786.533 5        31.563
G24  20005749.112 8 105130915.65008      1703.177 8        48.469    20005751.798 8  81920196.83008      1327.148 8        52.625    20005752.083 8  81920196.82708      1327.116 8        48.531
G32  24606042.962 5 129305640.45505      5116.169 5        34.719
> 2024 02 29 08 20 32.0000000  0 13
G01                                                                                                                                  23935367.148 4  98011331.83504      1582.011 4        29.750
G02  25448405.764 4 133732274.40104       417.468 4        29.938    25448403.596 1 104206933.01901       325.268 1         3.000
G10  23574099.247 4                       892.067 4        28.500                                                                    23574096.289 4                       695.350 4        26.188
G12  22135302.925 7 116321811.81507      5001.262 7        44.594    22135300.907 6  90640375.00606      3897.090 6        40.563    22135302.653 6  90640388.00906      3897.013 6        39.875
G13  24272888.948 6 127554885.59506     -2137.729 6        38.656    24272889.618 2  99393433.19402     -1665.767 2        17.656
G14  24664688.309 4                     -1715.218 4        26.219                                                                    24664703.670 4                     -1336.646 4        29.531
G15  22740958.178 6 119504510.92206     -1808.640 6        39.406    22740960.401 4  93120422.92304     -1409.333 4        28.500    22740960.945 6  93120387.89606     -1409.209 6        37.094
G17  22316564.457 6 117274355.84506       423.259 6        38.844    22316568.659 5  91382604.82805       329.811 5        31.094    22316568.028 6  91382610.87606       329.732 6        38.813
G19  21441487.572 7 112675779.24607      2784.768 7        43.375    21441485.245 4  87799300.07104      2169.946 4        28.188
G22  23185256.153 5 121839350.98705     -1181.341 5        35.750    23185256.884 1  94939751.66801      -920.552 1        10.813
G23                                                                                                                                  24116747.963 5  98754058.87905      -785.661 5        31.375
G24  20005425.015 8 105129212.16108      1703.500 8        48.344    20005427.623 8  81918869.43408      1327.403 8        52.594    20005427.902 8  81918869.43208      1327.346 8        48.469
G32  24605069.753 5 129300523.80105      5116.774 5        32.500
> 2024 02 29 08 20 33.0000000  0 13
G01                                                                                                                                  23934980.705 5  98009751.09305      1580.060 5        31.188
G02  25448326.878 4 133731857.60004       416.561 4        29.688    25448324.283 1 104206608.32801       324.312 1         1.750
G10  23573929.290 4                       890.924 4        27.563                                                                    23573926.712 4                       695.245 4        26.031
G12  22134351.289 7 116316811.11607      5000.379 7        45.125    22134349.310 6  90636478.35406      3896.402 6        40.438    22134350.873 6  90636491.37706      3896.466 6        39.125
G13  24273295.752 6 127557023.95606     -2138.312 6        38.469    24273296.513 2  99395099.43102     -1666.174 2        17.563
G14  24665015.122 4                     -1715.741 4        25.094                                                                    24665028.386 4                     -1336.460 4        28.656
G15  22741302.084 6 119506320.14306     -1809.597 6        38.125    22741304.841 4  93121832.70404     -1410.082 4        28.313    22741305.748 6  93121797.72306     -1410.099 6        36.563
G17  22316484.380 6 117273933.21206       422.265 6        38.844    22316488.251 5  91382275.50605       329.039 5        31.063    22316487.256 6  91382281.52206       329.024 6        38.281
G19  21440957.816 7 112672995.19707      2783.565 7        43.531    21440955.412 4  87797130.68504      2169.015 4        28.156
G22  23185481.327 6 121840532.81906     -1182.095 6        36.344    23185481.682 1  94940672.57201      -921.105 1        10.656
G23                                                                                                                                  24116940.321 5  98754845.36505      -786.978 5        31.281
G24  20005101.055 8 105127509.46008      1702.402 8        48.188    20005103.596 8  81917542.65508      1326.548 8        52.594    20005103.846 8  81917542.64208      1326.510 8        48.250
G32  24604096.022 5 129295407.55405      5116.280 5        31.438
> 2024 02 29 08 20 34.0000000  0 13
G01                                                                                                                                  23934595.034 5  98008170.73605      1579.956 5        31.219
G02  25448248.638 5 133731441.03405       416.161 5        30.438    25448244.997 1 104206283.69201       324.389 1         2.375
G10  23573760.290 4                       890.943 4        24.125                                                                    23573756.853 4                       694.531 4        26.438
G12  22133399.717 7 116311810.53107      5000.197 7        45.156    22133397.704 6  90632581.79306      3896.253 6        40.250    22133399.298 6  90632594.81006      3896.261 6        38.844
G13  24273702.620 6 127559162.18506     -2138.320 6        38.094    24273703.377 2  99396765.57402     -1666.247 2        17.531
G14  24665340.857 4                     -1715.338 4        26.750                                                                    24665354.086 4                     -1336.588 4        28.625
G15  22741646.183 6 119508129.42706     -1809.791 6        37.781    22741649.276 4  93123242.53704     -1410.232 4        28.313    22741650.365 6  93123207.52206     -1409.985 6        37.469
G17  22316404.218 6 117273510.93006       421.764 6        38.906    22316407.864 5  91381946.45405       328.638 5        31.094    22316406.474 6  91381952.46506       328.737 6        37.719
G19  21440427.939 7 112670211.59307      2783.034 7        43.406    21440425.694 4  87794961.64204      2168.589 4        28.219
G22  23185706.683 5 121841714.67805     -1182.217 5        35.750    23185706.475 1  94941593.51701      -921.238 1        10.656
G23                                                                                                                                  24117131.782 5  98755631.79205      -786.818 5        31.906
G24  20004777.115 8 105125807.11208      1701.721 8        48.563    20004779.627 8  81916216.14708      1326.017 8        52.563    20004779.752 8  81916216.13008      1326.090 8        48.563
G32  24603122.347 5 129290291.34905      5116.192 5        33.063
> 2024 02 29 08 20 35.0000000  0 13
G01                                                                                                                                  23934209.617 5  98006591.16605      1579.007 5        31.375
G02  25448169.740 5 133731025.23805       414.790 5        30.938    25448165.831 1 104205959.65901       323.321 1         3.188
G10  23573592.358 4                       889.862 4        25.781                                                                    23573588.907 4                       693.990 4        25.969
G12  22132448.193 7 116306810.56307      4999.457 7        46.063    22132446.205 6  90628685.71306      3895.685 6        40.156    22132447.942 6  90628698.71506      3895.662 6        39.344
G13  24274109.633 6 127561300.71106     -2138.861 6        39.031    24274110.272 2  99398431.95802     -1666.641 2        17.594
G14  24665666.320 4                     -1716.218 4        26.313                                                                    24665680.988 4                     -1336.734 4        28.281
G15  22741990.213 6 119509939.22806     -1810.313 6        38.250    22741993.819 4  93124652.76404     -1410.627 4        28.344    22741995.421 6  93124617.80006     -1410.762 6        37.156
G17  22316324.046 6 117273089.48206       420.615 6        39.313    22316327.607 5  91381618.05005       327.757 5        31.031    22316326.150 6  91381624.07606       327.787 6        37.313
G19  21439898.329 7 112667428.94507      2781.886 7        43.563    21439896.196 4  87792793.34304      2167.707 4        28.219
G22  23185931.612 5 121842896.90805     -1182.959 5        35.281    23185931.344 1  94942514.76501      -921.871 1        10.344
G23                                                                                                                                  24117324.101 5  98756418.89505      -787.158 5        30.563
G24  20004453.308 8 105124105.59408      1700.706 8        48.313    20004455.823 8  81914890.28408      1325.231 8        52.656    20004455.973 8  81914890.27708      1325.320 8        48.688
G32  24602148.511 5 129285175.63505      5114.953 5        32.906
> 2024 02 29 08 20 36.0000000  0 13
G01                                                                                                                                  23933823.468 5  98005012.39205      1578.345 5        31.406
G02  25448090.272 5 133730610.24605       415.234 5        30.531    25448086.786 1 104205636.19301       323.657 1         2.781
G10  23573423.813 4                       889.411 4        25.719                                                                    23573420.090 4                       692.833 4        26.125
G12  22131496.887 7 116301811.19607      4999.413 7        45.719    22131494.836 6  90624790.10006      3895.642 6        40.250    22131496.864 6  90624803.11606      3895.552 6        39.844
G13  24274516.517 6 127563439.60406     -2138.628 6        39.188    24274517.253 2  99400098.60402     -1666.459 2        17.719
G14  24665992.422 4                     -1714.803 4        24.625                                                                    24666008.436 4                     -1336.573 4        29.656
G15  22742334.560 6 119511749.64306     -1810.125 6        36.969    22742338.461 4  93126063.47504     -1410.473 4        28.125    22742340.049 5  93126028.46605     -1410.562 5        35.719
G17  22316244.202 6 117272668.91406       420.626 6        39.438    22316247.489 5  91381290.33105       327.774 5        31.063    22316245.906 6  91381296.34406       327.587 6        37.813
G19  21439368.789 7 112664647.25507      2781.457 7        43.688    21439366.863 4  87790625.78604      2167.369 4        28.094
G22  23186156.471 5 121844079.62305     -1182.542 5        34.250    23186156.535 1  94943436.35501      -921.427 1        10.875
G23                                                                                                                                  24117516.744 5  98757206.33205      -787.782 5        32.406
G24  20004129.660 8 105122404.95808      1700.623 8        48.344    20004132.194 8  81913565.11508      1325.166 8        52.625    20004132.371 8  81913565.11108      1325.076 8        48.625
G32  24601175.026 5 129280060.44105      5115.457 5        32.531
> 2024 02 29 08 20 37.0000000  0 13
G01                                                                                                                                  23933437.789 5  98003434.36305      1577.679 5        30.594
G02  25448012.186 4 133730195.93904       413.853 4        29.094    25448007.965 1 104205313.36301       322.440 1         3.188
G10  23573255.783 5                       888.618 5        31.938                                                                    23573250.902 4                       692.796 4        27.844
G12  22130545.612 7 116296812.38907      4998.568 7        45.750    22130543.619 6  90620894.92906      3894.985 6        40.344    22130545.680 6  90620907.95706      3894.852 6        40.500
G13  24274923.537 6 127565578.80306     -2139.301 6        38.313    24274924.389 3  99401765.49903     -1666.975 3        18.000
G14  24666318.640 4                     -1716.018 4        26.031                                                                    24666334.721 4                     -1337.273 4        28.531
G15  22742678.706 6 119513560.51106     -1811.071 6        37.313    22742683.147 4  93127474.53704     -1411.227 4        28.156    22742684.587 6  93127439.53206     -1411.079 6        36.156
G17  22316164.393 6 117272249.11406       419.346 6        38.188    22316167.537 5  91380963.20605       326.765 5        31.063    22316166.275 6  91380969.24306       326.753 6        37.625
G19  21438839.890 7 112661866.43607      2780.400 7        43.594    21438837.647 4  87788458.91204      2166.552 4        28.094
G22  23186381.407 5 121845262.77205     -1183.260 5        35.406    23186381.609 1  94944358.28201      -921.992 1        10.438
G23                                                                                                                                  24117710.186 5  98757994.24705      -788.079 5        30.563
G24  20003806.168 8 105120705.11408      1699.458 8        48.031    20003808.717 8  81912240.56108      1324.252 8        52.531    20003808.945 8  81912240.55608      1324.303 8        48.000
G32  24600200.959 5 129274945.77805      5114.466 5        31.500
> 2024 02 29 08 20 38.0000000  0 13
G01                                                                                                                                  23933052.951 5  98001856.79205      1576.828 5        31.094
G02  25447932.781 5 133729782.13505       413.388 5        31.344    25447929.229 1 104204990.84701       322.254 1         2.781
G10  23573087.829 4                       887.776 4        28.875                                                                    23573080.059 4                       692.566 4        24.438
G12  22129594.575 7 116291813.83407      4998.047 7        45.219    22129592.452 6  90616999.95306      3894.583 6        40.656    22129594.585 6  90617012.97706      3894.646 6        40.344
G13  24275330.754 6 127567717.98606     -2139.366 6        38.781    24275331.423 3  99403432.38603     -1667.013 3        18.094
G14  24666647.192 4                     -1715.978 4        27.281                                                                    24666661.360 4                     -1337.043 4        29.719
G15  22743022.908 6 119515371.54906     -1811.536 6        37.469    22743027.878 4  93128885.72404     -1411.568 4        27.938    22743028.631 6  93128850.75606     -1411.614 6        36.250
G17  22316084.510 6 117271829.82206       418.554 6        38.344    22316087.692 5  91380636.48605       326.147 5        31.031    22316086.666 6  91380642.50906       326.310 6        37.281
G19  21438310.807 7 112659086.24107      2779.681 7        43.969    21438308.488 4  87786292.52904      2165.983 4        28.156
G22  23186606.198 5 121846445.98805     -1183.810 5        35.625    23186606.590 1  94945280.26301      -922.446 1        10.219
G23                                                                                                                                  24117903.916 5  98758782.30905      -788.227 5        31.219
G24  20003482.832 8 105119005.76108      1698.776 8        48.250    20003485.325 8  81910916.39208      1323.718 8        52.531    20003485.508 8  81910916.39608      1323.713 8        48.063
G32  24599227.506 5 129269831.25005      5114.084 5        30.875
> 2024 02 29 08 20 39.0000000  0 13
G01                                                                                                                                  23932667.630 5  98000279.64805      1576.760 5        30.156
G02  25447853.296 5 133729368.71105       413.252 5        30.094    25447850.546 1 104204668.65201       321.864 1         1.750
G10  23572920.550 5                       887.350 5        32.031                                                                    23572911.193 4                       690.547 4        25.594
G12  22128643.372 7 116286815.52207      4998.197 7        45.844    22128641.346 6  90613105.16806      3894.695 6        40.844    22128643.464 6  90613118.20406      3894.665 6        40.500
G13  24275737.866 6 127569857.18906     -2139.369 6        38.625    24275738.654 3  99405099.29403     -1667.033 3        18.344
G14  24666975.360 4                     -1716.305 4        28.500                                                                    24666989.774 4                     -1336.943 4        29.688
G15  22743367.512 6 119517182.79406     -1811.318 6        37.969    22743372.626 4  93130297.08904     -1411.420 4        27.969    22743373.328 6  93130262.10206     -1411.678 6        36.219
G17  22316004.650 6 117271410.98206       418.518 6        38.500    22316007.936 5  91380310.11405       326.121 5        30.906    22316006.921 6  91380316.13406       325.984 6        37.563
G19  21437781.897 7 112656306.63807      2779.266 7        43.656    21437779.442 4  87784126.60704      2165.654 4        28.094
G22  23186831.530 6 121847629.24406     -1183.669 6        36.281    23186831.772 1  94946202.27601      -922.274 1         9.031
G23                                                                                                                                  24118096.759 5  98759570.62605      -788.922 5        30.531
G24  20003159.557 8 105117306.90508      1698.607 8        48.188    20003162.017 8  81909592.61008      1323.591 8        52.469    20003162.279 8  81909592.60108      1323.583 8        48.219
G32  24598253.865 5 129264716.86105      5113.693 5        31.219
> 2024 02 29 08 20 40.0000000  0 13
G01                                                                                                                                  23932282.639 4  97998703.11404      1576.287 4        29.938
G02  25447773.941 5 133728955.81105       412.403 5        30.844    25447771.980 1 104204346.91101       321.390 1         2.375
G10  23572752.757 5                       886.655 5        30.094
G12  22127692.334 7 116281817.57207      4997.472 7        45.375    22127690.308 6  90609210.66406      3894.133 6        41.031    22127692.338 6  90609223.66906      3894.247 6        40.344
G13  24276144.974 6 127571996.44806     -2139.503 6        38.656    24276145.733 3  99406766.24503     -1667.138 3        18.375
G14  24667303.041 4                     -1715.759 4        29.531                                                                    24667316.511 4                     -1337.057 4        29.625
G15  22743712.408 6 119518994.29906     -1811.672 6        36.656    22743717.424 4  93131708.65404     -1411.700 4        27.969    22743717.547 5  93131673.61505     -1411.762 5        35.656
G17  22315924.994 6 117270992.72406       417.691 6        38.063    22315928.309 5  91379984.20005       325.469 5        30.938    22315927.229 6  91379990.23306       325.547 6        36.531
G19  21437253.186 7 112653527.73707      2778.137 7        43.281    21437250.601 4  87781961.23204      2164.773 4        28.219
G22  23187056.739 5 121848812.69905     -1183.665 5        35.906    23187056.981 1  94947124.39701      -922.287 1         9.500
G23                                                                                                                                  24118288.866 5  98760359.10005      -788.895 5        31.219
G24  20002836.525 8 105115608.65008      1697.690 8        48.375    20002838.826 8  81908269.29108      1322.876 8        52.438    20002839.084 8  81908269.27108      1322.876 8        48.250
G32  24597279.576 5 129259602.67905      5113.840 5        32.438
> 2024 02 29 08 20 41.0000000  0 13
G01                                                                                                                                  23931897.112 5  97997127.12405      1575.378 5        30.531
G02  25447695.750 5 133728543.30905       412.444 5        31.969    25447693.494 1 104204025.49801       321.641 1         2.594
G10  23572585.004 4                       885.938 4        28.344                                                                    23572568.309 3                       691.631 3        21.406
G12  22126741.315 7 116276819.82007      4997.435 7        45.375    22126739.284 6  90605316.31106      3894.092 6        41.063    22126741.168 6  90605329.34006      3894.208 6        39.781
G13  24276551.955 6 127574135.64706     -2139.159 6        38.469    24276552.798 3  99408433.14803     -1666.880 3        18.719
G14  24667630.001 5                     -1715.759 5        30.313                                                                    24667643.485 4                     -1337.274 4        29.656
G15  22744057.182 6 119520805.99706     -1812.203 6        38.219    22744062.244 4  93133120.34404     -1412.091 4        27.969    22744062.060 6  93133085.31306     -1412.134 6        36.813
G17  22315845.180 6 117270574.92706       417.190 6        39.156    22315848.750 5  91379658.63905       325.088 5        31.063    22315847.637 6  91379664.68006       325.086 6        36.656
G19  21436724.494 7 112650749.36907      2777.718 7        43.281    21436721.872 4  87779796.27204      2164.466 4        28.156
G22  23187281.402 5 121849996.21805     -1183.631 5        34.750    23187282.046 1  94948046.63801      -922.394 1         9.313
G23                                                                                                                                  24118481.426 5  98761147.78905      -788.930 5        31.781
G24  20002513.528 8 105113910.82908      1697.346 8        48.281    20002515.716 8  81906946.31108      1322.606 8        52.563    20002515.940 8  81906946.29608      1322.688 8        48.063
G32  24596306.315 5 129254488.61905      5114.292 5        32.625                                                                    24596336.238 3                      3984.104 3        23.531
> 2024 02 29 08 20 42.0000000  0 13
G01                                                                                                                                  23931513.178 5  97995551.85205      1574.864 5        30.156
G02  25447617.097 5 133728131.63805       410.975 5        30.875    25447615.173 1 104203704.70901       320.325 1         2.375
G10  23572417.502 4                       884.842 4        27.500                                                                    23572400.967 4                       689.676 4        25.844
G12  22125790.163 7 116271822.73207      4996.483 7        45.531    22125788.362 6  90601422.48006      3893.363 6        40.781    22125790.162 6  90601435.49806      3893.354 6        39.719
G13  24276959.076 6 127576275.24006     -2139.937 6        38.906    24276960.069 3  99410100.35203     -1667.500 3        18.625
G14  24667956.711 4                     -1716.225 4        29.094                                                                    24667970.660 5                     -1337.219 5        30.563
G15  22744402.171 6 119522618.23106     -1812.656 6        37.563    22744407.123 4  93134532.45804     -1412.453 4        27.781    22744406.788 5  93134497.47205     -1412.652 5        35.719
G17  22315765.615 6 117270158.00606       416.320 6        39.813    22315769.330 5  91379333.76405       324.413 5        31.063    22315768.425 6  91379339.81906       324.156 6        36.344
G19  21436196.080 7 112647972.00207      2776.631 7        42.844    21436193.304 4  87777632.09204      2163.618 4        28.031
G22  23187506.584 5 121851180.26505     -1184.379 5        35.375    23187507.287 1  94948969.26701      -922.881 1         9.125
G23                                                                                                                                  24118674.546 5  98761936.96805      -789.327 5        32.406
G24  20002190.571 8 105112213.93108      1696.246 8        48.500    20002192.775 8  81905624.05008      1321.755 8        52.469    20002193.006 8  81905624.03708      1321.757 8        48.094
G32  24595332.628 5 129249375.14005      5113.107 5        33.250                                                                    24595360.888 3                      3985.700 3        21.313
> 2024 02 29 08 20 43.0000000  0 13
G01                                                                                                                                  23931128.728 4  97993977.13004      1575.155 4        28.813
G02  25447538.335 5 133727720.35605       411.853 5        32.656    25447536.893 1 104203384.15901       320.720 1         3.188
G10  23572249.784 4                       884.149 4        26.000                                                                    23572233.165 4                       690.268 4        24.688
G12  22124839.154 7 116266825.84307      4997.100 7        45.500    22124837.458 6  90597528.80106      3893.846 6        40.594    22124839.039 6  90597541.81006      3894.000 6        39.219
G13  24277366.244 6 127578414.81406     -2139.199 6        38.344    24277367.152 3  99411767.54903     -1666.891 3        18.750
G14  24668283.591 5                     -1716.164 5        31.781                                                                    24668298.797 5                     -1337.409 5        30.594
G15  22744747.366 6 119524430.66306     -1812.081 6        38.594    22744752.064 4  93135944.72504     -1411.977 4        27.750    22744751.674 5  93135909.71205     -1412.342 5        35.906
G17  22315686.479 6 117269741.53906       416.528 6        39.406    22315690.021 5  91379009.24705       324.568 5        31.031    22315689.240 6  91379015.27806       324.526 6        36.969
G19  21435667.462 7 112645195.18807      2776.819 7        43.031    21435664.861 4  87775468.34104      2163.756 4        28.031
G22  23187731.844 5 121852364.32405     -1183.498 5        32.313    23187732.527 1  94949891.90001      -922.197 1         8.938
G23  24118961.766 4                     -1012.579 4        27.781                                                                    24118867.524 5  98762726.34605      -789.547 5        32.094
G24  20001867.694 8 105110517.48208      1696.579 8        48.531    20001869.924 8  81904302.13808      1322.014 8        52.469    20001870.180 8  81904302.12208      1322.039 8        48.438
G32  24594359.827 5 129244261.81205      5113.246 5        33.781                                                                    24594385.917 3                      3984.576 3        22.094
> 2024 02 29 08 20 44.0000000  0 13
G01                                                                                                                                  23930744.732 5  97992402.96505      1574.278 5        30.000
G02  25447459.930 5 133727309.54905       411.221 5        31.375
G10  23572083.292 4                       884.025 4        28.375                                                                    23572065.045 3                       688.154 3        22.219
G12  22123888.352 7 116261829.31407      4996.657 7        45.031    22123886.639 6  90593635.40506      3893.501 6        40.438    22123888.315 6  90593648.43306      3893.446 6        40.156
G13  24277773.136 6 127580554.45706     -2139.528 6        38.500    24277774.369 3  99413434.79603     -1667.158 3        18.844
G14  24668610.230 5                     -1716.309 5        31.969                                                                    24668627.041 5                     -1337.448 5        30.781
G15  22745092.532 6 119526243.33506     -1812.315 6        38.438    22745097.076 4  93137357.18004     -1412.187 4        27.625    22745097.074 5  93137322.17605     -1412.617 5        35.250
G17  22315607.538 6 117269325.67606       415.924 6        39.938    22315610.829 5  91378685.19605       324.101 5        31.000    22315610.215 6  91378691.21706       324.100 6        37.094
G19  21435139.180 7 112642419.05807      2776.152 7        42.750    21435136.565 4  87773305.12004      2163.240 4        27.938
G22  23187956.533 5 121853548.54705     -1183.697 5        33.281    23187957.686 1  94950814.67801      -922.352 1         8.188
G23  24119154.234 4                     -1012.523 4        26.688                                                                    24119059.616 5  98763515.95305      -789.485 5        33.406
G24  20001544.972 8 105108821.62908      1695.811 8        48.594    20001547.185 8  81902980.69108      1321.413 8        52.469    20001547.456 8  81902980.68508      1321.438 8        48.156
G32  24593387.044 5 129239148.71305      5113.004 5        31.750
> 2024 02 29 08 20 45.0000000  0 13
G01                                                                                                                                  23930360.355 5  97990829.63405      1573.083 5        30.625
G02  25447382.591 4 133726899.73104       409.722 4        29.625
G10  23571915.312 4                       883.163 4        27.313                                                                    23571898.719 4                       687.707 4        24.125
G12  22122937.642 7 116256833.48507      4995.781 7        45.188    22122935.972 6  90589742.55406      3892.820 6        40.375    22122937.549 6  90589755.55106      3892.844 6        40.219
G13  24278180.245 6 127582694.53006     -2139.974 6        38.781    24278181.613 3  99415102.37903     -1667.499 3        19.125
G14  24668936.296 5                     -1716.702 5        30.500                                                                    24668953.809 5                     -1337.930 5        31.000
G15  22745437.715 6 119528056.64506     -1813.362 6        37.781    22745442.178 4  93138770.13704     -1413.015 4        27.625    22745442.040 6  93138735.18606     -1412.875 6        36.156
G17  22315528.865 6 117268910.69406       414.930 6        40.031    22315531.811 5  91378361.83005       323.323 5        31.063    22315531.481 6  91378367.89306       323.090 6        36.531
G19  21434610.890 7 112639643.99607      2774.935 7        42.563    21434608.462 4  87771142.73604      2162.284 4        27.875
G22  23188181.583 6 121854733.35806     -1184.881 6        36.094    23188182.716 1  94951737.89601      -923.240 1         8.750
G23  24119346.348 4                     -1013.985 4        25.938                                                                    24119252.981 5  98764306.18205      -790.280 5        31.719
G24  20001222.424 8 105107126.72808      1694.799 8        48.625    20001224.629 8  81901659.98908      1320.621 8        52.438    20001224.978 7  81901659.98107      1320.669 7        47.969
G32  24592414.297 5 129234036.24605      5112.833 5        30.875
> 2024 02 29 08 20 46.0000000  0 13
G01                                                                                                                                  23929976.037 5  97989256.72905      1572.605 5        30.844
G02  25447304.346 4 133726490.21704       409.835 4        29.719
G10  23571748.730 4                       882.793 4        27.500                                                                    23571731.033 3                       687.655 3        22.875
G12  22121986.953 7 116251837.82507      4995.958 7        45.031    22121985.332 6  90585849.82706      3892.954 6        40.438    22121987.030 6  90585862.84006      3892.993 6        40.250
G13  24278587.423 6 127584834.53906     -2139.465 6        38.563    24278588.830 3  99416769.90303     -1667.115 3        19.094
G14  24669261.844 4                     -1716.446 4        29.250                                                                    24669281.221 5                     -1337.538 5        30.313
G15  22745782.966 6 119529870.07506     -1813.132 6        38.219    22745787.285 4  93140183.19204     -1412.831 4        27.813    22745786.703 5  93140148.22905     -1412.792 5        35.781
G17  22315450.222 6 117268496.17506       415.085 6        40.344    22315452.869 5  91378038.82405       323.441 5        31.219    22315452.062 6  91378044.88806       323.281 6        36.375
G19  21434082.893 7 112636869.44307      2774.801 7        42.281    21434080.471 4  87768980.75004      2162.183 4        27.938
G22  23188407.368 6 121855918.16106     -1184.440 6        36.000    23188408.502 1  94952661.12101      -923.001 1         8.563
G23  24119536.607 4                     -1014.741 4        25.688                                                                    24119445.543 5  98765096.48405      -790.362 5        31.531
G24  20000900.085 8 105105432.23008      1694.856 8        48.219    20000902.144 8  81900339.60208      1320.668 8        52.500    20000902.526 8  81900339.59508      1320.637 8        48.094
G32  24591441.827 4 129228923.96304      5112.852 4        28.344
> 2024 02 29 08 20 47.0000000  0 13
G01                                                                                                                                  23929592.034 4  97987684.18104      1572.360 4        29.469
G02  25447224.738 5 133726080.82005       409.913 5        31.094
G10  23571580.150 4                       882.480 4        28.469
G12  22121036.251 7 116246842.21607      4996.061 7        44.563    22121034.736 6  90581957.14606      3893.031 6        40.375    22121036.328 6  90581970.16306      3893.279 6        39.688
G13  24278994.513 6 127586974.36706     -2139.027 6        38.875    24278996.101 3  99418437.28903     -1666.742 3        19.313
G14  24669587.713 4                     -1716.481 4        29.906                                                                    24669607.502 4                     -1337.123 4        28.625
G15  22746128.104 6 119531683.47806     -1812.561 6        37.438    22746132.427 4  93141596.23904     -1412.388 4        27.844    22746131.535 5  93141561.26605     -1412.791 5        35.656
G17  22315371.828 6 117268081.88606       414.716 6        39.625    22315373.927 5  91377716.00505       323.139 5        31.219    22315373.052 6  91377722.09006       323.143 6        36.219
G19  21433554.835 7 112634095.30207      2774.495 7        42.719    21433552.587 4  87766819.08404      2161.942 4        28.063
G22  23188633.431 5 121857102.86605     -1184.284 5        35.000    23188634.140 1  94953584.26601      -922.801 1         7.875
G23                                                                                                                                  24119638.976 5  98765886.73405      -790.098 5        30.469
G24  20000577.691 8 105103738.06808      1694.514 8        48.406    20000579.722 8  81899019.47708      1320.399 8        52.500    20000580.032 8  81899019.45908      1320.362 8        48.406
G32  24590468.204 4 129223811.47004      5113.606 4        27.000
> 2024 02 29 08 20 48.0000000  0 13
G01                                                                                                                                  23929207.908 4  97986112.11604      1571.371 4        28.313
G02  25447146.261 5 133725671.92705       408.003 5        34.188
G10  23571410.456 4                       881.887 4        26.906                                                                    23571400.880 3                       687.298 3        20.688
G12  22120085.286 7 116241846.89407      4994.488 7        44.938    22120084.168 6  90578064.68606      3891.818 6        40.219    22120085.919 6  90578077.69106      3891.705 6        39.656
G13  24279401.345 6 127589114.10806     -2140.331 6        39.969    24279403.350 3  99420104.60903     -1667.779 3        19.438
G14  24669914.276 4                     -1715.961 4        27.156                                                                    24669935.634 4                     -1337.594 4        28.500
G15  22746473.452 6 119533497.09506     -1814.003 6        36.875    22746477.605 4  93143009.45304     -1413.510 4        27.656    22746476.431 6  93142974.50506     -1413.850 6        36.188
G17  22315293.198 6 117267668.17106       412.919 6        39.063    22315295.105 5  91377393.65105       321.728 5        30.906    22315294.189 5  91377399.73305       321.397 5        35.719
G19  21433027.084 7 112631321.74307      2772.344 7        42.188    21433024.828 4  87764657.86204      2160.272 4        27.938
G22  23188859.225 6 121858287.64306     -1185.577 6        36.281    23188859.438 1  94954507.50201      -923.826 1         7.500
G23                                                                                                                                  24119832.857 4  98766677.40204      -791.387 4        27.875
G24  20000255.314 8 105102044.38708      1692.688 8        48.969    20000257.394 8  81897699.72708      1318.974 8        52.656    20000257.786 8  81897699.71108      1318.971 8        48.125
G32                                                                                                                                  24589494.092 3                      3983.542 3        20.594
> 2024 02 29 08 20 49.0000000  0 13
G01                                                                                                                                  23928823.293 4  97984541.04104      1570.795 4        28.531
G02  25447069.492 5 133725264.12305       407.039 5        32.844
G10  23571242.797 5                       880.599 5        31.406                                                                    23571233.583 4                       686.998 4        25.125
G12  22119134.762 7 116236852.46907      4994.142 7        45.563    22119133.733 6  90574172.92006      3891.544 6        40.125    22119135.385 6  90574185.93606      3891.544 6        39.563
G13  24279808.709 6 127591254.57006     -2140.809 6        40.031    24279810.701 3  99421772.50403     -1668.158 3        19.688
G14  24670240.575 4                     -1717.435 4        24.438                                                                    24670262.170 4                     -1338.510 4        27.469
G15  22746818.967 5 119535311.55805     -1815.079 5        34.813    22746822.930 4  93144423.32004     -1414.352 4        27.375    22746821.756 5  93144388.36905     -1414.203 5        35.000
G17  22315214.448 6 117267255.59506       412.178 6        39.063    22315216.517 5  91377072.17705       321.174 5        30.688    22315215.842 6  91377078.22706       321.085 6        36.875
G19  21432499.495 7 112628549.42807      2771.884 7        42.156    21432497.302 4  87762497.60904      2159.909 4        27.719
G22  23189085.020 6 121859473.18806     -1185.703 6        36.719    23189085.148 1  94955431.29001      -923.872 1         8.281
G23                                                                                                                                  24120026.028 4  98767468.54404      -791.909 4        28.250
G24  19999933.244 8 105100351.86808      1691.986 8        48.656    19999935.294 8  81896380.88108      1318.434 8        52.656    19999935.699 8  81896380.87308      1318.412 8        48.313
G32                                                                                                                                  24588521.921 3                      3984.979 3        19.563
> 2024 02 29 08 20 50.0000000  0 13
G01                                                                                                                                  23928438.691 4  97982970.51404      1569.912 4        27.063
G02  25446992.689 5 133724856.76105       406.652 5        33.656
G10  23571074.499 4                       879.884 4        29.094                                                                    23571066.112 4                       685.603 4        28.250
G12  22118184.571 7 116231858.31407      4993.387 7        45.906    22118183.357 6  90570281.37006      3890.947 6        40.094    22118184.885 6  90570294.37006      3891.025 6        39.219
G13  24280216.370 6 127593394.97806     -2140.832 6        40.000    24280217.999 3  99423440.35003     -1668.193 3        19.813
G14  24670565.666 3                     -1716.247 3        22.469                                                                    24670589.694 4                     -1337.547 4        26.906
G15  22747164.254 5 119537126.25505     -1814.927 5        32.313    22747168.314 4  93145837.38804     -1414.244 4        26.250    22747166.795 5  93145802.30405     -1414.297 5        34.406
G17  22315135.866 6 117266843.46606       411.225 6        38.344    22315138.053 5  91376751.02905       320.430 5        30.531    22315137.453 6  91376757.06206       320.668 6        36.000
G19  21431972.027 6 112625777.76106      2770.879 6        41.469    21431969.883 4  87760337.86404      2159.125 4        27.531
G22  23189310.801 6 121860658.85506     -1186.098 6        36.000    23189310.960 1  94956355.18401      -924.217 1         8.469
G23                                                                                                                                  24120218.962 5  98768259.89205      -791.753 5        30.563
G24  19999611.284 8 105098659.84308      1691.316 8        48.969    19999613.293 8  81895062.41608      1317.921 8        52.625    19999613.778 8  81895062.39908      1317.905 8        48.469
G32  24587548.698 4                      5111.145 4        27.219                                                                    24587551.418 3                      3980.082 3        18.063
> 2024 02 29 08 20 51.0000000  0 13
G01                                                                                                                                  23928055.902 4  97981400.68704      1569.286 4        29.438
G02  25446916.273 5 133724449.97705       406.373 5        31.875
G10  23570907.542 4                       879.672 4        28.469                                                                    23570897.997 5                       685.447 5        30.375
G12  22117234.540 7 116226864.53407      4993.582 7        46.125    22117233.057 6  90566390.11406      3891.096 6        40.094    22117234.559 6  90566403.13006      3891.333 6        40.094
G13  24280623.965 6 127595535.57106     -2140.876 6        38.813    24280625.395 3  99425108.35503     -1668.206 3        20.219
G14  24670892.497 4                     -1717.166 4        26.469                                                                    24670917.374 4                     -1337.936 4        29.844
G15  22747509.438 5 119538941.31305     -1815.215 5        34.156    22747513.765 4  93147251.71604     -1414.434 4        25.625    22747512.236 5  93147216.64105     -1414.417 5        32.906
G17  22315057.232 6 117266432.05006       411.154 6        39.000    22315059.728 5  91376430.45405       320.386 5        30.500    22315059.088 6  91376436.46306       320.289 6        36.938
G19  21431444.763 6 112623006.83306      2770.435 6        41.875    21431442.629 4  87758178.69704      2158.777 4        27.438
G22  23189536.618 6 121861844.72806     -1186.282 6        37.219    23189536.563 1  94957279.25001      -924.409 1         8.469
G23  24120487.784 4                     -1016.582 4        26.438                                                                    24120412.782 4  98769051.62304      -791.883 4        29.156
G24  19999289.459 8 105096968.49708      1690.970 8        49.031    19999291.421 8  81893744.47608      1317.645 8        52.594    19999291.918 8  81893744.47408      1317.587 8        48.031
G32  24586577.269 4                      5110.661 4        28.875
> 2024 02 29 08 20 52.0000000  0 13
G01                                                                                                                                  23927672.446 4  97979831.09404      1569.508 4        28.344
G02  25446839.224 5 133724043.38505       406.105 5        32.250
G10  23570740.294 5                       878.822 5        30.313                                                                    23570732.292 4                       685.197 4        24.375
G12  22116284.345 7 116221870.84207      4993.421 7        44.906    22116282.779 6  90562498.93306      3890.968 6        40.188    22116284.233 6  90562511.96506      3890.953 6        39.125
G13  24281030.964 6 127597675.97106     -2140.629 6        38.719    24281032.715 3  99426776.19403     -1668.012 3        20.375
G14  24671220.365 4                     -1717.199 4        27.250                                                                    24671244.451 4                     -1337.696 4        28.406
G15  22747854.078 5 119540756.29905     -1815.506 5        35.531    22747859.148 4  93148665.97304     -1414.658 4        25.563    22747857.767 5  93148630.91305     -1414.234 5        34.188
G17  22314978.532 6 117266020.89306       410.730 6        40.625    22314981.403 5  91376110.06205       320.030 5        30.594    22314981.093 6  91376116.09006       320.012 6        36.750
G19  21430917.503 7 112620236.29807      2770.069 7        42.688    21430915.483 4  87756019.84004      2158.487 4        27.469
G22  23189762.814 6 121863030.55406     -1186.188 6        36.313    23189762.044 1  94958203.25901      -924.315 1         9.500
G23  24120678.896 4                     -1016.350 4        28.000                                                                    24120606.004 5  98769843.43105      -791.875 5        30.250
G24  19998967.777 8 105095277.45108      1690.560 8        48.406    19998969.598 8  81892426.77408      1317.317 8        52.594    19998970.070 8  81892426.76708      1317.411 8        48.156
G32  24585604.780 4                      5111.419 4        26.531                                                                    24585611.566 3                      3980.072 3        19.906
> 2024 02 29 08 20 53.0000000  0 13
G01                                                                                                                                  23927289.432 4  97978262.08304      1568.513 4        28.031
G02  25446762.346 5 133723637.29205       405.711 5        31.469
G10  23570572.796 4                       878.451 4        29.281                                                                    23570566.421 3                       685.671 3        23.938
G12  22115334.241 7 116216877.44807      4993.239 7        45.000    22115332.564 6  90558607.97706      3890.837 6        40.125    22115334.233 6  90558620.98706      3890.790 6        39.688
G13  24281438.175 6 127599816.43606     -2140.509 6        38.969    24281440.089 3  99428444.06803     -1667.899 3        20.594
G14  24671545.971 4                     -1716.894 4        26.125                                                                    24671570.951 4                     -1338.111 4        27.594
G15  22748199.467 5 119542571.43005     -1814.842 5        35.219    22748204.501 4  93150080.34704     -1414.146 4        25.656    22748203.292 5  93150045.36905     -1414.465 5        35.250
G17  22314900.266 6 117265610.25206       410.411 6        40.656    22314903.186 5  91375790.08205       319.798 5        30.781    22314902.730 6  91375796.09606       319.801 6        36.000
G19  21430390.421 6 112617466.43406      2769.543 6        41.719    21430388.444 4  87753861.50704      2158.086 4        27.563
G22  23189988.661 6 121864216.45006     -1185.719 6        37.250    23189987.736 1  94959127.31401      -923.928 1        10.438
G23                                                                                                                                  24120799.134 5  98770635.42605      -792.328 5        30.219
G24  19998646.040 8 105093586.93308      1690.284 8        48.969    19998647.874 8  81891109.48808      1317.106 8        52.750    19998648.390 8  81891109.48408      1317.039 8        48.281
G32  24584632.417 4                      5110.367 4        25.656
> 2024 02 29 08 20 54.0000000  0 13
G01                                                                                                                                  23926906.049 4  97976693.89304      1568.073 4        28.938
G02  25446685.094 5 133723232.00905       405.032 5        32.875
G10  23570405.920 4                       877.902 4        27.875                                                                    23570397.251 4                       684.155 4        24.781
G12  22114384.126 7 116211884.72407      4992.384 7        45.344    22114382.487 6  90554717.54006      3890.183 6        40.063    22114384.018 6  90554730.55806      3890.125 6        40.094
G13  24281845.214 6 127601957.28406     -2141.218 6        38.938    24281847.659 3  99430112.24703     -1668.468 3        20.781
G14  24671873.956 4                     -1717.177 4        27.125                                                                    24671895.488 4                     -1338.100 4        27.531
G15  22748545.348 5 119544387.25205     -1816.161 5        35.625    22748550.010 4  93151495.26604     -1415.201 4        25.688    22748549.098 5  93151460.34505     -1415.300 5        33.281
G17  22314822.437 6 117265200.50906       409.327 6        39.656    22314825.133 5  91375470.80505       318.964 5        30.656    22314824.689 5  91375476.81605       318.875 5        35.906
G19  21429863.482 7 112614697.55307      2768.264 7        42.781    21429861.567 4  87751703.93404      2157.087 4        27.563
G22  23190214.114 6 121865402.92506     -1186.886 6        36.875    23190213.705 1  94960051.80601      -924.785 1        10.438
G23                                                                                                                                  24120993.315 4  98771427.97704      -792.451 4        29.781
G24  19998324.460 8 105091897.34808      1689.108 8        49.063    19998326.333 8  81889792.92708      1316.183 8        52.719    19998326.846 8  81889792.91208      1316.289 8        48.219
G32  24583660.027 4                      5109.991 4        27.813
> 2024 02 29 08 20 55.0000000  0 13
G01                                                                                                                                  23926524.040 4  97975126.24304      1566.889 4        29.250
G02  25446607.774 5 133722827.26205       404.111 5        33.625
G10  23570238.337 4                       876.842 4        27.438                                                                    23570229.306 4                       683.661 4        26.906
G12  22113434.146 7 116206892.26707      4992.004 7        44.594    22113432.450 6  90550827.31206      3889.875 6        40.063    22113434.077 6  90550840.37706      3889.663 6        40.125
G13  24282252.509 6 127604098.04706     -2141.048 6        38.000    24282255.194 3  99431780.37103     -1668.338 3        20.688
G14  24672201.211 4                     -1717.642 4        27.656                                                                    24672221.863 5                     -1338.177 5        30.719
G15  22748891.220 5 119546203.35505     -1816.697 5        34.781    22748895.599 4  93152910.43704     -1415.640 4        25.219    22748894.552 5  93152875.42205     -1415.620 5        34.063
G17  22314744.735 6 117264791.32206       408.561 6        39.750    22314747.148 5  91375151.96305       318.345 5        30.406    22314747.485 6  91375157.96806       318.531 6        36.813
G19  21429336.772 7 112611929.28607      2767.601 7        42.500    21429334.814 4  87749546.84304      2156.571 4        27.688
G22  23190439.611 6 121866589.46906     -1187.004 6        36.656    23190439.374 1  94960976.45701      -925.081 1         9.406
G23                                                                                                                                  24121186.615 5  98772220.63605      -793.098 5        31.781
G24  19998002.962 8 105090208.29908      1688.295 8        49.438    19998004.895 8  81888476.78908      1315.553 8        52.844    19998005.463 8  81888476.77108      1315.645 8        48.156
G32  24582688.419 4                      5110.134 4        29.781
> 2024 02 29 08 20 56.0000000  0 12
G01                                                                                                                                  23926141.861 4  97973559.13104      1567.967 4        28.375
G02  25446530.850 5 133722423.02405       404.703 5        32.281
G10  23570068.308 4                       876.114 4        29.906                                                                    23570063.726 4                       682.360 4        27.563
G12  22112484.188 7 116201900.23507      4992.788 7        45.375    22112482.512 6  90546937.42306      3890.480 6        40.156    22112484.297 6  90546950.45106      3890.346 6        40.813
G13  24282659.712 6 127606239.03806     -2140.271 6        39.375    24282662.644 3  99433448.67803     -1667.743 3        20.938
G14  24672528.212 4                     -1717.325 4        28.594                                                                    24672548.636 4                     -1338.212 4        29.875
G15  22749237.458 5 119548019.69605     -1815.439 5        32.938    22749241.206 4  93154325.76604     -1414.622 4        24.688    22749240.732 5  93154290.75405     -1414.947 5        31.375
G17  22314667.261 6 117264382.77606       409.112 6        39.375    22314669.351 5  91374833.61405       318.787 5        30.563    22314669.775 6  91374839.62106       318.735 6        37.531
G19  21428810.195 6 112609161.78206      2768.315 6        41.406    21428808.222 4  87747390.34804      2157.139 4        27.438
G22  23190665.087 6 121867776.27606     -1185.949 6        36.344    23190665.357 1  94961901.20501      -924.069 1        10.219
G24  19997681.722 8 105088519.87008      1689.040 8        49.094    19997683.587 8  81887161.13008      1316.138 8        52.844    19997684.221 8  81887161.11508      1316.107 8        48.219
G32  24581717.237 5                      5109.639 5        31.594
> 2024 02 29 08 20 57.0000000  0 13
G01                                                                                                                                  23925759.047 4  97971992.54204      1565.490 4        29.531
G02  25446453.755 5 133722019.11005       403.452 5        31.656
G10  23569900.331 4                       875.627 4        26.531                                                                    23569897.485 4                       682.728 4        25.594
G12  22111534.271 7 116196908.36907      4990.931 7        45.469    22111532.628 6  90543047.65706      3889.028 6        40.406    22111534.273 6  90543060.68606      3889.102 6        40.750
G13  24283067.439 6 127608379.94306     -2141.669 6        36.281    24283070.138 3  99435116.91903     -1668.833 3        20.781
G14  24672855.016 4                     -1717.529 4        28.625                                                                    24672876.173 4                     -1338.270 4        29.406
G15  22749582.769 5 119549836.25805     -1817.846 5        33.719    22749586.787 4  93155741.27004     -1416.517 4        24.438    22749586.705 5  93155706.18705     -1416.710 5        32.781
G17  22314589.524 6 117263974.60606       407.073 6        40.250    22314591.652 5  91374515.55905       317.204 5        30.719    22314592.369 6  91374521.58806       317.080 6        37.313
G19  21428283.816 7 112606394.83507      2765.733 7        42.313    21428281.738 4  87745234.28104      2155.117 4        27.469
G22  23190890.439 6 121868963.07506     -1187.718 6        36.719    23190891.254 1  94962825.95501      -925.434 1         9.500
G23                                                                                                                                  24121574.686 5  98773806.90005      -794.526 5        30.844
G24  19997360.516 8 105086831.88508      1686.780 8        49.125    19997362.368 8  81885845.81608      1314.373 8        52.813    19997362.993 8  81885845.78308      1314.393 8        48.063
G32  24580744.797 5                      5109.445 5        30.000
> 2024 02 29 08 20 58.0000000  0 13
G01                                                                                                                                  23925376.366 4  97970426.79504      1565.740 4        29.281
G02  25446377.025 5 133721616.18105       403.224 5        33.031
G10                                                                                                                                  23569730.568 4                       682.185 4        25.156
G12  22110584.467 7 116191917.28907      4990.990 7        45.188    22110582.896 6  90539158.50906      3889.080 6        40.625    22110584.610 6  90539171.53806      3889.008 6        41.094
G13  24283474.737 6 127610521.36006     -2141.583 6        37.563    24283477.789 3  99436785.54803     -1668.746 3        20.563
G14  24673182.598 4                     -1717.767 4        28.250                                                                    24673203.125 5                     -1338.689 5        31.281
G15  22749927.876 5 119551653.39605     -1817.456 5        31.719    22749932.465 4  93157157.20504     -1416.169 4        24.031    22749932.540 5  93157122.22105     -1416.285 5        31.500
G17  22314512.145 6 117263567.45806       407.047 6        38.344    22314514.110 5  91374198.29705       317.185 5        31.031    22314514.417 6  91374204.30806       317.038 6        36.938
G19  21427757.529 7 112603628.94407      2765.511 7        42.219    21427755.441 4  87743079.03804      2154.955 4        27.563
G22  23191116.416 5 121870150.48805     -1187.410 5        35.688    23191117.362 1  94963751.21501      -925.173 1        10.000
G23                                                                                                                                  24121767.891 5  98774600.61805      -794.012 5        31.313
G24  19997039.530 8 105085144.89808      1686.741 8        49.094    19997041.341 8  81884531.27508      1314.349 8        52.969    19997042.039 8  81884531.25508      1314.378 8        48.094
G32  24579772.483 4                      5109.004 4        29.781
> 2024 02 29 08 20 59.0000000  0 13
G01                                                                                                                                  23924993.560 4  97968861.31504      1565.010 4        28.000
G02  25446300.197 5 133721213.33705       402.233 5        31.156
G10  23569563.050 4                       874.482 4        29.750                                                                    23569562.323 4                       681.021 4        24.594
G12  22109634.684 7 116186926.13407      4990.553 7        45.250    22109633.132 6  90535269.30106      3888.738 6        40.844    22109634.932 6  90535282.33506      3888.659 6        41.188
G13  24283882.118 6 127612662.43006     -2141.347 6        37.813    24283885.414 3  99438453.90503     -1668.576 3        20.594
G14  24673510.167 4                     -1717.763 4        27.781                                                                    24673530.796 5                     -1338.548 5        31.313
G15  22750274.313 5 119553470.42505     -1817.950 5        33.156    22750278.144 4  93158573.07404     -1416.591 4        24.188    22750278.237 5  93158538.04305     -1416.288 5        33.906
G17  22314434.858 6 117263160.45406       406.271 6        38.156    22314436.612 5  91373881.15005       316.576 5        31.000    22314436.849 6  91373887.17806       316.658 6        37.563
G19  21427231.477 7 112600863.35907      2764.839 7        42.375    21427229.185 4  87740924.03504      2154.417 4        27.438
G22  23191342.399 6 121871337.68106     -1187.595 6        36.031    23191343.188 1  94964676.33301      -925.452 1         8.938
G23                                                                                                                                  24121961.027 5  98775394.25405      -794.007 5        31.031
G24  19996718.588 8 105083458.07808      1686.036 8        48.781    19996720.345 8  81883216.86608      1313.789 8        52.938    19996720.977 7  81883216.86507      1313.790 7        47.938
G32  24578799.248 4                      5108.625 4        28.531                                                                    24578819.153 4                      3980.810 4        27.563
> 2024 02 29 08 21  0.0000000  0 13
G01                                                                                                                                  23924611.743 4  97967296.79304      1564.771 4        28.500
G02  25446223.670 5 133720811.47405       401.434 5        32.875
G10  23569396.214 5                       873.436 5        31.219                                                                    23569394.280 4                       679.855 4        25.625
G12  22108685.008 7 116181935.82007      4990.292 7        44.531    22108683.534 6  90531380.74806      3888.545 6        40.906    22108685.161 6  90531393.77106      3888.416 6        41.219
G13  24284289.622 6 127614804.13006     -2141.815 6        36.813    24284293.038 3  99440122.74603     -1668.946 3        20.531
G14  24673836.993 4                     -1718.139 4        28.250                                                                    24673858.446 5                     -1338.676 5        31.656
G15  22750620.414 5 119555288.29905     -1818.240 5        33.000    22750623.993 4  93159989.59904     -1416.804 4        24.031    22750623.991 5  93159954.48705     -1416.135 5        32.094
G17  22314357.524 6 117262754.59306       405.628 6        39.125    22314359.369 5  91373564.89005       316.072 5        30.906    22314359.904 6  91373570.88406       316.347 6        37.094
G19  21426705.626 7 112598098.93707      2764.097 7        42.688    21426703.143 4  87738769.93704      2153.846 4        27.281
G22  23191568.459 5 121872525.57705     -1188.063 5        35.969    23191569.317 1  94965601.91401      -925.738 1         9.781
G23                                                                                                                                  24122154.751 5  98776188.61905      -794.109 5        31.313
G24  19996397.728 8 105081772.35608      1685.424 8        48.906    19996399.560 8  81881903.31808      1313.315 8        52.781    19996400.240 7  81881903.32307      1313.268 7        47.875
G32  24577827.399 5                      5107.950 5        30.594                                                                    24577846.217 4                      3980.339 4        26.594
> 2024 02 29 08 21  1.0000000  0 13
G01                                                                                                                                  23924229.920 4  97965732.83904      1563.912 4        27.719
G02  25446147.290 5 133720410.05805       400.663 5        31.563
G10  23569229.387 5                       872.933 5        31.344                                                                    23569230.184 3                       678.113 3        20.500
G12  22107735.214 7 116176945.72907      4989.662 7        45.281    22107733.967 6  90527492.36506      3888.043 6        40.844    22107735.506 6  90527505.38406      3888.014 6        41.719
G13  24284696.906 6 127616945.70806     -2141.560 6        37.063    24284700.631 3  99441791.50803     -1668.734 3        20.469
G14  24674164.352 4                     -1717.968 4        29.719                                                                    24674185.822 5                     -1338.805 5        31.406
G15  22750966.806 5 119557106.27005     -1819.125 5        34.125    22750969.868 4  93161406.18304     -1417.505 4        24.188    22750969.818 5  93161371.16205     -1417.214 5        32.969
G17  22314280.409 6 117262349.11806       404.862 6        39.656    22314282.198 5  91373248.93505       315.475 5        31.094    22314282.516 6  91373254.95106       315.721 6        37.313
G19  21426179.750 7 112595335.07907      2763.303 7        42.938    21426177.169 4  87736616.28104      2153.222 4        27.188
G22  23191794.608 5 121873713.45805     -1188.163 5        34.719    23191795.179 1  94966527.54001      -925.863 1         8.656
G23                                                                                                                                  24122347.558 4  98776983.03504      -794.034 4        28.625
G24  19996076.923 8 105080087.08608      1684.833 8        48.906    19996078.855 8  81880590.12208      1312.850 8        52.719    19996079.605 7  81880590.12007      1312.834 7        47.656
G32  24576855.107 4                      5108.005 4        28.750                                                                    24576875.272 3                      3980.445 3        23.781
> 2024 02 29 08 21  2.0000000  0 13
G01                                                                                                                                  23923848.807 4  97964169.07504      1563.150 4        28.719
G02  25446071.057 5 133720008.87805       400.711 5        31.344
G10  23569063.177 5                       872.622 5        32.125                                                                    23569065.655 3                       680.705 3        21.844
G12  22106785.531 7 116171955.70407      4989.583 7        45.156    22106784.409 6  90523604.03406      3887.982 6        41.094    22106786.049 6  90523617.07306      3888.019 6        41.469
G13  24285104.787 6 127619087.13806     -2141.621 6        36.594    24285108.206 3  99443460.14003     -1668.777 3        20.500
G14  24674491.393 5                     -1717.632 5        30.313                                                                    24674512.125 5                     -1338.575 5        32.063
G15  22751312.624 5 119558924.21005     -1818.560 5        34.563    22751315.753 4  93162822.75804     -1417.033 4        24.438    22751315.378 5  93162787.68405     -1416.696 5        33.781
G17  22314203.166 6 117261943.94406       404.702 6        40.563    22314205.080 5  91372933.21805       315.346 5        31.313    22314205.492 5  91372939.21905       315.518 5        35.938
G19  21425654.027 7 112592571.63507      2763.016 7        43.719    21425651.252 4  87734462.95004      2152.991 4        27.406
G22  23192020.277 5 121874901.26705     -1188.227 5        34.188    23192021.238 1  94967453.11101      -925.827 1         8.281
G23                                                                                                                                  24122541.255 5  98777777.60405      -795.073 5        30.375
G24  19995756.266 8 105078402.14408      1684.418 8        48.813    19995758.213 8  81879277.17708      1312.530 8        52.781    19995758.898 7  81879277.16907      1312.588 7        47.656
G32  24575883.419 5                      5107.959 5        30.688                                                                    24575903.990 3                      3981.173 3        21.188
> 2024 02 29 08 21  3.0000000  0 13
G01                                                                                                                                  23923466.774 4  97962605.95604      1562.757 4        28.688
G02  25445994.077 5 133719608.12005       400.822 5        31.750
G10  23568897.762 5                       872.307 5        30.313
G12  22105836.018 7 116166965.95307      4989.704 7        45.188    22105834.904 6  90519715.91706      3888.082 6        41.063    22105836.559 6  90519728.94006      3887.968 6        41.250
G13  24285512.378 6 127621228.57606     -2141.144 6        36.344    24285515.848 3  99445128.78803     -1668.404 3        20.375
G14  24674818.421 5                     -1717.819 5        30.344                                                                    24674839.287 5                     -1338.564 5        32.875
G15  22751659.166 5 119560742.36805     -1818.373 5        35.250    22751661.736 4  93164239.48904     -1416.890 4        24.188    22751661.144 5  93164204.43805     -1416.709 5        32.688
G17  22314126.188 6 117261539.28506       404.426 6        40.844    22314128.043 5  91372617.90305       315.132 5        31.313    22314128.206 5  91372623.92905       315.156 5        35.500
G19  21425128.468 7 112589808.79607      2762.584 7        43.719    21425125.470 4  87732310.08704      2152.666 4        27.313
G22  23192245.930 5 121876089.20205     -1188.016 5        33.313    23192247.390 1  94968378.76901      -925.728 1         8.469
G23                                                                                                                                  24122734.702 5  98778572.28205      -794.850 5        32.219
G24  19995435.609 8 105076717.71408      1684.177 8        49.125    19995437.665 8  81877964.63508      1312.349 8        52.750    19995438.286 7  81877964.63107      1312.351 7        47.844
G32  24574912.178 5                      5107.973 5        30.188                                                                    24574933.179 3                      3984.004 3        20.875
> 2024 02 29 08 21  4.0000000  0 12
G02  25445918.427 5 133719207.94105       399.775 5        31.188
G10  23568732.326 5                       871.265 5        30.500
G12  22104886.672 7 116161976.65307      4988.901 7        44.938    22104885.485 6  90515828.15606      3887.455 6        41.125    22104887.085 6  90515841.17006      3887.458 6        41.094
G13  24285919.831 6 127623370.17406     -2141.959 6        36.906    24285923.512 3  99446797.55603     -1669.025 3        20.469
G14  24675145.471 5                     -1718.029 5        31.875                                                                    24675165.630 5                     -1338.813 5        31.719
G15  22752005.650 6 119562560.89906     -1818.777 6        37.000    22752007.754 4  93165656.51204     -1417.228 4        24.531    22752007.228 5  93165621.51105     -1417.378 5        32.656
G17  22314049.622 6 117261135.33306       403.535 6        40.625    22314051.118 5  91372303.13305       314.447 5        31.375    22314051.277 5  91372309.15305       314.634 5        35.500
G19  21424602.792 7 112587046.77107      2761.573 7        43.813    21424599.867 4  87730157.85704      2151.872 4        27.531
G22  23192472.297 5 121877277.44605     -1188.688 5        31.781    23192473.395 1  94969304.64801      -926.361 1         7.500
G23                                                                                                                                  24122929.217 5  98779367.37105      -795.273 5        32.250
G24  19995115.156 8 105075033.97008      1683.346 8        49.031    19995117.255 8  81876652.62508      1311.696 8        52.781    19995117.933 7  81876652.63007      1311.625 7        47.688
G32  24573939.869 5                      5107.545 5        30.969                                                                    24573958.477 3                      3979.024 3        19.938
> 2024 02 29 08 21  5.0000000  0 13
G01                                                                                                                                  23922704.425 4  97959481.25904      1561.936 4        27.625
G02  25445842.211 5 133718808.00805       399.705 5        32.344
G10  23568567.730 5                       871.151 5        31.125
G12  22103937.258 7 116156987.36207      4989.184 7        45.156    22103936.084 6  90511940.39706      3887.676 6        41.125    22103937.823 6  90511953.40606      3887.726 6        41.188
G13  24286327.207 6 127625511.54306     -2141.658 6        36.531    24286331.056 3  99448466.14003     -1668.807 3        20.281
G14  24675473.026 5                     -1717.503 5        32.375                                                                    24675492.211 5                     -1338.474 5        31.250
G15  22752352.115 6 119564379.40306     -1818.805 6        36.406    22752353.751 4  93167073.52604     -1417.243 4        24.875    22752353.002 5  93167038.46405     -1417.077 5        33.438
G17  22313973.017 6 117260731.63706       403.489 6        40.313    22313974.251 5  91371988.56605       314.409 5        31.313    22313974.400 5  91371994.55405       314.338 5        35.500
G19  21424077.327 7 112584285.09207      2761.450 7        44.156    21424074.339 4  87728005.90204      2151.780 4        27.594
G22  23192698.334 5 121878465.47605     -1187.873 5        31.656    23192699.502 1  94970230.39001      -925.563 1         6.500
G23                                                                                                                                  24123123.186 5  98780162.42605      -795.201 5        33.188
G24  19994794.816 8 105073350.50508      1683.217 8        48.813    19994796.890 8  81875340.83308      1311.600 8        52.719    19994797.541 7  81875340.82707      1311.654 7        47.406
G32  24572967.635 4                      5107.630 4        29.563                                                                    24572988.050 3                      3978.441 3        19.094
> 2024 02 29 08 21  6.0000000  0 13
G01                                                                                                                                  23922323.130 4  97957919.78504      1561.008 4        28.375
G02  25445766.111 5 133718408.70905       398.630 5        32.531
G10  23568403.192 4                       870.480 4        28.063
G12  22102987.858 7 116151998.61507      4988.237 7        45.094    22102986.767 6  90508053.06606      3886.939 6        41.125    22102988.511 6  90508066.06806      3886.994 6        41.594
G13  24286734.561 6 127627653.15906     -2142.218 6        37.250    24286738.608 3  99450134.92103     -1669.256 3        20.219
G14  24675800.224 5                     -1717.818 5        31.625                                                                    24675818.917 5                     -1338.450 5        31.281
G15  22752698.512 5 119566198.36505     -1819.398 5        35.750    22752699.881 4  93168490.89604     -1417.712 4        25.063    22752699.255 5  93168455.87305     -1417.495 5        32.844
G17  22313896.476 6 117260328.69806       402.320 6        40.500    22313897.518 5  91371674.58405       313.503 5        31.313    22313897.528 6  91371680.59106       313.581 6        36.000
G19  21423551.944 7 112581524.28707      2760.246 7        43.969    21423548.995 4  87725854.62704      2150.840 4        27.750
G22  23192924.758 5 121879653.91405     -1188.675 5        30.969    23192925.592 1  94971156.48001      -926.363 1         6.625
G23                                                                                                                                  24123318.046 5  98780957.89005      -795.807 5        31.469
G24  19994474.605 8 105071667.80408      1682.248 8        48.969    19994476.664 8  81874029.63808      1310.842 8        52.688    19994477.244 7  81874029.63907      1310.742 7        47.094
G32  24571995.214 5                      5106.899 5        30.531
> 2024 02 29 08 21  7.0000000  0 13
G01                                                                                                                                  23921941.654 4  97956359.10604      1560.374 4        28.000
G02  25445690.802 5 133718010.28905       398.335 5        32.438
G10  23568239.182 4                       869.202 4        28.281
G12  22102038.550 7 116147010.49207      4988.301 7        45.156    22102037.571 6  90504166.21506      3886.991 6        41.094    22102039.225 6  90504179.23206      3887.050 6        41.375
G13  24287142.814 6 127629795.12106     -2141.452 6        37.094    24287146.251 3  99451803.98103     -1668.656 3        20.188
G14  24676127.318 5                     -1718.486 5        31.375                                                                    24676145.578 5                     -1339.186 5        31.156
G15  22753044.760 5 119568017.84505     -1819.292 5        35.906    22753046.083 4  93169908.67604     -1417.630 4        25.250    22753045.725 5  93169873.67305     -1417.542 5        34.781
G17  22313820.218 6 117259926.58206       402.139 6        40.125    22313820.919 5  91371361.24405       313.359 5        31.281    22313820.997 6  91371367.25606       313.305 6        36.219
G19  21423026.724 7 112578764.46107      2759.863 7        43.781    21423023.825 4  87723704.10904      2150.543 4        27.781
G22  23193151.058 5 121880842.83805     -1188.636 5        30.281    23193152.066 1  94972082.90101      -926.174 1         6.375
G23  24123519.526 3                     -1021.001 3        22.313                                                                    24123512.286 5  98781753.87905      -795.768 5        32.188
G24  19994154.579 8 105069985.97308      1681.915 8        48.875    19994156.594 8  81872719.12308      1310.581 8        52.500    19994157.174 7  81872719.12607      1310.466 7        47.031
G32  24571022.819 4                      5106.453 4        26.281
> 2024 02 29 08 21  8.0000000  0 13
G01                                                                                                                                  23921560.185 4  97954798.96904      1558.620 4        28.031
G02  25445615.068 5 133717612.35005       397.017 5        32.563
G10  23568076.200 4                       868.420 4        26.438                                                                    23568068.314 3                       674.020 3        18.719
G12  22101089.428 7 116142022.75607      4986.863 7        45.469    22101088.442 6  90500279.66606      3885.864 6        41.250    22101090.043 6  90500292.68406      3885.809 6        41.344
G13  24287550.993 6 127631937.23306     -2142.635 6        36.719    24287553.960 3  99453473.14103     -1669.566 3        20.094
G14  24676453.452 5                     -1718.522 5        30.000                                                                    24676470.933 5                     -1339.022 5        31.375
G15  22753390.845 5 119569837.69505     -1820.597 5        35.594    22753392.365 4  93171326.74504     -1418.631 4        25.656    22753392.319 5  93171291.75505     -1418.657 5        34.656
G17  22313743.614 6 117259525.09106       400.724 6        40.688    22313744.441 5  91371048.39305       312.252 5        31.250    22313744.690 6  91371054.42706       312.094 6        36.313
G19  21422501.550 7 112576005.37007      2757.990 7        43.656    21422498.741 4  87721554.17104      2149.078 4        27.906
G22  23193376.944 5 121882031.92605     -1189.342 5        30.750    23193378.478 1  94973009.47001      -926.662 1         5.563
G23  24123711.484 3                     -1021.029 3        23.156                                                                    24123707.251 5  98782550.14305      -796.748 5        31.844
G24  19993834.644 8 105068304.77908      1680.303 8        48.906    19993836.645 8  81871409.10408      1309.326 8        52.469    19993837.180 7  81871409.09307      1309.329 7        47.063
G32  24570050.223 4                      5105.758 4        25.656
> 2024 02 29 08 21  9.0000000  0 13
G01                                                                                                                                  23921179.768 4  97953239.36804      1559.574 4        28.875
G02  25445539.372 5 133717214.90205       397.308 5        32.688
G10  23567912.118 4                       867.495 4        24.156
G12  22100140.329 7 116137035.29707      4987.463 7        45.625    22100139.385 6  90496393.33406      3886.331 6        41.219    22100140.886 6  90496406.36206      3886.325 6        41.500
G13  24287958.867 6 127634079.38406     -2141.930 6        36.438    24287961.642 3  99455142.33703     -1669.022 3        19.938
G14  24676780.716 5                     -1718.631 5        31.375                                                                    24676796.735 5                     -1338.963 5        31.000
G15  22753736.883 6 119571657.75706     -1820.365 6        36.094    22753738.746 4  93172744.96804     -1418.458 4        25.750    22753738.674 5  93172709.95905     -1418.277 5        33.094
G17  22313667.129 6 117259124.11806       400.945 6        39.750    22313668.061 5  91370735.94705       312.424 5        31.250    22313668.437 5  91370741.99105       312.355 5        35.625
G19  21421976.647 7 112573246.89607      2758.275 7        43.594    21421973.777 4  87719404.71304      2149.298 4        27.875
G22  23193603.250 5 121883221.19405     -1189.526 5        30.781    23193605.068 1  94973936.10501      -926.862 1         5.844
G23  24123903.714 4                     -1020.184 4        24.563                                                                    24123901.781 5  98783346.54305      -796.760 5        30.281
G24  19993514.778 8 105066624.11908      1680.518 8        48.969    19993516.799 8  81870099.49608      1309.493 8        52.406    19993517.328 7  81870099.47707      1309.541 7        47.063
G32  24569078.415 4                      5106.004 4        29.313
> 2024 02 29 08 21 10.0000000  0 13
G01                                                                                                                                  23920798.906 4  97951680.08204      1558.945 4        29.906
G02  25445463.654 5 133716817.67105       396.232 5        31.594
G10  23567746.811 4                       867.804 4        26.375
G12  22099191.355 7 116132047.87407      4986.790 7        45.469    22099190.346 6  90492507.03306      3885.812 6        41.188    22099191.830 6  90492520.05306      3885.746 6        41.563
G13  24288366.518 6 127636221.30506     -2142.522 6        38.000    24288369.284 3  99456811.37103     -1669.500 3        20.031
G14  24677108.008 5                     -1718.152 5        31.063                                                                    24677122.757 5                     -1338.873 5        32.313
G15  22754083.001 5 119573477.77005     -1820.645 5        35.906    22754085.123 4  93174163.15304     -1418.671 4        25.688    22754084.895 5  93174128.10305     -1418.693 5        33.688
G17  22313590.859 6 117258723.44606       399.854 6        39.594    22313591.762 5  91370423.74105       311.572 5        31.156    22313592.312 6  91370429.74406       311.684 6        36.156
G19  21421451.626 7 112570488.80207      2757.227 7        43.656    21421448.960 4  87717255.54904      2148.493 4        27.875
G22  23193829.646 5 121884410.35305     -1190.153 5        30.406    23193831.198 1  94974862.71601      -927.344 1         6.000
G23  24124097.260 4                     -1022.598 4        25.781                                                                    24124096.325 4  98784143.02804      -796.653 4        29.031
G24  19993195.069 8 105064943.71008      1679.675 8        49.219    19993197.007 8  81868790.08208      1308.840 8        52.375    19993197.565 7  81868790.07107      1308.789 7        47.500
G32  24568107.657 5                      5106.232 5        31.125
> 2024 02 29 08 21 11.0000000  0 13
G01                                                                                                                                  23920417.928 5  97950121.47105      1558.264 5        31.563
G02  25445388.422 5 133716420.90605       396.047 5        31.750
G10  23567580.932 4                       867.828 4        24.406
G12  22098242.343 7 116127060.82007      4986.442 7        45.438    22098241.365 6  90488621.01806      3885.538 6        41.125    22098242.636 6  90488634.03006      3885.624 6        41.563
G13  24288774.252 6 127638363.29606     -2142.411 6        38.469    24288776.993 3  99458480.44803     -1669.391 3        20.313
G14  24677433.971 5                     -1718.217 5        30.625                                                                    24677449.230 5                     -1339.000 5        30.813
G15  22754428.769 6 119575298.05106     -1820.657 6        36.656    22754431.562 4  93175581.54904     -1418.691 4        25.375    22754431.848 5  93175546.55405     -1419.317 5        32.875
G17  22313514.749 6 117258323.35906       399.432 6        39.813    22313515.583 5  91370111.98805       311.241 5        31.063    22313516.008 5  91370117.98405       311.233 5        35.844
G19  21420926.796 7 112567731.41107      2756.709 7        43.438    21420924.282 4  87715106.93204      2148.083 4        27.813
G22  23194056.312 4 121885599.61604     -1190.155 4        28.625    23194057.641 1  94975789.41801      -927.414 1         7.375
G23  24124290.867 4                     -1022.704 4        29.906                                                                    24124291.266 4  98784939.70704      -796.701 4        29.531
G24  19992875.530 8 105063263.92608      1679.102 8        49.031    19992877.344 8  81867481.15708      1308.401 8        52.375    19992877.884 7  81867481.14207      1308.339 7        47.344
G32  24567137.516 5                      5106.034 5        30.094                                                                    24567154.501 4                      3978.688 4        24.625
> 2024 02 29 08 21 12.0000000  0 13
G01                                                                                                                                  23920037.455 5  97948563.31205      1558.853 5        30.438
G02  25445313.609 5 133716024.66605       396.879 5        32.969
G10  23567414.257 3                       866.064 3        23.719                                                                    23567418.498 3                       674.957 3        22.813
G12  22097293.407 7 116122074.07607      4987.586 7        45.219    22097292.446 6  90484735.24706      3886.427 6        41.156    22097293.719 6  90484748.26306      3886.423 6        41.125
G13  24289181.685 6 127640505.37406     -2141.170 6        39.063    24289184.742 3  99460149.58903     -1668.432 3        20.563
G14  24677761.008 5                     -1718.517 5        30.656                                                                    24677776.481 5                     -1338.935 5        31.906
G15  22754775.080 6 119577118.54306     -1819.730 6        36.344    22754777.978 4  93177000.11104     -1417.965 4        24.875    22754778.038 5  93176965.10705     -1417.766 5        30.625
G17  22313438.621 6 117257923.80106       400.387 6        39.375    22313439.476 5  91369800.63505       311.986 5        31.156    22313439.978 5  91369806.65305       311.904 5        34.688
G19  21420402.078 7 112564974.68207      2757.531 7        43.344    21420399.730 4  87712958.83704      2148.733 4        27.906
G22  23194283.224 5 121886789.12505     -1188.622 5        30.781    23194283.932 1  94976716.28301      -926.242 1         7.250
G23  24124484.287 4                     -1022.859 4        26.563                                                                    24124486.089 5  98785736.73805      -796.376 5        30.406
G24  19992556.025 8 105061584.67308      1680.012 8        49.313    19992557.770 8  81866172.64208      1309.105 8        52.500    19992558.376 7  81866172.63207      1309.021 7        47.563
G32  24566166.288 4                      5105.828 4        28.156                                                                    24566182.947 4                      3979.198 4        25.594
> 2024 02 29 08 21 13.0000000  0 13
G01                                                                                                                                  23919657.286 5  97947005.74705      1557.669 5        30.656
G02  25445238.375 5 133715628.91005       395.986 5        34.156
G10  23567247.622 3                       866.823 3        21.156                                                                    23567251.375 3                       673.867 3        23.781
G12  22096344.586 7 116117087.69207      4986.432 7        44.438    22096343.586 6  90480849.75206      3885.531 6        41.063    22096344.920 6  90480862.77006      3885.511 6        41.063
G13  24289589.217 6 127642647.48006     -2142.010 6        38.656    24289592.501 3  99461818.75203     -1669.089 3        20.938
G14  24678088.156 5                     -1718.328 5        32.500                                                                    24678103.768 5                     -1339.036 5        31.094
G15  22755121.315 5 119578939.36005     -1820.703 5        34.375    22755124.377 4  93178418.92504     -1418.714 4        24.406    22755123.981 5  93178383.84005     -1418.072 5        32.094
G17  22313362.312 6 117257524.80106       399.127 6        40.125    22313363.463 5  91369489.72805       311.011 5        31.000    22313364.026 5  91369495.76705       310.716 5        34.156
G19  21419877.663 7 112562218.62807      2755.980 7        43.344    21419875.307 4  87710811.26004      2147.515 4        28.094
G22  23194508.694 5 121887978.68205     -1189.619 5        30.688    23194510.232 1  94977643.24501      -927.049 1         7.500
G23  24124676.867 4                     -1022.971 4        28.875                                                                    24124681.356 4  98786533.94704      -797.196 4        29.000
G24  19992236.668 8 105059906.01408      1678.800 8        49.531    19992238.309 8  81864864.59408      1308.162 8        52.719    19992238.928 7  81864864.59007      1307.997 7        47.844
G32  24565194.377 4                      5105.297 4        28.063                                                                    24565211.934 4                      3978.532 4        24.844
> 2024 02 29 08 21 14.0000000  0 13
G01                                                                                                                                  23919277.239 5  97945449.07905      1556.428 5        31.625
G02  25445163.239 5 133715234.00005       394.895 5        32.563
G10  23567081.997 3                       866.042 3        22.969
G12  22095395.632 7 116112101.95307      4985.871 7        44.469    22095394.864 6  90476964.75906      3885.097 6        41.094    22095396.056 6  90476977.77706      3884.990 6        41.438
G13  24289996.691 6 127644790.00606     -2142.201 6        38.500    24290000.340 3  99463488.24103     -1669.225 3        21.281
G14  24678415.662 5                     -1718.821 5        33.000                                                                    24678431.037 4                     -1339.420 4        29.094
G15  22755468.076 5 119580760.74905     -1820.753 5        32.406    22755470.878 3  93179838.19103     -1418.785 3        23.906    22755470.542 5  93179803.19605     -1419.144 5        33.063
G17  22313286.402 6 117257126.74806       398.106 6        41.469    22313287.584 5  91369179.55905       310.198 5        31.031    22313288.218 5  91369185.60205       309.907 5        34.406
G19  21419353.491 7 112559463.60807      2754.934 7        43.219    21419351.107 4  87708664.49104      2146.695 4        28.281
G22  23194735.840 5 121889168.82805     -1190.417 5        30.125    23194736.760 1  94978570.62701      -927.549 1         6.750
G23  24124870.622 4                     -1023.474 4        26.031                                                                    24124875.145 4  98787331.73104      -797.921 4        29.031
G24  19991917.477 8 105058228.31408      1677.615 8        49.344    19991919.044 8  81863557.29308      1307.234 8        52.938    19991919.680 7  81863557.27007      1307.391 7        47.781
G32  24564222.930 5                      5104.850 5        30.625                                                                    24564239.544 3                      3977.207 3        20.844
> 2024 02 29 08 21 15.0000000  0 13
G01                                                                                                                                  23918897.301 5  97943893.24405      1556.032 5        31.500
G02  25445088.145 5 133714840.09505       394.461 5        35.000
G10  23566915.523 4                       864.581 4        27.313
G12  22094446.976 7 116107117.04507      4985.415 7        45.125    22094446.276 6  90473080.41406      3884.739 6        40.875    22094447.382 6  90473093.42106      3884.760 6        40.375
G13  24290404.554 6 127646933.06306     -2142.424 6        38.969    24290408.111 3  99465158.14403     -1669.400 3        21.188
G14  24678743.620 5                     -1718.964 5        33.969                                                                    24678758.065 4                     -1339.827 4        27.813
G15  22755814.540 5 119582582.97705     -1821.955 5        31.875    22755817.612 3  93181258.10203     -1419.702 3        23.500    22755817.008 5  93181223.00205     -1419.301 5        32.031
G17  22313210.979 6 117256729.68506       397.444 6        40.594    22313211.879 5  91368870.16505       309.691 5        31.031    22313212.323 5  91368876.19805       309.728 5        34.063
G19  21418829.499 7 112556709.71807      2754.231 7        42.875    21418827.154 4  87706518.60404      2146.154 4        28.406
G22  23194962.426 5 121890359.62005     -1189.869 5        31.719    23194963.051 1  94979498.46601      -927.130 1         6.750
G23  24125064.400 4                     -1024.519 4        28.313                                                                    24125069.969 4  98788130.16104      -798.911 4        25.813
G24  19991598.475 8 105056551.63308      1677.033 8        49.156    19991599.980 8  81862250.78608      1306.785 8        53.031    19991600.705 8  81862250.76008      1306.863 8        48.313
G32  24563252.172 4                      5104.122 4        28.406                                                                    24563267.207 4                      3976.773 4        24.344
> 2024 02 29 08 21 16.0000000  0 13
G01                                                                                                                                  23918517.432 5  97942337.72505      1555.519 5        31.281
G02  25445013.492 5 133714446.33305       393.627 5        35.000
G10  23566748.548 3                       865.650 3        20.344                                                                    23566752.923 4                       672.703 4        24.563
G12  22093498.411 7 116102132.09507      4984.947 7        45.125    22093497.662 6  90469196.03806      3884.367 6        40.813    22093498.862 6  90469209.05706      3884.311 6        40.656
G13  24290812.132 6 127649075.86706     -2142.633 6        38.563    24290815.892 3  99466827.85603     -1669.578 3        21.500
G14  24679071.023 5                     -1718.526 5        31.906                                                                    24679085.401 4                     -1339.720 4        29.500
G15  22756160.650 5 119584405.02705     -1821.572 5        33.750    22756164.364 3  93182677.86303     -1419.406 3        22.719    22756162.874 5  93182642.82305     -1419.604 5        31.938
G17  22313135.372 6 117256332.88206       396.782 6        40.500    22313136.264 5  91368560.97605       309.171 5        31.031    22313136.982 5  91368567.02605       309.218 5        34.219
G19  21418305.479 7 112553956.14307      2753.431 7        43.500    21418303.241 4  87704372.96204      2145.541 4        28.500
G22  23195188.932 5 121891550.22505     -1190.925 5        30.094    23195189.619 1  94980426.27401      -928.058 1         6.875
G23  24125258.723 5                     -1024.734 5        30.719                                                                    24125264.808 4  98788928.36104      -798.479 4        28.625
G24  19991279.470 8 105054875.16608      1676.285 8        49.500    19991280.961 8  81860944.44508      1306.201 8        53.188    19991281.773 8  81860944.44008      1306.137 8        48.094
G32  24562281.830 4                      5104.697 4        25.656                                                                    24562299.665 3                      3976.266 3        19.938
> 2024 02 29 08 21 17.0000000  0 13
G01                                                                                                                                  23918137.856 5  97940782.90205      1554.593 5        31.375
G02  25444939.299 5 133714053.24405       393.278 5        35.531
G10  23566584.127 3                       866.520 3        23.250                                                                    23566591.614 4                       672.948 4        24.531
G12  22092549.850 7 116097147.64607      4984.592 7        46.063    22092549.159 6  90465312.05606      3884.101 6        40.750    22092550.075 6  90465325.05806      3884.183 6        41.156
G13  24291219.889 6 127651218.89206     -2142.972 6        38.031    24291223.780 3  99468497.74203     -1669.833 3        21.281
G14  24679397.626 5                     -1719.790 5        32.063                                                                    24679413.413 5                     -1339.608 5        31.031
G15  22756506.844 5 119586227.50005     -1822.173 5        34.813    22756511.175 3  93184097.95903     -1419.873 3        22.844    22756510.037 5  93184062.94305     -1419.964 5        31.406
G17  22313060.114 6 117255936.80006       396.228 6        40.594    22313060.801 5  91368252.35005       308.744 5        31.094    22313061.803 5  91368258.39405       308.476 5        34.688
G19  21417781.798 7 112551203.41607      2752.621 7        43.188    21417779.444 4  87702227.97404      2144.897 4        28.375
G22  23195415.795 5 121892741.14205     -1190.918 5        30.906    23195416.169 1  94981354.29601      -928.033 1         5.406
G23  24125454.080 4                     -1025.364 4        29.625                                                                    24125460.578 4  98789727.04904      -799.023 4        26.344
G24  19990960.629 8 105053199.45108      1675.663 8        49.500    19990962.081 8  81859638.69108      1305.723 8        53.250    19990962.942 7  81859638.70007      1305.645 7        47.688
G32  24561310.299 3                      5102.302 3        23.781                                                                    24561330.007 4                      3977.450 4        27.000
> 2024 02 29 08 21 18.0000000  0 13
G01                                                                                                                                  23917757.727 5  97939228.66005      1553.889 5        32.219
G02  25444864.630 5 133713660.67305       392.655 5        34.500
G10  23566420.899 3                       860.268 3        22.906                                                                    23566422.788 3                       673.232 3        21.688
G12  22091601.487 7 116092163.56807      4983.731 7        46.281    22091600.724 6  90461428.35906      3883.424 6        41.000    22091601.664 6  90461441.38306      3883.408 6        41.594
G13  24291627.687 6 127653361.97506     -2143.152 6        38.594    24291631.713 3  99470167.67203     -1669.973 3        21.375
G14  24679725.002 5                     -1719.176 5        32.281                                                                    24679740.489 4                     -1339.643 4        29.813
G15  22756853.605 5 119588050.29705     -1823.220 5        35.000    22756858.079 3  93185518.31103     -1420.692 3        22.906    22756857.349 5  93185483.32805     -1420.749 5        31.344
G17  22312984.978 6 117255541.37706       394.799 6        40.563    22312985.503 5  91367944.23005       307.645 5        31.094    22312986.688 5  91367950.16605       307.975 5        35.813
G19  21417258.203 7 112548451.40107      2751.572 7        43.219    21417255.727 4  87700083.54104      2144.082 4        28.313
G22  23195641.971 5 121893932.30905     -1192.234 5        32.125    23195642.881 1  94982282.40701      -929.040 1         6.625
G23  24125649.749 5                     -1025.518 5        31.219                                                                    24125657.080 4  98790526.14704      -799.292 4        27.938
G24  19990641.890 8 105051524.35108      1674.678 8        49.188    19990643.317 8  81858333.42008      1304.947 8        53.188    19990644.142 7  81858333.41907      1304.907 7        47.375
G32  24560337.949 4                      5103.267 4        26.375                                                                    24560358.269 4                      3977.167 4        28.563
> 2024 02 29 08 21 19.0000000  0 13
G01                                                                                                                                  23917378.679 5  97937675.02305      1553.577 5        31.875
G02  25444789.872 5 133713268.57005       392.738 5        33.313
G10  23566255.879 4                       861.705 4        26.906                                                                    23566257.302 4                       671.156 4        25.438
G12  22090653.325 7 116087179.76207      4984.263 7        45.813    22090652.355 6  90457544.87506      3883.838 6        41.281    22090653.459 7  90457557.90207      3883.894 7        42.031
G13  24292035.189 6 127655505.14606     -2142.936 6        37.813    24292039.592 3  99471837.66403     -1669.811 3        21.469
G14  24680052.977 5 129694548.27215     -1718.510 5        31.125                                                                    24680068.027 4                     -1339.440 4        28.625
G15  22757200.683 5 119589873.31305     -1822.602 5        34.875    22757205.041 3  93186938.85503     -1420.238 3        23.063    22757204.988 5  93186903.88305     -1420.076 5        33.094
G17  22312909.920 6 117255146.35706       395.351 6        39.688    22312910.300 5  91367636.41005       308.077 5        31.219    22312911.611 6  91367642.40606       307.970 6        36.125
G19  21416734.527 7 112545700.02107      2751.447 7        43.094    21416732.082 4  87697939.61504      2143.979 4        28.156
G22  23195868.350 5 121895123.49205     -1191.288 5        32.938    23195869.306 1  94983210.60401      -928.216 1         6.375
G23  24125846.183 5                     -1025.903 5        30.375                                                                    24125853.661 4  98791325.26304      -798.743 4        29.188
G24  19990323.203 8 105049849.77308      1674.918 8        49.125    19990324.637 8  81857028.55408      1305.132 8        53.000    19990325.406 7  81857028.55107      1305.167 7        47.188
G32  24559366.547 5                      5103.535 5        30.094                                                                    24559386.179 4                      3977.174 4        27.156
> 2024 02 29 08 21 20.0000000  0 13
G01                                                                                                                                  23916999.064 5  97936122.02705      1553.521 5        31.438
G02  25444714.812 5 133712877.17405       391.808 5        33.313
G10  23566094.019 4                       860.391 4        24.875                                                                    23566091.794 3                       671.071 3        21.250
G12  22089705.203 7 116082196.53207      4983.569 7        45.313    22089704.112 6  90453661.84006      3883.302 6        41.500    22089705.234 7  90453674.85607      3883.201 7        42.219
G13  24292443.119 6 127657648.58806     -2143.183 6        38.031    24292447.668 3  99473507.86803     -1670.030 3        21.000
G14  24680380.913 4 129696267.91604     -1719.616 4        28.094                                                                    24680395.488 4                     -1339.950 4        29.281
G15  22757548.150 5 119591696.83505     -1822.919 5        35.000    22757552.065 3  93188359.79403     -1420.468 3        23.000    22757552.505 5  93188324.75505     -1420.376 5        32.031
G17  22312835.058 6 117254752.19706       394.627 6        39.781    22312835.275 5  91367329.26605       307.531 5        31.188    22312837.399 5  91367335.26205       307.366 5        35.875
G19  21416211.176 7 112542949.54107      2750.646 7        42.969    21416208.634 4  87695796.38704      2143.355 4        28.000
G22  23196095.938 5 121896315.17705     -1191.859 5        31.438    23196096.102 1  94984139.19001      -928.696 1         6.000
G23  24126042.299 5                     -1026.375 5        30.969                                                                    24126049.117 4  98792124.85304      -799.022 4        28.406
G24  19990004.669 8 105048175.98508      1674.076 8        48.813    19990006.106 8  81855724.30108      1304.471 8        52.781    19990006.829 7  81855724.31407      1304.382 7        46.969
G32  24558395.217 4                      5102.905 4        29.063                                                                    24558412.564 4                      3976.338 4        25.469
> 2024 02 29 08 21 21.0000000  0 13
G01                                                                                                                                  23916619.412 5  97934569.58805      1552.180 5        30.531
G02  25444639.674 5 133712486.33105       390.279 5        33.813
G10  23565929.522 3                       861.318 3        21.719
G12  22088757.070 7 116077213.63007      4982.672 7        45.344    22088755.944 6  90449779.05906      3882.613 6        41.531    22088756.899 6  90449792.06806      3882.463 6        40.656
G13  24292851.147 6 127659792.09306     -2143.897 6        39.094    24292855.757 3  99475178.13703     -1670.565 3        21.000
G14  24680707.226 4 129697987.53904     -1719.536 4        29.750                                                                    24680722.426 5                     -1340.025 5        30.063
G15  22757895.308 5 119593520.52005     -1823.578 5        34.969    22757899.090 3  93189780.84903     -1420.958 3        22.906    22757899.784 5  93189745.88105     -1421.553 5        31.906
G17  22312759.855 6 117254358.54306       393.356 6        40.188    22312760.317 5  91367022.51405       306.514 5        31.000    22312762.093 5  91367028.54005       306.367 5        34.406
G19  21415687.961 7 112540199.73407      2749.152 7        43.250    21415685.347 4  87693653.67704      2142.203 4        28.063
G22  23196322.429 5 121897506.84505     -1192.122 5        32.000    23196322.894 1  94985067.72701      -928.883 1         6.500
G23  24126237.392 5                     -1026.545 5        31.531
G24  19989686.283 8 105046502.78808      1672.736 8        49.156    19989687.682 8  81854420.51308      1303.433 8        52.813    19989688.343 7  81854420.49507      1303.461 7        47.375
G32  24557424.132 4                      5102.780 4        28.875                                                                    24557442.011 4                      3977.152 4        24.000
> 2024 02 29 08 21 22.0000000  0 13
G01                                                                                                                                  23916239.215 5  97933017.85905      1551.081 5        30.875
G02  25444565.144 5 133712096.05405       389.852 5        35.813
G10  23565765.480 3                       858.541 3        23.344
G12  22087808.779 7 116072231.21607      4982.310 7        45.125    22087807.817 6  90445896.65706      3882.323 6        41.250    22087808.753 6  90445909.68706      3882.232 6        40.563
G13  24293259.011 6 127661935.81906     -2143.634 6        39.531    24293263.837 3  99476848.56503     -1670.360 3        21.594
G14  24681034.767 4 129699707.37804     -1720.001 4        28.375                                                                    24681050.594 5                     -1340.357 5        30.656
G15  22758242.581 5 119595344.68505     -1824.161 5        35.156    22758246.160 3  93191202.26203     -1421.362 3        22.719    22758247.133 4  93191167.17004     -1421.358 4        29.844
G17  22312685.144 6 117253965.63706       392.575 6        39.406    22312685.493 5  91366716.35405       305.900 5        30.813    22312687.291 5  91366722.37205       305.840 5        34.313
G19  21415164.656 7 112537450.73907      2748.714 7        44.063    21415162.230 4  87691511.60204      2141.850 4        28.125
G22  23196549.504 4 121898699.04604     -1192.549 4        28.406    23196549.851 1  94985996.72901      -929.432 1         5.563
G23  24126433.548 4                     -1026.561 4        28.969
G24  19989367.970 8 105044830.32808      1672.146 8        49.406    19989369.405 8  81853117.29508      1302.979 8        52.875    19989370.112 7  81853117.27507      1302.981 7        47.563
G32  24556453.902 3                      5103.226 3        19.250
> 2024 02 29 08 21 23.0000000  0 13
G01                                                                                                                                  23915860.676 5  97931466.53705      1550.921 5        30.906
G02  25444491.016 6 133711706.11906       389.303 6        36.250
G10  23565602.096 3                       860.911 3        21.156                                                                    23565595.185 4                       669.160 4        25.875
G12  22086860.657 7 116067248.98207      4981.989 7        45.000    22086859.722 6  90442014.39706      3882.076 6        41.156    22086860.715 6  90442027.38706      3882.124 6        40.344
G13  24293667.010 6 127664079.47706     -2143.878 6        39.406    24293671.917 3  99478518.93903     -1670.533 3        21.906
G14  24681362.086 5 129701427.17805     -1720.309 5        30.344                                                                    24681378.302 4                     -1340.030 4        29.344
G15  22758589.966 5 119597168.89105     -1824.400 5        35.656    22758593.251 3  93192623.68503     -1421.581 3        22.813    22758593.707 5  93192588.67305     -1422.147 5        30.781
G17  22312610.729 6 117253573.12606       392.368 6        37.250    22312610.759 5  91366410.51005       305.733 5        30.625    22312612.569 5  91366416.51605       305.641 5        35.500
G19  21414641.432 7 112534702.25107      2748.193 7        42.531    21414639.242 4  87689369.92404      2141.448 4        27.938
G22  23196775.209 4 121899891.22904     -1192.400 4        27.250    23196776.853 1  94986925.75001      -929.109 1         4.844
G23  24126629.508 5                     -1026.837 5        31.438                                                                    24126633.592 4                      -800.948 4        25.469
G24  19989049.673 8 105043158.24708      1671.722 8        48.875    19989051.204 8  81851814.36908      1302.645 8        52.906    19989051.798 7  81851814.34507      1302.701 7        47.844
G32  24555482.428 4                      5103.040 4        24.063                                                                    24555495.358 4                      3976.978 4        26.031
> 2024 02 29 08 21 24.0000000  0 13
G01                                                                                                                                  23915482.309 4  97929915.87804      1550.835 4        29.719
G02  25444417.279 6 133711316.83306       389.872 6        36.531
G10  23565439.736 4                       857.787 4        24.281                                                                    23565434.501 4                       669.256 4        27.344
G12  22085912.651 7 116062267.18207      4982.517 7        44.313    22085911.724 6  90438132.47206      3882.481 6        40.875    22085912.527 6  90438145.49406      3882.285 6        40.188
G13  24294074.755 6 127666223.22306     -2142.869 6        38.375    24294080.016 3  99480189.36903     -1669.756 3        21.813
G14  24681690.044 5 129703147.06205     -1719.458 5        30.969                                                                    24681706.165 4                     -1339.878 4        24.938
G15  22758937.008 6 119598993.55106     -1824.113 6        36.500    22758940.540 3  93194045.46503     -1421.368 3        23.156    22758940.900 5  93194010.51605     -1421.767 5        33.250
G17  22312535.619 6 117253181.27806       392.444 6        38.063    22312536.132 5  91366105.17305       305.803 5        30.219    22312537.566 5  91366111.21505       305.488 5        33.813
G19  21414118.443 7 112531954.55507      2748.431 7        42.500    21414116.438 4  87687228.85804      2141.664 4        28.031
G22  23197002.408 4 121901083.45004     -1191.717 4        28.469    23197003.725 1  94987854.69601      -928.697 1         4.563
G23  24126825.589 5                     -1027.470 5        32.313                                                                    24126828.609 3                      -801.407 3        22.875
G24  19988731.598 8 105041486.86808      1671.873 8        48.969    19988733.151 8  81850511.99108      1302.761 8        52.969    19988733.759 8  81850511.97308      1302.978 8        48.031
G32  24554512.954 4                      5101.773 4        25.969                                                                    24554522.024 4                      3975.768 4        24.406
> 2024 02 29 08 21 25.0000000  0 13
G01                                                                                                                                  23915104.065 4  97928365.72704      1550.082 4        29.156
G02  25444344.065 5 133710928.04805       388.207 5        35.063
G10  23565278.614 4                       857.490 4        28.906                                                                    23565272.977 5                       668.433 5        30.688
G12  22084964.675 7 116057285.72907      4981.439 7        44.438    22084963.789 6  90434250.82806      3881.651 6        40.500    22084964.577 6  90434263.86406      3881.400 6        39.781
G13  24294482.761 6 127668367.09506     -2143.798 6        39.063    24294488.082 3  99481859.91403     -1670.492 3        21.750
G14  24682016.483 5 129704866.90705     -1720.082 5        34.375                                                                    24682034.749 5                     -1340.360 5        31.500
G15  22759284.059 6 119600818.43606     -1824.742 6        36.063    22759287.896 3  93195467.46603     -1421.826 3        22.906    22759288.723 5  93195432.38905     -1421.729 5        30.406
G17  22312460.630 6 117252790.02806       391.372 6        36.656    22312461.599 4  91365800.31204       304.968 4        29.625    22312462.634 5  91365806.32105       305.022 5        33.281
G19  21413595.626 7 112529207.56707      2746.659 7        42.813    21413593.732 4  87685088.34704      2140.235 4        27.844
G22  23197228.176 4 121902275.93304     -1190.944 4        24.344    23197230.651 1  94988783.87001      -928.002 1         5.000
G23  24127022.354 5                     -1027.953 5        30.969                                                                    24127021.430 4                      -801.454 4        26.250
G24  19988413.622 8 105039816.06608      1670.652 8        48.719    19988415.205 8  81849210.05908      1301.819 8        52.969    19988415.833 7  81849210.05907      1301.727 7        47.813
G32  24553542.665 4                      5101.132 4        27.906                                                                    24553549.410 3                      3974.356 3        19.313
> 2024 02 29 08 21 26.0000000  0 12
G01                                                                                                                                  23914725.659 5  97926816.06805      1549.842 5        30.063
G02  25444270.133 6 133710539.55706       389.004 6        36.125
G10  23565116.294 4                       858.590 4        24.781                                                                    23565110.657 4                       667.581 4        26.156
G12  22084016.870 7 116052304.39507      4981.565 7        43.969    22084015.823 6  90430369.27406      3881.725 6        40.281    22084016.470 6  90430382.27406      3881.579 6        39.656
G13  24294890.865 6 127670510.81606     -2143.279 6        40.250    24294896.037 3  99483530.32903     -1670.071 3        21.594
G14  24682344.027 5 129706586.71905     -1719.008 5        33.781                                                                    24682363.606 4                     -1340.295 4        26.906
G15  22759631.188 5 119602643.36205     -1825.002 5        35.250    22759635.153 3  93196889.45403     -1422.074 3        22.875    22759635.243 5  93196854.45605     -1422.017 5        30.219
G17  22312386.237 5 117252399.07705       390.999 5        35.500    22312387.080 4  91365495.66604       304.668 4        29.063    22312387.849 5  91365501.69105       304.702 5        35.250
G19  21413072.889 6 112526461.02306      2746.587 6        41.281    21413071.111 4  87682948.18604      2140.201 4        27.813
G23  24127219.829 5                     -1028.265 5        31.656                                                                    24127217.094 4                      -801.435 4        24.375
G24  19988095.670 8 105038145.65808      1670.736 8        48.406    19988097.327 8  81847908.43708      1301.885 8        52.813    19988097.942 7  81847908.44107      1301.798 7        47.781
G32  24552571.272 4                      5100.547 4        25.281                                                                    24552577.132 4                      3974.842 4        26.250
> 2024 02 29 08 21 27.0000000  0 13
G01                                                                                                                                  23914347.843 5  97925266.85505      1547.861 5        30.031
G02  25444197.129 5 133710151.46505       386.931 5        35.750
G10  23564953.438 4                       857.223 4        27.938                                                                    23564948.244 4                       667.454 4        27.875
G12  22083068.843 7 116047323.31507      4979.852 7        43.469    22083067.898 6  90426487.91306      3880.416 6        40.063    22083068.368 6  90426500.91306      3880.082 6        40.000
G13  24295299.034 6 127672654.53206     -2144.330 6        40.031    24295303.979 3  99485200.75203     -1670.920 3        21.656
G14  24682672.382 5 129708306.52005     -1720.901 5        32.281                                                                    24682691.979 4                     -1340.114 4        29.969
G15  22759978.511 5 119604468.49305     -1825.932 5        35.156    22759982.397 3  93198311.64903     -1422.841 3        22.656    22759981.783 5  93198276.64205     -1423.350 5        31.531
G17  22312311.557 6 117252008.72206       389.044 6        36.844    22312312.708 4  91365191.49104       303.165 4        28.625    22312314.082 5  91365197.46605       303.651 5        32.875
G19  21412550.163 7 112523715.06007      2744.652 7        42.281    21412548.589 4  87680808.46804      2138.698 4        27.938
G22  23197683.432 5                     -1192.750 5        30.563
G23  24127415.467 5                     -1028.417 5        33.344                                                                    24127413.707 4                      -801.051 4        24.375
G24  19987777.813 8 105036475.73408      1668.686 8        48.719    19987779.542 8  81846607.19608      1300.276 8        52.688    19987780.128 7  81846607.19707      1300.204 7        47.813
G32  24551600.224 4                      5101.168 4        27.250                                                                    24551607.890 4                      3975.347 4        26.031
> 2024 02 29 08 21 28.0000000  0 13
G01                                                                                                                                  23913969.729 5  97923718.35905      1548.628 5        30.188
G02  25444123.284 5 133709764.06805       386.088 5        33.125
G10  23564790.242 3                       855.330 3        23.594                                                                    23564788.410 4                       667.215 4        26.406
G12  22082121.018 7 116042342.66107      4980.460 7        44.438    22082120.092 6  90422606.88106      3880.868 6        39.969    22082120.643 6  90422619.87806      3880.588 6        41.656
G13  24295706.916 6 127674798.36206     -2143.715 6        39.031    24295711.831 3  99486871.25203     -1670.440 3        21.625
G14  24682999.584 5 129710026.42005     -1719.975 5        32.250                                                                    24683020.393 5                     -1340.212 5        31.563
G15  22760325.944 5 119606294.05505     -1826.077 5        35.125    22760329.766 3  93199734.16503     -1422.945 3        22.656    22760330.053 5  93199699.24305     -1422.552 5        31.844
G17  22312237.082 6 117251618.93806       389.627 6        37.375    22312238.501 4  91364887.74304       303.603 4        28.594    22312240.038 5  91364893.73405       303.522 5        35.438
G19  21412027.770 7 112520969.89107      2744.651 7        42.438    21412026.138 4  87678669.37204      2138.692 4        27.969
G22  23197910.627 5                     -1193.041 5        31.750
G23  24127611.821 5                     -1028.892 5        32.406                                                                    24127611.326 3                      -801.533 3        23.656
G24  19987460.108 8 105034806.49608      1668.657 8        48.406    19987461.882 8  81845306.49108      1300.241 8        52.813    19987462.532 7  81845306.49607      1300.277 7        47.219
G32  24550629.350 4                      5100.594 4        28.531                                                                    24550639.734 4                      3974.397 4        29.750
> 2024 02 29 08 21 29.0000000  0 13
G01                                                                                                                                  23913592.383 5  97922170.55105      1547.564 5        30.000
G02  25444049.310 5 133709377.26405       386.448 5        33.969
G10  23564626.634 4                       854.882 4        28.125                                                                    23564623.814 4                       666.225 4        26.125
G12  22081173.150 7 116037362.56507      4980.258 7        44.656    22081172.408 6  90418726.28406      3880.711 6        40.469    22081173.342 6  90418739.29506      3880.756 6        41.344
G13  24296114.851 6 127676942.51306     -2143.989 6        40.031    24296119.876 3  99488542.00903     -1670.609 3        21.875
G14  24683326.459 5 129711746.62305     -1719.937 5        33.469                                                                    24683348.928 5                     -1340.428 5        32.406
G15  22760673.990 5 119608120.00605     -1825.460 5        32.406    22760677.233 3  93201157.00903     -1422.420 3        22.656    22760678.530 5  93201122.01905     -1423.393 5        30.125
G17  22312163.163 6 117251229.97706       389.032 6        40.000    22312164.487 4  91364584.66004       303.142 4        29.000    22312166.507 5  91364590.62105       303.510 5        35.281
G19  21411505.695 7 112518225.63407      2744.009 7        42.469    21411503.835 4  87676530.99604      2138.188 4        27.719
G22  23198137.476 5                     -1193.409 5        32.156
G23  24127807.799 5                     -1029.212 5        32.844
G24  19987142.539 8 105033138.03608      1668.309 8        48.688    19987144.361 8  81844006.39608      1299.979 8        52.750    19987144.933 7  81844006.39807      1299.940 7        47.219
G32  24549658.364 4                      5100.333 4        27.563                                                                    24549670.144 4                      3974.377 4        24.844
> 2024 02 29 08 21 30.0000000  0 13
G01                                                                                                                                  23913215.001 4  97920622.95904      1547.807 4        29.281
G02  25443975.718 5 133708990.67805       387.414 5        33.438
G10  23564466.040 3                       854.724 3        22.344                                                                    23564460.014 3                       666.470 3        22.313
G12  22080225.371 7 116032382.48507      4980.669 7        44.938    22080224.773 6  90414845.70306      3881.038 6        40.781    22080226.114 6  90414858.70706      3881.131 6        41.625
G13  24296522.580 6 127679086.43806     -2143.081 6        40.656    24296527.786 3  99490212.60203     -1669.934 3        21.875
G14  24683653.685 5 129713466.52005     -1719.933 5        33.156                                                                    24683677.364 4                     -1340.596 4        25.875
G15  22761020.736 5 119609945.82305     -1825.181 5        33.813    22761024.611 3  93202579.73903     -1422.279 3        22.219    22761026.393 4  93202544.76804     -1422.304 4        29.094
G17  22312089.433 6 117250841.21706       389.369 6        38.219    22312090.522 4  91364281.72604       303.394 4        29.438    22312093.035 5  91364287.74105       303.285 5        35.875
G19  21410983.485 7 112515481.69707      2744.493 7        42.438    21410981.589 4  87674392.86104      2138.555 4        27.750
G22  23198364.380 5                     -1193.235 5        32.125
G23  24128003.893 5                     -1029.236 5        30.594                                                                    24128006.470 4                      -802.207 4        26.063
G24  19986825.091 8 105031469.81108      1668.717 8        49.531    19986826.881 8  81842706.48508      1300.299 8        52.781    19986827.632 7  81842706.48107      1300.316 7        47.438
G32  24548688.513 4                      5100.793 4        29.844
> 2024 02 29 08 21 31.0000000  0 13
G01                                                                                                                                  23912837.227 4  97919076.26004      1546.448 4        29.313
G02  25443902.151 5 133708604.88505       385.441 5        32.938
G10                                                                                                                                  23564296.058 3                       665.922 3        23.969
G12  22079277.775 7 116027403.05007      4979.150 7        44.688    22079277.249 6  90410965.62806      3879.848 6        40.938    22079278.508 6  90410978.63206      3879.848 6        41.500
G13  24296930.641 6 127681230.71606     -2144.648 6        39.938    24296935.777 3  99491883.46303     -1671.138 3        22.281
G14  24683980.649 5 129715186.77505     -1720.273 5        33.500                                                                    24684005.264 4                     -1340.309 4        28.281
G15  22761368.170 5 119611772.35605     -1826.491 5        33.563    22761372.052 3  93204002.99403     -1423.212 3        21.813    22761373.823 4  93203967.94604     -1422.816 4        28.969
G17  22312015.969 6 117250453.36606       387.265 6        40.281    22312016.700 4  91363979.50704       301.754 4        29.563    22312018.950 6  91363985.50606       301.864 6        36.344
G19  21410461.479 7 112512738.74007      2742.508 7        42.938    21410459.554 4  87672255.49804      2137.022 4        27.875
G22  23198591.181 4                     -1193.639 4        29.938
G23  24128199.079 5                     -1030.033 5        31.813                                                                    24128201.652 4                      -802.634 4        25.313
G24  19986507.951 8 105029802.49908      1666.934 8        49.219    19986509.579 8  81841407.28408      1298.903 8        52.875    19986510.489 7  81841407.28807      1298.809 7        47.063
G32  24547717.447 4                      5100.179 4        29.469                                                                    24547733.461 4                      3973.879 4        27.625
> 2024 02 29 08 21 32.0000000  0 13
G01                                                                                                                                  23912459.192 5  97917530.16905      1545.776 5        30.938
G02  25443828.489 5 133708219.63405       385.260 5        33.938
G10  23564144.772 3                       851.849 3        19.063                                                                    23564135.048 4                       665.455 4        26.250
G12  22078330.249 7 116022423.95807      4979.177 7        44.813    22078329.802 6  90407085.81306      3879.885 6        40.969    22078331.292 6  90407098.83806      3879.724 6        40.813
G13  24297338.629 6 127683375.05306     -2144.214 6        40.813    24297343.790 3  99493554.37403     -1670.811 3        22.375
G14  24684308.187 5 129716907.16805     -1720.100 5        32.969                                                                    24684332.153 4                     -1340.270 4        24.938
G15  22761715.649 5 119613599.13605     -1826.502 5        34.063    22761719.510 3  93205426.47703     -1423.293 3        21.219    22761719.298 4  93205391.30704     -1423.033 4        29.844
G17  22311942.583 6 117250066.03806       387.137 6        39.750    22311942.981 4  91363677.69704       301.639 4        29.875    22311945.438 6  91363683.69606       302.070 6        36.250
G19  21409939.735 7 112509996.50307      2742.130 7        42.688    21409937.662 4  87670118.69304      2136.721 4        27.938
G22  23198817.360 4                     -1193.387 4        28.938
G23  24128394.873 5                     -1030.200 5        32.031                                                                    24128398.130 4                      -802.492 4        25.750
G24  19986190.751 8 105028135.75308      1666.544 8        49.406    19986192.389 8  81840108.52208      1298.606 8        52.844    19986193.342 7  81840108.53507      1298.549 7        47.344
G32  24546745.915 4                      5099.890 4        28.281                                                                    24546764.354 4                      3974.231 4        27.875
> 2024 02 29 08 21 33.0000000  0 13
G01                                                                                                                                  23912081.424 5  97915984.92605      1545.080 5        30.438
G02  25443755.009 5 133707835.33705       384.176 5        32.813
G10  23563984.030 3                       852.226 3        21.219                                                                    23563972.674 4                       664.512 4        25.125
G12  22077383.052 7 116017445.68107      4977.946 7        44.469    22077382.466 6  90403206.63906      3878.920 6        41.125    22077383.971 6  90403219.64806      3878.973 6        41.719
G13  24297746.851 6 127685520.00006     -2145.340 6        39.656    24297751.924 3  99495225.75803     -1671.692 3        22.531
G14  24684635.145 5 129718628.05705     -1721.328 5        32.969                                                                    24684657.190 4                     -1341.164 4        29.469
G15  22762063.132 6 119615426.58806     -1827.839 6        36.125    22762067.112 3  93206850.45403     -1424.293 3        21.156    22762068.020 4  93206815.44604     -1423.913 4        28.563
G17  22311869.270 6 117249679.80506       385.784 6        40.656    22311869.521 5  91363376.74105       300.616 5        30.219    22311871.642 6  91363382.75206       300.584 6        36.719
G19  21409418.347 7 112507255.40707      2740.475 7        43.531    21409415.985 4  87667982.78304      2135.426 4        27.844
G22  23199043.861 4                     -1193.560 4        25.906
G23  24128589.622 5                     -1031.240 5        33.000
G24  19985873.871 8 105026470.08708      1665.310 8        49.156    19985875.404 8  81838810.60408      1297.639 8        52.875    19985876.403 7  81838810.59107      1297.567 7        47.438
G32  24545776.646 4                      5099.979 4        26.219                                                                    24545796.484 4                      3973.568 4        27.531
> 2024 02 29 08 21 34.0000000  0 13
G01                                                                                                                                  23911704.210 4  97914439.94304      1544.668 4        29.313
G02  25443681.987 5 133707451.26405       383.982 5        32.938
G10  23563821.389 4                       852.142 4        26.719                                                                    23563809.867 4                       663.641 4        24.844
G12  22076435.657 7 116012467.37807      4978.529 7        44.656    22076435.158 6  90399327.44406      3879.377 6        41.094    22076436.735 6  90399340.44506      3879.338 6        41.063
G13  24298155.042 6 127687664.59506     -2144.342 6        37.500    24298160.004 3  99496896.86503     -1670.875 3        22.188
G14  24684962.584 5 129720348.55905     -1720.264 5        31.969                                                                    24684983.945 5                     -1340.469 5        31.438
G15  22762411.305 6 119617253.92506     -1827.125 6        37.000    22762414.758 3  93208274.34603     -1423.716 3        22.000    22762415.912 5  93208239.23605     -1423.860 5        33.719
G17  22311796.048 6 117249293.71506       385.945 6        39.375    22311796.101 5  91363075.89105       300.723 5        30.344    22311798.051 5  91363081.88705       301.118 5        35.875
G19  21408897.046 7 112504514.59807      2740.788 7        43.500    21408894.366 4  87665847.08304      2135.685 4        27.938
G22  23199271.511 4                     -1194.234 4        28.844
G23  24128785.595 5                     -1030.660 5        32.875                                                                    24128796.020 4                      -803.927 4        25.031
G24  19985556.969 8 105024804.60308      1665.502 8        49.125    19985558.456 8  81837512.82208      1297.799 8        52.813    19985559.539 7  81837512.79607      1297.715 7        47.000
G32  24544806.076 3                      5098.891 3        23.000                                                                    24544826.625 4                      3973.948 4        24.938
> 2024 02 29 08 21 35.0000000  0 13
G01                                                                                                                                  23911327.318 4  97912895.24304      1544.109 4        29.719
G02  25443608.910 5 133707067.21405       383.726 5        33.125
G10  23563660.540 4                       852.174 4        24.219                                                                    23563649.640 5                       663.624 5        30.094
G12  22075488.599 7 116007489.03907      4977.857 7        43.000    22075487.813 6  90395448.20806      3878.847 6        40.969    22075489.362 6  90395461.22006      3879.000 6        41.844
G13  24298562.776 6 127689808.86606     -2144.484 6        38.000    24298568.107 3  99498567.71403     -1671.025 3        21.625
G14  24685289.476 5 129722068.79405     -1720.141 5        34.063
G15  22762759.199 6 119619081.16606     -1827.233 6        38.000    22762762.476 3  93209698.13803     -1423.757 3        23.094    22762764.072 5  93209663.23405     -1424.909 5        31.969
G17  22311722.870 6 117248907.87206       385.048 6        38.781    22311722.749 5  91362775.24505       300.035 5        30.313    22311724.842 6  91362781.25506       300.413 6        36.656
G19  21408375.593 7 112501774.08807      2740.198 7        43.313    21408372.831 4  87663711.61904      2135.227 4        28.125
G22  23199498.638 4                     -1194.524 4        29.375
G23  24128981.439 5                     -1031.300 5        32.813                                                                    24128988.027 4                      -803.242 4        25.813
G24  19985240.149 8 105023139.34008      1664.871 8        49.719    19985241.534 8  81836215.20708      1297.312 8        52.875    19985242.646 7  81836215.17607      1297.332 7        47.250
G32  24543835.685 4                      5099.502 4        29.375                                                                    24543853.390 3                      3973.313 3        22.969
> 2024 02 29 08 21 36.0000000  0 13
G01                                                                                                                                  23910950.115 4  97911351.36404      1543.603 4        29.906
G02  25443536.088 5 133706683.93205       382.991 5        34.000
G10  23563497.979 4                       850.591 4        27.406                                                                    23563488.040 4                       663.447 4        26.688
G12  22074541.134 7 116002511.27007      4977.950 7        43.719    22074540.607 6  90391569.43206      3878.912 6        40.875    22074542.013 6  90391582.44606      3878.841 6        41.938
G13  24298970.484 6 127691953.45306     -2144.073 6        37.938    24298976.210 3  99500238.79903     -1670.720 3        21.438
G14  24685616.757 5 129723789.39105     -1720.278 5        34.813                                                                    24685633.717 4                     -1340.294 4        29.375
G15  22763107.821 5 119620909.00905     -1827.165 5        35.875    22763110.297 3  93211122.42703     -1423.769 3        23.719    22763112.246 5  93211087.28905     -1423.811 5        32.031
G17  22311649.807 6 117248522.79406       385.557 6        36.969    22311649.530 5  91362475.19305       300.413 5        30.438    22311651.651 6  91362481.19806       300.315 6        36.375
G19  21407854.151 7 112499034.53607      2739.721 7        43.063    21407851.516 4  87661576.89504      2134.849 4        28.156
G22  23199725.859 5                     -1194.679 5        30.031
G23  24129176.924 5                     -1030.856 5        30.156
G24  19984923.562 8 105021474.88308      1664.484 8        48.938    19984924.769 8  81834918.22008      1296.996 8        52.938    19984925.888 7  81834918.22107      1297.175 7        47.344
G32  24542865.186 4                      5099.491 4        25.406
> 2024 02 29 08 21 37.0000000  0 13
G01                                                                                                                                  23910573.179 5  97909807.86805      1542.859 5        30.281
G02  25443463.528 5 133706300.97005       381.977 5        32.000
G10  23563334.246 3                       850.581 3        21.625                                                                    23563326.494 4                       662.256 4        29.563
G12  22073593.956 7 115997533.64007      4977.066 7        43.125    22073593.437 6  90387690.76006      3878.231 6        40.781    22073594.654 7  90387703.78007      3878.298 7        42.813
G13  24299378.468 6 127694097.95906     -2145.060 6        36.938    24299384.442 3  99501909.84203     -1671.472 3        21.000
G14  24685944.136 5 129725509.82005     -1721.210 5        34.000
G15  22763455.795 6 119622736.83406     -1828.403 6        38.188    22763458.077 4  93212546.68904     -1424.739 4        24.281    22763460.385 5  93212511.69605     -1424.892 5        32.813
G17  22311575.970 6 117248138.16706       383.932 6        38.969    22311576.379 5  91362175.49105       299.166 5        30.219    22311578.622 6  91362181.45306       298.961 6        36.094
G19  21407333.189 7 112496295.46007      2738.411 7        42.625    21407330.290 4  87659442.54704      2133.832 4        28.375
G22  23199953.572 4                     -1193.855 4        26.594
G23  24129372.576 5 126800719.22715     -1031.621 5        30.156                                                                    24129375.153 4                      -804.369 4        27.344
G24  19984606.909 8 105019810.85908      1663.389 8        49.375    19984608.093 8  81833621.58108      1296.147 8        53.000    19984609.279 7  81833621.58607      1296.121 7        47.156
G32  24541895.412 5                      5098.345 5        33.188
> 2024 02 29 08 21 38.0000000  0 13
G01                                                                                                                                  23910196.380 4  97908264.79704      1542.522 4        29.938
G02  25443390.941 5 133705918.37905       381.907 5        33.594
G10                                                                                                                                  23563165.019 4                       662.183 4        28.375
G12  22072646.669 7 115992556.19107      4976.865 7        44.250    22072646.303 6  90383812.22706      3878.075 6        40.875    22072647.319 6  90383825.23406      3877.968 6        40.438
G13  24299786.543 6 127696242.34806     -2144.726 6        36.844    24299792.621 3  99503580.77603     -1671.185 3        21.000
G14  24686271.462 5 129727229.98705     -1719.952 5        32.688
G15  22763803.966 5 119624564.68805     -1828.212 5        33.969    22763805.889 4  93213970.98704     -1424.618 4        24.344    22763808.555 5  93213935.99805     -1425.228 5        32.625
G17  22311502.707 6 117247753.83006       383.678 6        38.344    22311503.268 5  91361876.00405       298.962 5        30.375    22311505.317 5  91361882.00505       298.837 5        35.344
G19  21406812.098 7 112493556.88107      2738.064 7        43.438    21406809.159 4  87657308.58804      2133.561 4        28.469
G22  23200180.561 4                     -1194.352 4        26.281
G23  24129565.913 5 126801751.01005     -1033.120 5        30.750
G24  19984290.295 8 105018147.17508      1662.969 8        49.188    19984291.484 8  81832325.20408      1295.820 8        52.906    19984292.575 7  81832325.21207      1295.695 7        47.500
G32  24540924.516 4                      5098.650 4        28.500                                                                    24540923.247 4                      3973.213 4        25.438
> 2024 02 29 08 21 39.0000000  0 13
G01                                                                                                                                  23909820.282 5  97906722.14305      1542.084 5        30.281
G02  25443317.776 5 133705536.10205       381.678 5        34.781
G10                                                                                                                                  23563002.104 4                       662.035 4        28.063
G12  22071699.548 7 115987578.92407      4976.673 7        44.938    22071699.128 6  90379933.84406      3877.904 6        40.906    22071699.841 6  90379946.89406      3877.845 6        40.906
G13  24300194.426 6 127698386.65706     -2145.078 6        39.781    24300200.764 3  99505251.64703     -1671.487 3        20.813
G14  24686598.459 5 129728950.30805     -1721.023 5        34.688
G15  22764152.137 5 119626392.76505     -1828.837 5        32.344    22764153.741 4  93215395.47004     -1425.066 4        24.156    22764156.845 5  93215360.41305     -1425.035 5        33.125
G17  22311429.711 6 117247370.02106       382.945 6        36.813    22311430.237 5  91361576.92705       298.403 5        30.313    22311431.780 5  91361582.91105       298.280 5        34.125
G19  21406291.016 7 112490818.88807      2737.299 7        43.969    21406288.116 4  87655175.08104      2132.962 4        28.781
G22  23200407.308 4                     -1195.896 4        26.563
G23  24129761.701 5 126802782.74105     -1031.843 5        30.875                                                                    24129769.792 3                      -803.237 3        23.313
G24  19983973.776 8 105016483.99208      1662.440 8        48.875    19983974.969 8  81831029.21708      1295.407 8        52.969    19983976.097 7  81831029.20507      1295.490 7        47.875
G32  24539954.138 4                      5099.139 4        27.063                                                                    24539954.189 3                      3972.988 3        21.813
> 2024 02 29 08 21 40.0000000  0 13
G01                                                                                                                                  23909443.516 5  97905180.39205      1541.379 5        31.469
G02  25443244.998 5 133705154.72405       380.546 5        32.344
G10                                                                                                                                  23562841.662 5                       661.109 5        30.344
G12  22070752.663 7 115982602.33907      4976.388 7        45.000    22070752.128 6  90376055.99506      3877.702 6        40.938    22070753.081 6  90376069.03006      3877.643 6        41.000
G13  24300602.847 6 127700531.32306     -2144.554 6        40.469    24300608.982 3  99506922.81103     -1671.069 3        21.219
G14  24686925.519 5 129730670.84605     -1720.519 5        35.406                                                                    24686933.761 4                     -1340.645 4        29.750
G15  22764500.271 5 119628221.48005     -1828.425 5        35.219    22764501.709 3  93216820.45103     -1424.767 3        23.750    22764504.290 5  93216785.48005     -1424.869 5        33.375
G17  22311356.482 6 117246987.04806       382.359 6        38.000    22311357.337 4  91361278.50604       297.958 4        29.969    22311359.017 5  91361284.44605       298.553 5        35.125
G19  21405770.226 7 112488081.88007      2736.648 7        43.656    21405767.270 4  87653042.35104      2132.460 4        28.563
G22  23200633.518 4                     -1195.508 4        24.469
G23  24129957.571 5 126803815.18805     -1032.675 5        32.438                                                                    24129970.621 3                      -803.895 3        23.906
G24  19983657.371 8 105014821.68808      1662.118 8        49.188    19983658.642 8  81829733.91508      1295.156 8        53.063    19983659.810 7  81829733.92707      1295.039 7        47.906
G32  24538984.422 4                      5097.782 4        28.344                                                                    24538987.057 4                      3971.711 4        26.344
> 2024 02 29 08 21 41.0000000  0 13
G01                                                                                                                                  23909067.154 5  97903639.09705      1541.048 5        31.781
G02  25443172.279 5 133704773.70305       380.805 5        32.063
G10                                                                                                                                  23562681.127 4                       660.769 4        28.531
G12  22069805.809 7 115977626.00507      4976.244 7        44.656    22069805.163 6  90372178.33606      3877.596 6        41.188    22069806.183 6  90372191.37606      3877.289 6        41.625
G13  24301011.375 6 127702676.02906     -2144.676 6        40.750    24301017.134 3  99508594.00503     -1671.175 3        21.500
G14  24687252.843 5 129732391.43405     -1720.431 5        35.063                                                                    24687260.265 5                     -1340.541 5        30.156
G15  22764848.072 5 119630050.29805     -1827.903 5        34.156    22764849.704 3  93218245.53403     -1424.330 3        22.969    22764853.607 5  93218210.48405     -1425.149 5        30.125
G17  22311283.405 6 117246604.56606       382.219 6        38.188    22311284.498 4  91360980.45604       297.843 4        29.781    22311285.894 5  91360986.46605       298.202 5        34.844
G19  21405249.685 7 112485345.47907      2735.971 7        43.500    21405246.581 4  87650910.09304      2131.914 4        28.406
G22  23200864.124 4                     -1195.374 4        29.813
G23  24130154.256 5 126804847.83805     -1033.132 5        32.625
G24  19983341.054 8 105013159.92408      1661.425 8        49.313    19983342.427 8  81828439.03508      1294.613 8        53.063    19983343.661 7  81828439.02407      1294.771 7        47.750
G32  24538014.943 5                      5097.746 5        30.000
> 2024 02 29 08 21 42.0000000  0 13
G01                                                                                                                                  23908690.423 5  97902098.72005      1540.667 5        32.063
G02  25443100.183 4 133704393.69004       380.418 4        29.719
G10  23562510.573 4                       847.325 4        24.875                                                                    23562520.797 4                       659.845 4        29.625
G12  22068859.181 7 115972650.49707      4975.888 7        44.813    22068858.373 6  90368301.32006      3877.308 6        41.563    22068859.630 7  90368314.33907      3877.304 7        42.344
G13  24301420.060 6 127704821.28106     -2144.892 6        40.063    24301425.335 3  99510265.62703     -1671.345 3        22.031
G14  24687580.862 5 129734112.54905     -1720.581 5        33.063                                                                    24687586.188 4                     -1340.963 4        28.281
G15  22765195.636 5 119631879.93005     -1828.890 5        31.844    22765197.851 3  93219671.22803     -1425.078 3        22.750    22765201.730 5  93219636.12105     -1425.561 5        33.094
G17  22311210.396 6 117246223.13606       381.671 6        39.563    22311211.839 4  91360683.23004       297.416 4        29.875    22311212.986 5  91360689.26005       297.152 5        34.469
G19  21404729.202 7 112482610.19007      2735.494 7        43.656    21404726.089 4  87648778.69904      2131.558 4        28.344
G22  23201091.846 4                     -1195.776 4        29.781
G23  24130351.499 5 126805881.32405     -1033.216 5        31.594                                                                    24130368.520 4                      -805.472 4        28.094
G24  19983024.937 8 105011499.15108      1660.962 8        49.094    19983026.382 8  81827144.92708      1294.256 8        53.031    19983027.559 7  81827144.92607      1294.348 7        47.375
G32  24537044.663 5                      5096.970 5        31.281
> 2024 02 29 08 21 43.0000000  0 13
G01                                                                                                                                  23908314.958 5  97900558.78105      1539.466 5        32.844
G02  25443026.786 5 133704013.94005       379.023 5        31.281
G10  23562349.277 3                       847.069 3        20.656                                                                    23562360.149 4                       659.395 4        28.969
G12  22067912.524 7 115967675.13907      4974.575 7        44.500    22067911.655 6  90364424.41806      3876.289 6        41.688    22067912.788 6  90364437.44106      3876.454 6        41.563
G13  24301828.319 6 127706966.38306     -2145.462 6        39.531    24301833.532 3  99511937.13803     -1671.801 3        21.969
G14  24687908.281 5 129735833.49205     -1721.774 5        31.813                                                                    24687913.113 4                     -1341.004 4        27.219
G15  22765542.728 5 119633709.55505     -1830.161 5        30.625    22765546.012 3  93221096.89403     -1426.107 3        22.750    22765550.472 5  93221061.78605     -1425.761 5        34.000
G17  22311138.094 6 117245842.12706       379.981 6        38.531    22311139.251 4  91360386.33504       296.090 4        29.781    22311140.497 5  91360392.34005       296.497 5        34.250
G19  21404208.705 7 112479875.41307      2733.919 7        43.531    21404205.650 4  87646647.70804      2130.315 4        28.219
G22  23201319.872 4                     -1195.566 4        27.688
G23  24130548.266 5 126806914.91005     -1034.536 5        31.469                                                                    24130566.080 4                      -806.055 4        26.156
G24  19982708.919 8 105009838.81608      1659.583 8        49.344    19982710.430 8  81825851.16208      1293.173 8        52.969    19982711.541 7  81825851.16307      1293.124 7        47.125
G32  24536074.898 5                      5097.176 5        30.875
> 2024 02 29 08 21 44.0000000  0 13
G01                                                                                                                                  23907940.198 5  97899019.57605      1539.369 5        31.531
G02  25442953.936 5 133703634.97205       379.679 5        33.281
G10  23562187.775 4                       845.787 4        24.906                                                                    23562198.621 4                       658.870 4        28.094
G12  22066966.018 7 115962700.32807      4975.457 7        44.469    22066964.981 6  90360547.94806      3876.979 6        41.813    22066966.061 6  90360560.94006      3877.197 6        41.625
G13  24302236.604 6 127709111.81506     -2144.617 6        39.125    24302241.733 3  99513608.88003     -1671.112 3        22.031
G14  24688235.431 5 129737554.75105     -1720.288 5        33.156                                                                    24688241.741 4                     -1341.102 4        28.781
G15  22765890.616 5 119635539.61605     -1829.495 5        33.156    22765894.320 3  93222522.90803     -1425.550 3        22.750    22765898.638 5  93222487.80605     -1425.060 5        32.469
G17  22311065.887 6 117245461.84006       380.742 6        39.594    22311066.820 4  91360090.00004       296.675 4        29.563    22311067.942 5  91360095.99605       296.847 5        33.469
G19  21403688.352 7 112477141.53407      2734.336 7        44.000    21403685.364 4  87644517.40404      2130.662 4        28.281
G22  23201546.378 4                     -1196.186 4        26.875
G23  24130744.929 5 126807949.02405     -1033.498 5        32.281                                                                    24130760.981 3                      -805.404 3        20.188
G24  19982393.153 8 105008179.26208      1660.165 8        48.938    19982394.622 8  81824558.00508      1293.641 8        52.875    19982395.703 7  81824557.98407      1293.640 7        47.188
G32  24535105.289 5                      5096.533 5        30.906
> 2024 02 29 08 21 45.0000000  0 13
G01                                                                                                                                  23907564.531 5  97897480.75605      1538.487 5        31.500
G02  25442881.992 5 133703256.28605       378.066 5        33.156
G10  23562024.275 3                       847.445 3        21.844                                                                    23562038.724 5                       658.839 5        31.500
G12  22066019.338 7 115957725.64407      4974.248 7        44.813    22066018.343 6  90356671.57106      3876.032 6        41.938    22066019.596 6  90356684.57206      3876.040 6        41.719
G13  24302644.605 6 127711257.04506     -2145.330 6        39.719    24302649.871 3  99515280.47203     -1671.666 3        21.781
G14  24688562.921 5 129739275.82705     -1721.510 5        34.219                                                                    24688569.207 4                     -1341.007 4        28.500
G15  22766239.264 5 119637369.80505     -1830.374 5        31.281    22766242.592 3  93223949.00303     -1426.249 3        22.688    22766246.125 5  93223913.96405     -1426.607 5        33.906
G17  22310993.703 6 117245081.93306       379.314 6        39.156    22310994.478 4  91359793.96704       295.564 4        29.438    22310995.607 5  91359800.01105       295.776 5        33.094
G19  21403168.069 7 112474408.13607      2732.827 7        43.938    21403165.171 4  87642387.48204      2129.482 4        28.375
G22  23201772.436 4                     -1195.894 4        25.469
G23  24130941.213 5 126808983.30005     -1034.938 5        33.531
G24  19982077.365 8 105006520.08608      1658.563 8        49.281    19982078.876 8  81823265.13408      1292.395 8        52.938    19982080.077 7  81823265.12307      1292.397 7        47.438
G32  24534135.162 5                      5096.594 5        30.438                                                                    24534149.929 4                      3972.970 4        24.250
> 2024 02 29 08 21 46.0000000  0 13
G01                                                                                                                                  23907188.490 5  97895942.79305      1537.548 5        33.375
G02  25442810.337 5 133702878.33705       377.648 5        33.719
G10  23561861.427 3                       846.230 3        21.500                                                                    23561879.427 4                       658.313 4        29.938
G12  22065072.902 7 115952751.56207      4974.058 7        44.219    22065071.835 7  90352795.66107      3875.893 7        42.281    22065073.121 6  90352808.68506      3875.799 6        41.906
G13  24303053.011 6 127713402.68806     -2145.753 6        40.188    24303058.054 3  99516952.40903     -1672.021 3        22.125
G14  24688890.718 5 129740997.32205     -1721.798 5        34.344                                                                    24688897.541 4                     -1341.409 4        28.656
G15  22766587.984 5 119639200.55405     -1830.733 5        34.156    22766590.950 3  93225375.54803     -1426.529 3        22.938    22766593.847 5  93225340.49905     -1426.590 5        32.875
G17  22310921.675 6 117244702.89706       378.674 6        39.813    22310922.292 4  91359498.62604       295.078 4        29.344    22310923.156 5  91359504.65305       294.942 5        33.281
G19  21402647.941 7 112471675.70807      2732.184 7        43.969    21402645.170 4  87640258.31304      2128.970 4        28.438
G22  23202000.176 4                     -1196.775 4        28.188
G23  24131138.607 5 126810018.09705     -1034.695 5        33.438                                                                    24131144.449 3                      -805.747 3        20.063
G24  19981761.674 8 105004861.77608      1657.922 8        49.031    19981763.305 8  81821972.94508      1291.885 8        52.875    19981764.494 7  81821972.93307      1291.989 7        46.813
G32  24533165.441 4                      5096.063 4        29.188                                                                    24533178.598 3                      3972.022 3        20.906
> 2024 02 29 08 21 47.0000000  0 13
G01                                                                                                                                  23906813.281 5  97894404.75405      1537.922 5        33.906
G02  25442739.077 5 133702500.23405       377.755 5        32.063
G10  23561702.931 3                       845.151 3        23.906                                                                    23561718.646 4                       658.127 4        27.313
G12  22064126.241 7 115947777.17407      4974.469 7        44.625    22064125.264 7  90348919.51507      3876.210 7        42.406    22064126.619 7  90348932.53507      3876.111 7        42.094
G13  24303461.460 6 127715547.66806     -2144.875 6        38.969    24303466.224 3  99518623.81503     -1671.331 3        22.094
G14  24689218.383 5 129742718.10105     -1720.905 5        33.438                                                                    24689225.485 5                     -1340.636 5        30.969
G15  22766936.164 5 119641030.85105     -1830.179 5        34.594    22766939.244 3  93226801.74503     -1426.098 3        23.250    22766941.400 5  93226766.65705     -1426.142 5        34.344
G17  22310849.875 6 117244323.69906       379.053 6        40.313    22310850.071 4  91359203.13904       295.373 4        29.219    22310851.349 5  91359209.16005       295.163 5        34.156
G19  21402127.819 7 112468943.25407      2732.337 7        44.844    21402125.188 4  87638129.12504      2129.095 4        28.625
G22  23202227.719 4                     -1195.781 4        28.781
G23  24131335.761 5 126811052.61405     -1034.518 5        34.281                                                                    24131341.263 3                      -805.410 3        22.500
G24  19981446.120 8 105003203.33208      1658.300 8        49.344    19981447.693 8  81820680.65008      1292.183 8        52.875    19981448.737 7  81820680.64207      1292.047 7        46.656
G32  24532195.953 5                      5096.595 5        31.500                                                                    24532208.238 3                      3970.828 3        21.813
> 2024 02 29 08 21 48.0000000  0 13
G01                                                                                                                                  23906438.027 5  97892867.91205      1536.212 5        34.156
G02  25442668.199 5 133702123.40805       376.060 5        31.531
G10  23561541.706 3                       847.442 3        21.344                                                                    23561558.061 4                       656.927 4        26.813
G12  22063179.698 7 115942803.86207      4973.130 7        44.813    22063178.916 7  90345044.21007      3875.168 7        42.438    22063179.876 7  90345057.22107      3875.168 7        42.313
G13  24303869.877 6 127717693.48906     -2146.213 6        38.688    24303874.550 3  99520295.86403     -1672.353 3        22.000
G14  24689546.075 5 129744439.65405     -1721.546 5        34.531                                                                    24689554.029 5                     -1341.436 5        31.563
G15  22767285.010 6 119642862.14906     -1831.524 6        36.031    22767287.749 3  93228228.71803     -1427.166 3        23.844    22767289.336 5  93228193.63505     -1426.724 5        32.656
G17  22310778.141 6 117243945.87206       377.288 6        40.031    22310778.092 4  91358908.73304       294.003 4        29.344    22310779.625 5  91358914.70405       293.921 5        34.406
G19  21401608.273 7 112466212.25207      2730.487 7        44.813    21401605.540 4  87636001.07304      2127.657 4        28.750
G22  23202455.400 4                     -1197.564 4        24.188
G23  24131532.263 5 126812088.09905     -1035.736 5        32.188                                                                    24131537.308 4                      -807.563 4        29.281
G24  19981130.832 8 105001546.23008      1656.633 8        49.563    19981132.327 8  81819389.39908      1290.887 8        52.875    19981133.378 7  81819389.39507      1290.877 7        46.656
G32  24531225.830 5                      5095.214 5        31.000                                                                    24531238.384 3                      3969.976 3        22.375
> 2024 02 29 08 21 49.0000000  0 13
G01                                                                                                                                  23906062.774 5  97891331.73205      1536.465 5        33.625
G02  25442596.742 5 133701747.19105       376.509 5        33.094
G10                                                                                                                                  23561396.993 4                       656.282 4        28.594
G12  22062233.347 7 115937831.03907      4973.129 7        44.781    22062232.627 7  90341169.28107      3875.170 7        42.563    22062233.685 7  90341182.27607      3875.229 7        42.156
G13  24304277.723 6 127719839.53506     -2145.407 6        38.531    24304282.970 3  99521968.09503     -1671.731 3        21.875
G14  24689873.781 6 129746161.46406     -1721.489 6        36.094                                                                    24689882.639 5                     -1341.551 5        32.031
G15  22767634.178 5 119644693.88805     -1831.286 5        34.906    22767636.357 4  93229656.05604     -1426.984 4        24.031    22767637.741 5  93229620.98505     -1426.812 5        33.125
G17  22310706.752 6 117243568.72206       377.452 6        40.625    22310706.255 4  91358614.84304       294.123 4        29.344    22310708.221 5  91358620.86805       294.117 5        34.000
G19  21401088.984 7 112463482.06207      2730.378 7        44.719    21401086.050 4  87633873.65304      2127.566 4        28.813
G22  23202683.203 4                     -1197.280 4        25.313
G23  24131729.047 5 126813124.13305     -1036.139 5        32.688                                                                    24131735.991 4                      -807.811 4        25.344
G24  19980815.614 8 104999889.87308      1656.584 8        49.281    19980817.100 8  81818098.72808      1290.844 8        52.781    19980818.142 7  81818098.73907      1290.908 7        46.781
G32  24530256.011 5                      5095.083 5        30.438                                                                    24530269.938 3                      3970.048 3        20.531
> 2024 02 29 08 21 50.0000000  0 13
G01                                                                                                                                  23905687.749 5  97889795.73705      1535.544 5        33.969
G02  25442524.778 5 133701371.00105       375.715 5        32.375
G10                                                                                                                                  23561235.804 4                       656.448 4        28.063
G12  22061286.912 7 115932858.01907      4973.141 7        44.313    22061286.302 7  90337294.19907      3875.168 7        42.563    22061287.522 6  90337307.19406      3875.234 6        41.688
G13  24304685.689 6 127721985.09206     -2145.168 6        38.156    24304691.341 3  99523639.95603     -1671.559 3        21.688
G14  24690201.622 5 129747882.77505     -1721.085 5        34.656                                                                    24690210.946 5                     -1341.350 5        32.875
G15  22767983.474 5 119646525.30305     -1831.165 5        33.625    22767984.898 4  93231083.12804     -1426.885 4        24.281    22767986.478 5  93231048.07705     -1426.828 5        34.125
G17  22310635.055 6 117243191.60006       377.312 6        39.688    22310634.463 4  91358320.99104       293.991 4        29.281    22310636.665 5  91358327.04705       293.796 5        34.531
G19  21400569.545 7 112460752.04107      2729.874 7        44.469    21400566.559 4  87631746.36104      2127.169 4        29.000
G22  23202911.139 4                     -1196.852 4        27.938
G23  24131926.114 5 126814159.84005     -1035.198 5        31.281                                                                    24131934.057 3                      -809.597 3        20.500
G24  19980500.465 8 104998233.55908      1656.272 8        49.125    19980501.878 8  81816808.09508      1290.601 8        52.750    19980502.869 7  81816808.09607      1290.590 7        47.156
G32  24529285.893 4                      5095.390 4        29.156                                                                    24529300.807 3                      3970.451 3        21.000
> 2024 02 29 08 21 51.0000000  0 13
G01                                                                                                                                  23905312.556 5  97888259.96505      1535.008 5        33.938
G02  25442453.440 5 133700994.95105       375.453 5        32.469
G10  23561068.175 3                       837.945 3        20.719                                                                    23561075.474 5                       656.264 5        30.594
G12  22060340.433 7 115927884.99007      4972.103 7        45.219    22060339.959 7  90333419.11507      3874.363 7        42.500    22060341.200 7  90333432.14207      3874.227 7        42.250
G13  24305093.660 6 127724130.38906     -2146.290 6        39.406    24305099.753 3  99525311.60403     -1672.418 3        21.531
G14  24690529.183 5 129749603.82505     -1721.500 5        34.563                                                                    24690538.935 5                     -1341.173 5        32.125
G15  22768332.404 5 119648356.73205     -1832.358 5        32.250    22768333.456 4  93232510.21904     -1427.802 4        24.188    22768334.885 5  93232475.13805     -1427.377 5        32.781
G17  22310563.405 6 117242814.71206       375.792 6        38.906    22310562.738 4  91358027.31304       292.822 4        29.156    22310565.599 5  91358033.33405       292.797 5        34.344
G19  21400050.096 7 112458022.34307      2728.623 7        44.531    21400047.122 4  87629619.33204      2126.201 4        29.313
G22  23203139.125 4                     -1196.467 4        26.656
G23  24132123.338 5 126815195.68005     -1037.005 5        31.969                                                                    24132132.293 4                      -806.893 4        28.813
G24  19980185.291 8 104996577.47908      1655.086 8        49.313    19980186.718 8  81815517.64208      1289.683 8        52.813    19980187.710 7  81815517.62907      1289.672 7        47.500
G32  24528316.655 4                      5095.616 4        28.406                                                                    24528333.336 3                      3970.771 3        23.406
> 2024 02 29 08 21 52.0000000  0 13
G01                                                                                                                                  23904937.796 5  97886725.20805      1534.815 5        35.281
G02  25442382.231 5 133700619.86305       375.689 5        31.781
G10  23560909.723 3                       839.982 3        22.281                                                                    23560915.220 4                       655.184 4        28.063
G12  22059394.227 7 115922912.77607      4972.691 7        44.094    22059393.777 7  90329544.66607      3874.820 7        42.563    22059395.220 6  90329557.68406      3874.835 6        41.625
G13  24305501.988 6 127726276.22306     -2145.192 6        40.031    24305508.262 3  99526983.67703     -1671.569 3        21.625
G14  24690856.418 5 129751325.39805     -1720.363 5        34.281                                                                    24690866.968 5                     -1341.627 5        30.563
G15  22768680.627 5 119650188.80205     -1831.664 5        33.719    22768682.113 3  93233937.79403     -1427.299 3        23.844    22768683.796 5  93233902.71305     -1426.767 5        32.500
G17  22310491.727 6 117242438.89806       376.191 6        39.125    22310491.215 4  91357734.47504       293.148 4        28.813    22310493.512 5  91357740.45005       292.760 5        34.250
G19  21399530.814 7 112455293.78707      2728.966 7        45.156    21399527.913 4  87627493.17904      2126.497 4        29.531
G22  23203366.333 4                     -1198.671 4        26.281
G23  24132320.667 5 126816232.27505     -1036.334 5        31.063
G24  19979870.434 8 104994922.45108      1655.444 8        49.281    19979871.777 8  81814228.00608      1289.961 8        52.969    19979872.913 7  81814228.00307      1289.963 7        47.594
G32  24527346.868 4                      5094.493 4        29.563                                                                    24527364.617 3                      3969.976 3        22.250
> 2024 02 29 08 21 53.0000000  0 13
G01                                                                                                                                  23904563.642 5  97885190.92405      1534.437 5        35.781
G02  25442311.525 5 133700245.27205       374.837 5        31.313
G10  23560752.250 4                       841.623 4        24.531                                                                    23560755.105 4                       655.106 4        24.344
G12  22058448.159 7 115917940.88307      4972.266 7        44.250    22058447.645 7  90325670.46807      3874.493 7        42.375    22058448.998 6  90325683.47006      3874.539 6        41.875
G13  24305910.525 6 127728422.09906     -2145.408 6        41.406    24305916.709 3  99528655.78603     -1671.739 3        22.000
G14  24691183.250 5 129753046.99405     -1720.595 5        33.906                                                                    24691194.805 5                     -1341.481 5        32.594
G15  22769029.752 6 119652021.17406     -1831.867 6        36.844    22769030.815 4  93235365.62204     -1427.436 4        24.250    22769033.150 5  93235330.56305     -1427.643 5        33.969
G17  22310420.182 6 117242063.58006       375.414 6        38.219    22310419.731 4  91357442.00504       292.534 4        28.813    22310422.276 5  91357448.01705       292.987 5        34.750
G19  21399011.610 7 112452565.92207      2727.928 7        44.938    21399008.838 4  87625367.55704      2125.666 4        29.688
G22  23203596.930 4                     -1198.702 4        25.906
G23  24132518.004 4 126817269.09404     -1036.712 4        29.250                                                                    24132528.421 4                      -808.163 4        29.094
G24  19979555.693 8 104993268.00508      1654.645 8        49.063    19979556.948 8  81812938.82608      1289.350 8        52.938    19979558.197 7  81812938.81807      1289.264 7        47.344
G32  24526377.500 5                      5094.467 5        31.406                                                                    24526396.587 3                      3968.836 3        22.875
> 2024 02 29 08 21 54.0000000  0 13
G01                                                                                                                                  23904188.741 6  97883657.12506      1533.550 6        36.031
G02  25442240.531 5 133699870.95905       374.043 5        31.063
G10  23560591.433 3                       838.268 3        22.250                                                                    23560592.199 4                       654.616 4        26.406
G12  22057502.168 7 115912969.17507      4971.648 7        44.156    22057501.557 7  90321796.41007      3874.018 7        42.375    22057502.820 7  90321809.43407      3873.808 7        42.531
G13  24306319.222 6 127730567.91406     -2145.671 6        39.750    24306325.084 3  99530327.84303     -1671.971 3        22.469
G14  24691511.305 5 129754768.47305     -1721.529 5        33.531                                                                    24691522.517 5                     -1341.487 5        33.344
G15  22769378.532 5 119653853.63005     -1832.117 5        34.125    22769379.601 4  93236793.51404     -1427.613 4        24.500    22769382.664 5  93236758.46205     -1427.822 5        34.625
G17  22310348.232 6 117241688.71606       374.624 6        39.750    22310348.328 4  91357149.89704       291.932 4        28.844    22310351.015 6  91357155.92006       291.499 6        36.188
G19  21398492.589 7 112449838.57707      2726.838 7        45.000    21398489.848 4  87623242.35104      2124.803 4        29.813
G22  23203824.893 4                     -1197.211 4        25.094
G23  24132714.564 5 126818306.12905     -1037.020 5        31.688                                                                    24132724.193 4                      -808.316 4        28.250
G24  19979241.004 8 104991613.94908      1653.822 8        48.844    19979242.186 8  81811649.94708      1288.695 8        52.875    19979243.502 7  81811649.95107      1288.606 7        47.188
G32  24525408.728 5                      5094.420 5        33.156                                                                    24525424.300 4                      3969.774 4        27.031
> 2024 02 29 08 21 55.0000000  0 13
G01                                                                                                                                  23903814.442 5  97882124.00705      1532.767 5        35.156
G02  25442169.659 5 133699497.43805       372.468 5        31.938
G10  23560432.681 3                       841.292 3        21.156                                                                    23560433.984 4                       654.364 4        25.313
G12  22056556.204 7 115907997.98207      4970.407 7        43.500    22056555.585 7  90317922.75507      3873.050 7        42.375    22056556.840 7  90317935.77707      3872.847 7        42.281
G13  24306727.670 6 127732713.94706     -2146.774 6        40.375    24306733.473 3  99532000.08203     -1672.818 3        22.188
G14  24691839.111 5 129756490.23905     -1722.779 5        33.438                                                                    24691849.889 5                     -1341.490 5        31.656
G15  22769726.864 5 119655686.55805     -1833.833 5        34.281    22769728.491 4  93238221.78204     -1428.968 4        24.656    22769731.716 5  93238186.68205     -1428.868 5        35.250
G17  22310276.656 6 117241314.57506       373.112 6        39.719    22310277.109 4  91356858.34904       290.751 4        28.875    22310279.861 5  91356864.34505       290.719 5        35.969
G19  21397973.903 7 112447112.04607      2725.472 7        44.969    21397971.050 4  87621117.78604      2123.732 4        29.875
G22  23204052.700 4                     -1196.754 4        24.094
G23  24132911.578 5 126819343.54905     -1037.995 5        30.438                                                                    24132922.214 4                      -808.791 4        26.969
G24  19978926.373 8 104989960.65408      1652.303 8        49.125    19978927.563 8  81810361.66308      1287.510 8        52.813    19978928.885 7  81810361.66207      1287.646 7        46.969
G32  24524439.978 5 128876796.59115      5093.230 5        33.219                                                                    24524454.020 4                      3970.367 4        24.031
> 2024 02 29 08 21 56.0000000  0 13
G01                                                                                                                                  23903440.187 6  97880591.63806      1531.381 6        36.125
G02  25442098.467 5 133699124.48605       371.246 5        32.188
G10  23560270.728 3                       842.316 3        20.594                                                                    23560276.163 4                       653.172 4        27.063
G12  22055610.208 7 115903027.30707      4969.483 7        43.813    22055609.711 7  90314049.50007      3872.323 7        42.313    22055610.842 6  90314062.50206      3872.455 6        41.938
G13  24307136.293 6 127734860.26306     -2147.433 6        39.344    24307141.795 3  99533672.53003     -1673.300 3        22.281
G14  24692166.540 5 129758212.17605     -1722.698 5        34.125    24692169.923 1                     -1341.604 1        10.125    24692176.832 5                     -1341.750 5        32.375
G15  22770076.449 5 119657519.78705     -1834.173 5        33.063    22770077.474 4  93239650.27404     -1429.214 4        24.625    22770081.272 5  93239615.24805     -1429.546 5        35.250
G17  22310205.298 6 117240941.12806       372.405 6        38.750    22310206.064 4  91356567.34104       290.179 4        28.875    22310208.727 6  91356573.34106       290.156 6        36.031
G19  21397455.204 7 112444386.37307      2724.424 7        44.750    21397452.418 4  87618993.88904      2122.930 4        29.750
G22  23204280.104 3                     -1198.877 3        23.813
G23  24133108.094 5 126820381.56505     -1039.185 5        30.313                                                                    24133120.423 4                      -808.977 4        29.406
G24  19978611.929 8 104988308.09808      1651.388 8        49.031    19978613.074 8  81809073.95808      1286.794 8        52.781    19978614.393 7  81809073.96907      1286.753 7        46.969
G32  24523471.200 5 128871702.94105      5092.368 5        32.719                                                                    24523485.534 3                      3970.246 3        23.344
> 2024 02 29 08 21 57.0000000  0 12
G01                                                                                                                                  23903065.930 6  97879059.62506      1531.515 6        36.063
G02  25442027.225 5 133698751.85505       373.027 5        32.031
G10  23560112.155 3                       839.812 3        20.063                                                                    23560117.765 4                       653.069 4        26.125
G12  22054664.144 7 115898056.74807      4970.339 7        44.656    22054663.847 7  90310176.33907      3872.992 7        42.250    22054664.752 6  90310189.35106      3873.066 6        41.656
G13  24307544.698 6 127737006.37906     -2146.192 6        39.938    24307550.179 3  99535344.80403     -1672.338 3        22.219
G14  24692494.452 5 129759934.00405     -1722.126 5        34.250    24692497.599 1 101111649.29611     -1342.005 1         9.406    24692504.454 5                     -1341.626 5        31.531
G15  22770425.058 5 119659353.17705     -1833.510 5        34.094    22770426.515 4  93241078.88904     -1428.704 4        24.438    22770430.392 5  93241043.83905     -1428.780 5        35.438
G17  22310134.243 6 117240568.07906       372.722 6        38.469    22310135.126 4  91356276.65004       290.438 4        28.813    22310136.946 5  91356282.68505       290.578 5        35.656
G19  21396936.649 7 112441661.20407      2724.855 7        45.000    21396933.826 4  87616870.37804      2123.259 4        29.656
G23  24133306.147 5 126821419.61305     -1038.171 5        31.375                                                                    24133318.673 4                      -809.106 4        27.969
G24  19978297.515 8 104986655.93508      1651.926 8        48.906    19978298.651 8  81807786.55808      1287.217 8        52.625    19978299.986 7  81807786.56007      1287.160 7        46.906
G32                                                                                                                                  24522514.065 4                      3968.809 4        25.875
> 2024 02 29 08 21 58.0000000  0 12
G01                                                                                                                                  23902691.686 5  97877528.21105      1531.298 5        34.094
G02  25441956.842 5 133698379.76705       371.913 5        31.844
G10  23559954.008 3                       837.592 3        23.000                                                                    23559958.763 4                       653.376 4        26.500
G12  22053718.433 7 115893086.54607      4969.933 7        44.375    22053718.027 7  90306303.45307      3872.676 7        42.188    22053719.021 6  90306316.48406      3872.701 6        41.844
G13  24307953.272 6 127739152.62406     -2146.358 6        40.625    24307958.537 3  99537017.20203     -1672.487 3        22.125
G14  24692822.395 5 129761655.88805     -1722.387 5        34.000    24692825.378 1 101112990.99701     -1342.091 1         9.125    24692830.963 5                     -1341.834 5        31.219
G15  22770773.740 5 119661186.81205     -1833.540 5        33.719    22770775.601 4  93242507.68504     -1428.718 4        24.406    22770779.576 5  93242472.63405     -1429.174 5        34.406
G17  22310063.408 6 117240195.61006       372.029 6        37.906    22310064.286 4  91355986.42004       289.893 4        28.688    22310066.067 5  91355992.44905       290.308 5        34.656
G19  21396418.225 7 112438936.71707      2724.137 7        44.719    21396415.346 4  87614747.40404      2122.706 4        29.688
G23  24133503.777 5 126822458.05705     -1038.768 5        31.625                                                                    24133516.153 4                      -808.878 4        26.813
G24  19977983.109 8 104985004.37608      1651.279 8        49.313    19977984.345 8  81806499.62908      1286.710 8        52.594    19977985.641 7  81806499.63007      1286.690 7        47.000
G32  24521531.894 4                      5093.421 4        28.281                                                                    24521544.644 4                      3967.868 4        26.031
> 2024 02 29 08 21 59.0000000  0 12
G01                                                                                                                                  23902317.874 6  97875997.35506      1530.704 6        36.063
G02  25441886.081 5 133698008.16605       371.604 5        32.375
G10  23559796.548 3                       840.635 3        18.000                                                                    23559799.421 4                       651.967 4        28.156
G12  22052772.753 7 115888116.71807      4969.797 7        43.969    22052772.266 7  90302430.86507      3872.567 7        42.094    22052773.368 6  90302443.87906      3872.411 6        41.719
G13  24308361.525 6 127741298.91106     -2146.219 6        41.719    24308366.930 3  99538689.61803     -1672.361 3        22.063
G14  24693150.266 5 129763377.81305     -1721.759 5        34.969    24693153.345 1 101114332.74101     -1341.544 1         9.313    24693158.058 5                     -1341.718 5        30.563
G15  22771122.063 5 119663020.71105     -1834.048 5        34.844    22771124.741 4  93243936.67004     -1429.130 4        24.000    22771128.533 5  93243901.63405     -1428.888 5        33.469
G17  22309992.627 6 117239823.69206       371.586 6        38.250    22309993.523 4  91355696.61504       289.534 4        28.500    22309995.075 5  91355702.63705       289.735 5        34.938
G19  21395899.829 7 112436212.91507      2723.629 7        44.750    21395897.031 4  87612624.96204      2122.310 4        29.875
G23  24133701.567 5 126823496.80505     -1038.858 5        32.031                                                                    24133715.122 3                      -808.845 3        22.656
G24  19977668.813 8 104983353.38808      1650.870 8        49.500    19977670.156 8  81805213.14208      1286.395 8        52.563    19977671.478 7  81805213.13907      1286.389 7        47.000
G32  24520563.517 4                      5092.319 4        26.156                                                                    24520576.108 4                      3968.517 4        27.844
> 2024 02 29 08 22  0.0000000  0 13
G01                                                                                                                                  23901943.875 5  97874467.33505      1529.728 5        35.031
G02  25441815.488 5 133697637.45105       370.071 5        32.875
G10  23559629.529 4                       836.490 4        24.344                                                                    23559640.504 4                       651.318 4        28.156
G12  22051827.266 7 115883147.57507      4968.856 7        43.125    22051826.638 6  90298558.80206      3871.846 6        41.844    22051827.715 6  90298571.80706      3871.918 6        41.375
G13  24308769.990 6 127743445.60106     -2146.864 6        41.125    24308775.422 3  99540362.35103     -1672.878 3        22.188
G14  24693477.664 5 129765100.18505     -1722.432 5        35.969    24693481.625 1 101115674.84301     -1342.170 1         9.031    24693486.324 4                     -1342.059 4        29.938
G15  22771470.739 6 119664855.21206     -1834.913 6        36.156    22771473.872 4  93245366.14904     -1429.826 4        24.188    22771477.195 5  93245331.14605     -1429.927 5        35.813
G17  22309922.079 6 117239452.74306       370.474 6        37.531    22309922.952 4  91355407.57404       288.690 4        28.344    22309924.644 5  91355413.57005       288.803 5        34.781
G19  21395381.602 7 112433490.16107      2722.299 7        45.156    21395378.904 4  87610503.33704      2121.265 4        29.875
G22  23205189.731 3                     -1197.040 3        23.906
G23  24133900.369 4 126824536.25804     -1039.726 4        29.344                                                                    24133910.568 4                      -809.172 4        24.531
G24  19977354.892 8 104981703.35008      1649.615 8        49.125    19977356.145 8  81803927.39508      1285.416 8        52.563    19977357.490 7  81803927.38907      1285.490 7        47.063
G32  24519593.768 4                      5092.677 4        27.813                                                                    24519606.500 4                      3968.492 4        26.656
> 2024 02 29 08 22  1.0000000  0 13
G01                                                                                                                                  23901569.900 5  97872937.90805      1528.168 5        33.125
G02  25441745.165 5 133697267.23605       369.529 5        33.438
G10                                                                                                                                  23559479.919 4                       651.071 4        25.906
G12  22050881.620 7 115878178.77907      4968.083 7        44.250    22050881.069 6  90294687.01506      3871.222 6        41.656    22050882.239 6  90294700.04806      3871.229 6        41.406
G13  24309178.669 6 127745592.39606     -2147.222 6        41.406    24309183.860 3  99542035.17603     -1673.162 3        22.219
G14  24693805.348 5 129766822.61405     -1722.927 5        35.531    24693809.864 1 101117017.02601     -1342.623 1         8.750    24693813.490 5                     -1342.114 5        30.813
G15  22771820.222 5 119666690.09005     -1835.072 5        34.313    22771823.016 4  93246795.93104     -1429.906 4        24.563    22771826.369 5  93246760.84205     -1430.199 5        35.906
G17  22309851.391 6 117239082.36606       369.123 6        36.906    22309852.502 4  91355118.95904       287.624 4        28.125    22309853.727 5  91355124.96705       287.743 5        35.156
G19  21394863.551 7 112430768.11207      2721.267 7        45.000    21394860.912 4  87608382.26204      2120.472 4        29.781
G22  23205417.497 3                     -1200.884 3        21.719
G23                                                                                                                                  24134106.778 4                      -810.884 4        25.906
G24  19977041.088 8 104980053.92108      1648.596 8        48.969    19977042.251 8  81802642.12508      1284.623 8        52.563    19977043.647 7  81802642.12307      1284.589 7        47.000
G32  24518624.330 5 128846237.78405      5091.247 5        30.406                                                                    24518639.386 4                      3968.351 4        27.844
> 2024 02 29 08 22  2.0000000  0 13
G01                                                                                                                                  23901196.535 5  97871408.71005      1529.144 5        34.594
G02  25441675.180 5 133696897.14605       370.036 5        32.281
G10                                                                                                                                  23559320.143 4                       650.644 4        28.094
G12  22049936.010 7 115873209.95507      4969.121 7        44.500    22049935.509 6  90290815.21306      3872.029 6        41.656    22049936.628 6  90290828.24006      3871.968 6        41.344
G13  24309587.269 6 127747738.90506     -2145.973 6        41.656    24309592.226 3  99543707.77703     -1672.201 3        22.219
G14  24694133.136 6 129768544.71006     -1721.854 6        36.344    24694137.594 1 101118358.94601     -1341.713 1         8.469    24694141.582 5                     -1341.890 5        32.125
G15  22772169.603 5 119668524.74705     -1834.518 5        34.063    22772172.205 4  93248225.52004     -1429.514 4        24.594    22772174.640 5  93248190.46705     -1429.394 5        34.813
G17  22309780.803 6 117238712.15706       370.597 6        36.750    22309782.096 4  91354830.49104       288.759 4        27.875    22309783.660 5  91354836.49005       288.429 5        35.844
G19  21394345.621 7 112428046.36407      2721.682 7        45.063    21394342.990 4  87606261.41604      2120.802 4        29.875
G22  23205644.741 3                     -1199.535 3        21.375
G23  24134297.520 4 126826615.73904     -1039.535 4        28.938                                                                    24134305.645 4                      -810.754 4        25.125
G24  19976727.289 8 104978404.66908      1649.374 8        49.125    19976728.401 8  81801356.99208      1285.227 8        52.500    19976729.746 7  81801356.99707      1285.170 7        47.250
G32  24517654.459 4 128841145.39804      5092.379 4        27.781                                                                    24517672.286 4                      3967.623 4        24.500
> 2024 02 29 08 22  3.0000000  0 13
G01                                                                                                                                  23900822.948 5  97869880.29405      1527.948 5        33.938
G02  25441604.756 5 133696527.79105       368.466 5        32.750
G10                                                                                                                                  23559160.372 4                       650.002 4        28.875
G12  22048990.656 7 115868241.73107      4967.642 7        45.031    22048990.069 6  90286943.87506      3870.887 6        41.781    22048991.318 7  90286956.87807      3870.935 7        42.063
G13  24309996.032 6 127749885.74506     -2147.161 6        41.594    24310000.794 3  99545380.64203     -1673.111 3        22.313
G14  24694460.851 6 129770267.07306     -1722.881 6        36.563    24694465.493 1 101119701.04001     -1342.533 1         9.688    24694469.719 5                     -1342.254 5        33.156
G15  22772518.840 5 119670359.97605     -1835.651 5        33.344    22772521.538 4  93249655.55604     -1430.358 4        24.344    22772523.298 5  93249620.52305     -1430.750 5        35.500
G17  22309710.454 6 117238342.74906       368.930 6        37.188    22309711.847 4  91354542.64404       287.476 4        27.781    22309713.263 5  91354548.64605       287.540 5        35.281
G19  21393827.991 7 112425325.53507      2720.211 7        45.250    21393825.248 5  87604141.28505      2119.644 5        30.000
G22  23205871.993 4                     -1199.767 4        24.031
G23  24134494.991 4 126827655.96804     -1040.658 4        29.219                                                                    24134501.578 4                      -810.800 4        26.719
G24  19976413.645 8 104976756.27008      1647.767 8        49.250    19976414.712 8  81800072.52708      1283.978 8        52.500    19976416.089 7  81800072.51107      1283.988 7        47.406
G32  24516685.726 4 128836053.53804      5091.396 4        28.406                                                                    24516705.691 4                      3966.906 4        26.625
> 2024 02 29 08 22  4.0000000  0 12
G01                                                                                                                                  23900449.835 5  97868352.27105      1528.010 5        34.438
G02  25441533.869 5 133696158.61805       369.396 5        32.500
G10  23558999.982 3                       832.329 3        21.094                                                                    23559000.275 4                       649.514 4        24.906
G12  22048045.406 7 115863273.50207      4968.534 7        44.188    22048044.647 6  90283072.52706      3871.590 6        41.938    22048046.000 6  90283085.55706      3871.533 6        41.719
G13  24310404.743 6 127752032.29206     -2146.127 6        41.094    24310409.295 3  99547053.26403     -1672.310 3        22.750
G14  24694788.951 5 129771989.24905     -1721.817 5        35.031    24694793.366 1 101121043.00601     -1341.693 1        10.125    24694797.887 5                     -1342.105 5        30.625
G15  22772868.499 5 119672195.24505     -1834.759 5        33.625    22772870.847 4  93251085.64504     -1429.690 4        24.750    22772873.057 6  93251050.56006     -1429.695 6        36.031
G17  22309640.375 6 117237973.63106       369.696 6        36.500    22309641.647 4  91354255.01404       288.089 4        27.719    22309643.386 6  91354261.03206       287.572 6        36.625
G19  21393310.450 7 112422605.07907      2720.500 7        44.344    21393307.564 5  87602021.44205      2119.871 5        30.000
G23  24134693.325 4 126828696.20804     -1039.618 4        28.750                                                                    24134699.103 4                      -811.399 4        26.469
G24  19976100.007 8 104975108.13508      1648.203 8        48.813    19976101.086 8  81798788.26108      1284.318 8        52.500    19976102.450 7  81798788.25407      1284.362 7        46.969
G32  24515716.423 5 128830961.65805      5092.022 5        33.094                                                                    24515736.677 4                      3967.295 4        29.250
> 2024 02 29 08 22  5.0000000  0 12
G01                                                                                                                                  23900076.883 5  97866824.66905      1527.567 5        35.375
G02  25441463.639 5 133695790.03205       368.358 5        32.313
G10  23558842.072 4                       833.172 4        26.813                                                                    23558840.401 4                       649.745 4        26.813
G12  22047100.067 7 115858305.64707      4967.908 7        44.531    22047099.261 7  90279201.47707      3871.096 7        42.000    22047100.612 6  90279214.48506      3871.245 6        41.438
G13  24310813.060 6 127754178.91206     -2146.648 6        41.250    24310817.768 3  99548725.95903     -1672.710 3        22.875
G14  24695116.505 5 129773711.45205     -1721.845 5        34.094    24695121.288 1 101122384.98901     -1341.637 1         9.406    24695125.652 5                     -1341.947 5        32.469
G15  22773217.418 5 119674030.62005     -1835.371 5        35.156    22773220.220 4  93252515.79904     -1430.167 4        25.188    22773222.274 5  93252480.73505     -1430.231 5        35.500
G17  22309570.373 6 117237605.07506       368.583 6        37.125    22309571.576 4  91353967.82904       287.205 4        27.750    22309573.190 5  91353973.80805       287.135 5        35.719
G19  21392792.891 7 112419885.28407      2719.690 7        44.625    21392789.991 4  87599902.11804      2119.246 4        29.969
G23  24134891.403 5 126829736.81305     -1040.663 5        30.406                                                                    24134897.831 4                      -811.012 4        28.719
G24  19975786.432 8 104973460.56008      1647.474 8        48.781    19975787.563 8  81797504.43608      1283.750 8        52.500    19975788.914 7  81797504.43407      1283.696 7        47.063
G32  24514747.978 5 128825869.91105      5091.848 5        31.219                                                                    24514766.867 4                      3967.557 4        29.438
> 2024 02 29 08 22  6.0000000  0 12
G01                                                                                                                                  23899704.037 5  97865297.71805      1525.884 5        34.563
G02  25441393.168 5 133695421.84505       366.831 5        32.219
G10  23558684.903 4                       832.469 4        25.656                                                                    23558681.882 4                       649.248 4        27.063
G12  22046154.820 7 115853338.13607      4966.292 7        44.656    22046153.938 6  90275330.68806      3869.838 6        41.906    22046155.178 6  90275343.67806      3869.822 6        41.125
G13  24311221.522 6 127756325.59506     -2147.861 6        40.875    24311226.247 3  99550398.68603     -1673.648 3        22.750
G14  24695444.050 5 129775433.70205     -1723.305 5        34.906    24695449.384 1 101123726.97801     -1342.799 1         9.031    24695453.293 5                     -1341.839 5        31.219
G15  22773566.481 5 119675866.23505     -1837.248 5        33.750    22773569.713 4  93253946.13404     -1431.601 4        25.563    22773571.695 6  93253911.10906     -1431.139 6        36.313
G17  22309500.170 6 117237237.07406       366.693 6        36.750    22309501.582 4  91353681.07504       285.735 4        27.469    22309503.219 5  91353687.06905       285.573 5        35.375
G19  21392275.518 7 112417166.19007      2717.684 7        44.656    21392272.558 5  87597783.34805      2117.673 5        30.031
G23  24135089.214 4 126830777.68104     -1042.299 4        29.688                                                                    24135095.597 4                      -810.989 4        27.281
G24  19975472.897 8 104971813.56108      1645.620 8        48.906    19975474.151 8  81796221.05708      1282.301 8        52.469    19975475.521 7  81796221.05907      1282.263 7        47.313
G32  24513779.087 5 128820778.54505      5090.117 5        31.469                                                                    24513798.313 4                      3967.207 4        28.969
